time,timestamp,recordtime,lat,long,alt,speed,course,verticalAccuracy,horizontalAccuracy,locTimeStamp,accelerationX,accelerationY,accelerationZ,HeadingX,HeadingY,HeadingZ,TrueHeading,MagneticHeading,HeadingAccuracy,RotationX,RotationY,RotationZ,motionYaw,motionRoll,motionPitch,motionRotationRateX,motionRotationRateY,motionRotationRateZ,motionUserAccelerationX,motionUserAccelerationY,motionUserAccelerationZ,en0,pdp_ip0,DeviceOrientation,Activity,Activity Confidence,Activity Start,Steps,Last Step Date,State
2014-11-13 21:42:20.753,11627,387.5667,40.10425,-88.22172,231,-1,-1,10,165,1415935777,-0.3398132,-0.9410248,-0.005966187,-19.12014,-29.87424,2.963898,90.3157,93.3989,10,-0.1428581,-0.08827633,-0.02009808,-2.950398,-1.533932,1.249552,-0.08035276,-0.0387055,-0.01250893,-0.02312019,-0.002969623,-0.004110008,172.17.160.76,0.0.0.0,1,unknown,2,2014-11-13 21:42:17.694,663,2014-11-13 21:42:20.236,0
2014-11-13 21:42:20.787,11628,387.6,40.10425,-88.22172,231,-1,-1,10,165,1415935777,-0.3290863,-0.9458466,-0.007156372,-19.08569,-29.63309,2.729462,89.61784,92.70103,10,-0.1321255,-0.04800668,-0.03372547,-2.956505,-1.528838,1.247947,-0.06965181,-0.004741433,-0.01660854,-0.0228225,0.007310478,0.007342141,172.17.160.76,0.0.0.0,1,unknown,2,2014-11-13 21:42:17.694,663,2014-11-13 21:42:20.236,0
2014-11-13 21:42:20.820,11629,387.6334,40.10425,-88.22172,231,-1,-1,10,165,1415935777,-0.3356781,-0.9393768,0.0001220703,-18.94786,-29.70199,2.461578,88.62696,91.71015,10,-0.133194,-0.04267716,-0.03157044,-2.959439,-1.526063,1.24749,-0.06535209,0.01007558,-0.02397385,-0.0134711,0.003869585,0.008958161,172.17.160.76,0.0.0.0,1,unknown,2,2014-11-13 21:42:17.694,663,2014-11-13 21:42:20.236,0
2014-11-13 21:42:20.853,11630,387.6667,40.10425,-88.22172,231,-1,-1,10,165,1415935777,-0.3388977,-0.93396,-0.004577637,-18.9134,-29.18526,2.495087,88.20113,91.28432,10,-0.1341562,-0.03229029,-0.0633566,-2.963473,-1.522242,1.245871,-0.05155065,0.01005191,-0.01974232,-0.02200402,0.007260047,0.016959,172.17.160.76,0.0.0.0,1,unknown,2,2014-11-13 21:42:17.694,663,2014-11-13 21:42:20.236,0
2014-11-13 21:42:20.886,11631,387.7,40.10425,-88.22172,231,-1,-1,10,165,1415935777,-0.3393707,-0.8900604,-0.005371094,-18.7411,-29.3575,3.064362,88.49755,91.58074,10,-0.1457886,-0.01335735,-0.08975039,-2.966782,-1.518759,1.245692,-0.08442673,0.03306767,-0.06938212,-0.01906785,0.01733479,0.01076959,172.17.160.76,0.0.0.0,1,unknown,2,2014-11-13 21:42:17.694,663,2014-11-13 21:42:20.236,0
2014-11-13 21:42:20.920,11632,387.7334,40.10425,-88.22172,231,-1,-1,10,165,1415935777,-0.3178864,-0.796051,-0.03749084,-18.84448,-29.46085,3.09787,88.6705,91.75369,10,-0.1871893,0.02454955,-0.1382239,-2.974295,-1.510139,1.245874,-0.09709583,0.06258387,-0.101012,-0.0184036,0.08358566,0.008335188,172.17.160.76,0.0.0.0,1,unknown,2,2014-11-13 21:42:17.694,663,2014-11-13 21:42:20.236,0
2014-11-13 21:42:20.953,11633,387.7667,40.10425,-88.22172,231,-1,-1,10,165,1415935777,-0.2618408,-0.7014313,-0.05105591,-18.43098,-30.08092,3.164856,89.11183,92.19502,10,-0.2306119,0.1367038,-0.2043441,-2.988329,-1.493726,1.250121,-0.162871,0.1448523,-0.1863126,0.01396361,0.1902337,-0.02222431,172.17.160.76,0.0.0.0,1,unknown,2,2014-11-13 21:42:17.694,663,2014-11-13 21:42:20.236,0
2014-11-13 21:42:20.987,11634,387.8,40.10425,-88.22172,231,-1,-1,10,165,1415935777,-0.2726288,-0.7748108,-0.0295105,-18.18976,-29.97757,2.193726,91.13312,94.21631,10,-0.1318675,0.3207639,-0.02541561,-3.007962,-1.464635,1.255972,-0.09478879,0.3474551,-0.0867829,0.04643159,0.2389825,-0.01049323,172.17.160.76,0.0.0.0,1,unknown,2,2014-11-13 21:42:17.694,663,2014-11-13 21:42:20.236,0
2014-11-13 21:42:21.019,11635,387.8333,40.10425,-88.22172,231,-1,-1,10,165,1415935777,-0.2817078,-0.9461365,0.003158569,-17.87965,-29.73643,2.026276,91.80046,94.88365,10,-0.08430609,0.3356084,0.1146001,-3.011691,-1.453463,1.255784,-0.03762511,0.3942125,0.05867226,0.03506946,0.1759817,0.006759431,172.17.160.76,0.0.0.0,1,unknown,2,2014-11-13 21:42:17.694,663,2014-11-13 21:42:20.236,0
2014-11-13 21:42:21.053,11636,387.8667,40.10425,-88.22172,231,-1,-1,10,165,1415935777,-0.2480774,-0.8935699,-0.05870056,-17.9141,-29.42641,1.523956,89.91758,93.00077,10,-0.1410447,0.224447,0.1651783,-3.010586,-1.439301,1.249002,-0.02744198,0.3432338,0.2037886,0.03183074,0.002533113,0.04462687,172.17.160.76,0.0.0.0,1,unknown,2,2014-11-13 21:42:17.694,663,2014-11-13 21:42:20.236,0
2014-11-13 21:42:21.087,11637,387.9,40.10425,-88.22172,231,-1,-1,10,165,1415935777,-0.2275085,-0.8012543,-0.08067322,-18.05193,-29.35751,1.45697,89.98967,93.07286,10,-0.2134348,-0.05682653,0.05994296,-3.017548,-1.426126,1.24551,-0.1679537,0.1288012,0.08111016,0.06816413,0.05398935,-0.0126281,172.17.160.76,0.0.0.0,1,unknown,2,2014-11-13 21:42:17.694,663,2014-11-13 21:42:20.236,0
2014-11-13 21:42:21.120,11638,387.9333,40.10425,-88.22172,231,-1,-1,10,165,1415935777,-0.2970428,-0.9443359,-0.03961182,-18.25869,-29.49531,1.523956,90.71391,93.7971,10,-0.03085885,-0.2093175,0.2813675,-3.030873,-1.413753,1.240868,-0.03943511,-0.08938457,0.1824436,0.08279086,0.1260886,-0.02660123,172.17.160.76,0.0.0.0,1,unknown,2,2014-11-13 21:42:17.694,663,2014-11-13 21:42:20.236,0
2014-11-13 21:42:21.153,11639,387.9667,40.10425,-88.22172,231,-1,-1,10,165,1415935777,-0.3723755,-1.118607,-0.007232666,-18.81003,-29.21971,1.858826,91.71362,94.79681,10,-0.05317587,-0.2690997,0.2429229,-3.024644,-1.424054,1.233579,0.03583293,-0.1788573,0.2995121,0.01137378,-0.03660681,0.0206217,172.17.160.76,0.0.0.0,1,unknown,2,2014-11-13 21:42:17.694,663,2014-11-13 21:42:20.236,0
2014-11-13 21:42:21.187,11640,388,40.10425,-88.22172,231,-1,-1,10,165,1415935777,-0.4066162,-1.255234,-0.01911926,-19.60258,-28.35851,2.294159,91.67027,94.75346,10,-0.07446598,-0.2531979,0.2367175,-3.019889,-1.434654,1.225868,0.006149737,-0.2080044,0.2368422,-0.03737475,-0.177507,0.03865914,172.17.160.76,0.0.0.0,1,unknown,2,2014-11-13 21:42:17.694,663,2014-11-13 21:42:20.236,0
2014-11-13 21:42:21.220,11641,388.0334,40.10425,-88.22172,231,-1,-1,10,165,1415935777,-0.3983765,-1.265854,-0.06593323,-19.91269,-28.11737,2.394592,91.14274,94.22593,10,-0.1263627,-0.2604103,0.1222338,-3.017916,-1.444245,1.216493,-0.04276028,-0.1891411,0.1989113,-0.06117166,-0.329293,0.01404878,172.17.160.76,0.0.0.0,1,unknown,2,2014-11-13 21:42:17.694,663,2014-11-13 21:42:20.236,0
2014-11-13 21:42:21.253,11642,388.0667,40.10425,-88.22172,231,-1,-1,10,165,1415935777,-0.4302673,-1.231506,-0.112915,-19.74039,-27.87623,2.42807,91.17667,94.25986,10,-0.08939433,-0.3133348,-0.1308161,-3.022106,-1.446673,1.213955,-0.05495903,-0.2289467,-0.008241692,-0.05540979,-0.3275825,-0.03373349,172.17.160.76,0.0.0.0,1,unknown,2,2014-11-13 21:42:17.694,663,2014-11-13 21:42:20.236,0
2014-11-13 21:42:21.287,11643,388.1,40.10425,-88.22172,231,-1,-1,10,165,1415935777,-0.4616394,-1.127975,-0.08731079,-19.84377,-28.25516,2.059753,89.42336,92.50655,10,-0.00471273,-0.3070811,-0.2828922,-3.025042,-1.454079,1.219198,0.03947487,-0.2635485,-0.2231969,-0.1015633,-0.2622568,-0.07044383,172.17.160.76,0.0.0.0,1,unknown,2,2014-11-13 21:42:17.694,663,2014-11-13 21:42:20.236,0
2014-11-13 21:42:21.320,11644,388.1334,40.10425,-88.22172,231,-1,-1,10,165,1415935777,-0.4516144,-0.9732666,-0.08615112,-19.63702,-28.59965,2.327667,90.73557,93.81876,10,-0.01077116,-0.2067859,-0.3693828,-3.023285,-1.460469,1.224997,0.0675318,-0.2079877,-0.3217273,-0.1247517,-0.1871705,-0.04999124,172.17.160.76,0.0.0.0,1,unknown,2,2014-11-13 21:42:17.694,663,2014-11-13 21:42:20.236,0
2014-11-13 21:42:21.353,11645,388.1667,40.10425,-88.22172,231,-1,-1,10,165,1415935777,-0.4171906,-0.8833008,-0.07458496,-19.67147,-29.11637,2.361145,90.59298,93.67617,10,-0.0905054,0.09504876,-0.3653719,-3.02466,-1.461515,1.23996,-0.006716861,0.0710978,-0.3751767,-0.128718,-0.0274956,-0.05072335,172.17.160.76,0.0.0.0,1,unknown,2,2014-11-13 21:42:17.694,663,2014-11-13 21:42:20.236,0
2014-11-13 21:42:21.387,11646,388.2,40.10425,-88.22172,231,-1,-1,10,165,1415935777,-0.32724,-0.8466034,-0.03715515,-19.18906,-29.52975,2.829956,93.89964,96.98283,10,-0.1215467,0.3711088,-0.2534078,-3.033841,-1.446164,1.246474,-0.04301629,0.3129027,-0.2973261,-0.1009954,0.06456598,-0.03497135,172.17.160.76,0.0.0.0,1,unknown,2,2014-11-13 21:42:17.694,663,2014-11-13 21:42:20.236,0
2014-11-13 21:42:21.420,11647,388.2334,40.10425,-88.22172,231,-1,-1,10,165,1415935777,-0.2704926,-0.8608704,-0.02598572,-18.94785,-29.21971,2.394592,93.04365,96.12684,10,-0.1122253,0.3781747,-0.1610565,-3.045244,-1.418204,1.253754,-0.05597046,0.4751272,-0.2030043,0.000700712,0.1039551,0.01891443,172.17.160.76,0.0.0.0,1,unknown,2,2014-11-13 21:42:17.694,663,2014-11-13 21:42:20.236,0
2014-11-13 21:42:21.453,11648,388.2667,40.10425,-88.22172,231,-1,-1,10,165,1415935777,-0.2529297,-0.8818665,-0.0319519,-18.56882,-29.18526,1.691376,91.22237,94.30556,10,-0.1072849,0.2002942,-0.07709318,-3.052101,-1.398493,1.258219,-0.04028751,0.3896554,-0.1228405,0.04247614,0.08531787,0.02702779,172.17.160.76,0.0.0.0,1,unknown,2,2014-11-13 21:42:17.694,663,2014-11-13 21:42:20.236,0
2014-11-13 21:42:21.487,11649,388.3,40.10425,-88.22172,231,-1,-1,10,165,1415935777,-0.2558441,-0.9026794,-0.03596497,-18.15531,-29.39196,1.222565,90.1263,93.2095,10,-0.09795879,0.01359118,-0.035652,-3.055869,-1.386785,1.261214,-0.03640274,0.1893958,-0.04748735,0.04774743,0.06699337,0.02148925,172.17.160.76,0.0.0.0,1,unknown,2,2014-11-13 21:42:17.694,663,2014-11-13 21:42:20.236,0
2014-11-13 21:42:21.520,11650,388.3333,40.10425,-88.22172,231,-1,-1,10,165,1415935777,-0.2714691,-0.9273987,-0.03939819,-17.98302,-29.5642,0.9212036,89.56932,92.65251,10,-0.09482052,-0.02777997,-0.02632828,-3.058295,-1.382257,1.261737,-0.03122849,0.07161192,-0.02583589,0.04392055,0.05633401,0.01899804,172.17.160.76,0.0.0.0,1,unknown,2,2014-11-13 21:42:17.694,663,2014-11-13 21:42:20.236,0
2014-11-13 21:42:21.553,11651,388.3667,40.10425,-88.22172,231,-1,-1,10,165,1415935777,-0.2842407,-0.9274292,-0.05879211,-17.9141,-29.90868,0.9881592,90.72708,93.81027,10,-0.04479943,-0.08401901,-0.01301247,-3.057586,-1.383397,1.263308,0.01339103,-0.0270265,0.001070476,0.01616232,0.02124256,0.00693436,172.17.160.76,0.0.0.0,1,unknown,2,2014-11-13 21:42:17.694,663,2014-11-13 21:42:20.236,0
2014-11-13 21:42:21.587,11652,388.4,40.10425,-88.22172,231,-1,-1,10,165,1415935777,-0.2901154,-0.9355164,-0.06114197,-18.12084,-29.77089,0.6533203,88.34583,91.42902,10,-0.02979305,-0.03525865,-0.02767264,-3.055212,-1.386132,1.263659,0.0315777,0.002613128,-0.01264086,0.0132253,0.02356108,-0.006529129,172.17.160.76,0.0.0.0,1,unknown,2,2014-11-13 21:42:17.694,663,2014-11-13 21:42:20.236,0
2014-11-13 21:42:21.620,11653,388.4333,40.10425,-88.22172,231,-1,-1,10,165,1415935777,-0.2895355,-0.9626465,-0.05639648,-18.29313,-29.59864,1.021698,89.33736,92.42056,10,-0.02126055,-0.004399542,-0.0211732,-3.053913,-1.386753,1.26422,0.04334205,0.03764144,-0.01674684,0.006584615,0.01785593,-0.005911409,172.17.160.76,0.0.0.0,1,unknown,2,2014-11-13 21:42:17.694,663,2014-11-13 21:42:20.236,0
2014-11-13 21:42:21.653,11654,388.4667,40.10425,-88.22172,231,-1,-1,10,165,1415935777,-0.2834167,-0.9713898,-0.06448364,-18.5688,-29.04746,1.155701,89.05199,92.13518,10,-0.05336229,-0.01047155,0.01712839,-3.049147,-1.388928,1.264572,0.0219121,0.06027801,0.024849,0.008219854,-0.01714823,-0.001689068,172.17.160.76,0.0.0.0,1,unknown,2,2014-11-13 21:42:17.694,663,2014-11-13 21:42:20.236,0
2014-11-13 21:42:21.687,11655,388.5,40.10425,-88.22172,231,-1,-1,10,165,1415935777,-0.263916,-0.9390106,-0.07000732,-18.53435,-29.3575,1.390137,89.76005,92.84324,10,-0.09178292,-0.1050958,0.007220629,-3.049889,-1.387376,1.264174,-0.01864822,-0.02474959,0.01924318,0.02005916,-0.01133272,-0.01339715,172.17.160.76,0.0.0.0,1,unknown,2,2014-11-13 21:42:17.694,663,2014-11-13 21:42:20.236,0
2014-11-13 21:42:21.720,11656,388.5334,40.10425,-88.22172,231,-1,-1,10,165,1415935777,-0.283371,-0.967041,-0.05763245,-18.84447,-29.66753,1.222717,89.75526,92.83846,10,-0.0684182,-0.1549219,0.02385447,-3.057886,-1.380983,1.265741,-0.0165693,-0.08105766,0.01998992,0.02780029,0.00807547,-0.01140171,172.17.160.76,0.0.0.0,1,unknown,2,2014-11-13 21:42:17.694,663,2014-11-13 21:42:20.236,0
2014-11-13 21:42:21.753,11657,388.5667,40.10425,-88.22172,231,-1,-1,10,165,1415935777,-0.290451,-0.9630585,-0.04853821,-18.87894,-30.11538,1.457123,89.87613,92.95932,10,-0.06516249,-0.1252586,0.01232218,-3.058615,-1.382991,1.266234,0.002572624,-0.09159721,0.03259398,0.009720876,-0.01823535,0.005328417,172.17.160.76,0.0.0.0,1,unknown,2,2014-11-13 21:42:17.694,663,2014-11-13 21:42:20.236,0
2014-11-13 21:42:21.787,11658,388.6,40.10425,-88.22172,231,-1,-1,10,165,1415935777,-0.273819,-0.9393158,-0.06097412,-18.70664,-29.94313,1.490601,90.0046,93.08779,10,-0.07466998,-0.09033975,-0.007626494,-3.055894,-1.387925,1.266281,-0.005872328,-0.05666429,0.01476124,0.0043804,-0.009066124,0.005987169,172.17.160.76,0.0.0.0,1,unknown,2,2014-11-13 21:42:17.694,663,2014-11-13 21:42:20.236,0
2014-11-13 21:42:21.820,11659,388.6334,40.10425,-88.22172,231,-1,-1,10,165,1415935777,-0.2714386,-0.9682007,-0.06704712,-18.22423,-29.94313,1.490601,90.10194,93.18513,10,-0.03422668,-0.09445061,0.01343006,-3.058003,-1.386873,1.266982,0.001651133,-0.02382281,0.002163981,0.02029742,0.0148865,-0.006260941,172.17.160.76,0.0.0.0,1,unknown,2,2014-11-13 21:42:17.694,663,2014-11-13 21:42:20.236,0
2014-11-13 21:42:21.854,11660,388.6667,40.10425,-88.22172,231,-1,-1,10,165,1415935777,-0.2736053,-0.9622803,-0.07466125,-18.39651,-29.97758,1.256195,90.17866,93.26185,10,-0.02572214,-0.1646585,0.003475159,-3.058345,-1.387964,1.268525,0.04417641,-0.08211739,0.02397837,0.02115202,-0.01597938,-0.01399081,172.17.160.76,0.0.0.0,1,unknown,2,2014-11-13 21:42:17.694,663,2014-11-13 21:42:20.236,0
2014-11-13 21:42:21.887,11661,388.7,40.10425,-88.22172,231,-1,-1,10,165,1415935777,-0.2794037,-0.95578,-0.07789612,-18.53436,-29.90869,1.591095,90.26495,93.34814,10,-0.0417035,-0.2413255,-0.01915985,-3.060925,-1.390058,1.270446,0.02284915,-0.1652931,-0.01455732,0.01662139,-0.003186799,-0.02305132,172.17.160.76,0.0.0.0,1,unknown,2,2014-11-13 21:42:17.694,663,2014-11-13 21:42:20.236,0
2014-11-13 21:42:21.920,11662,388.7334,40.10425,-88.22172,231,-1,-1,10,165,1415935777,-0.3040924,-0.9732513,-0.06164551,-18.84448,-29.80534,1.758514,91.36649,94.44968,10,-0.02365074,-0.2624508,-0.001293497,-3.063155,-1.391296,1.271107,0.03343494,-0.1981257,8.834247e-05,0.01107597,-0.0003516541,-0.02518761,172.17.160.76,0.0.0.0,1,unknown,2,2014-11-13 21:42:17.694,663,2014-11-13 21:42:20.236,0
2014-11-13 21:42:21.953,11663,388.7667,40.10425,-88.22172,231,-1,-1,10,165,1415935777,-0.3129272,-0.9689636,-0.05421448,-18.39654,-29.90868,1.859009,92.73328,95.81647,10,-0.03966485,-0.2591911,0.00727549,-3.061203,-1.400994,1.270712,0.03871596,-0.204407,0.01277347,-0.01274261,-0.01793987,-0.01169269,172.17.160.76,0.0.0.0,1,unknown,2,2014-11-13 21:42:17.694,663,2014-11-13 21:42:20.236,0
2014-11-13 21:42:21.986,11664,388.8,40.10425,-88.22172,231,-1,-1,10,165,1415935777,-0.302597,-0.9444122,-0.06163025,-18.29315,-29.87424,1.691589,91.77702,94.86021,10,-0.05460332,-0.2133719,0.02349494,-3.059269,-1.408515,1.269266,0.01737432,-0.1734773,0.02681938,-0.01984745,-0.01408048,-0.00623105,172.17.160.76,0.0.0.0,1,unknown,2,2014-11-13 21:42:17.694,663,2014-11-13 21:42:20.236,0
2014-11-13 21:42:22.020,11665,388.8333,40.10425,-88.22172,231,-1,-1,10,165,1415935777,-0.2976074,-0.9121552,-0.05845642,-18.0864,-30.01203,1.557617,91.20971,94.2929,10,-0.08120298,-0.2379742,0.0001123854,-3.060904,-1.412723,1.266569,-0.007151396,-0.1532353,0.03233012,-0.001237178,0.02156845,-0.0121103,172.17.160.76,0.0.0.0,1,unknown,2,2014-11-13 21:42:17.694,663,2014-11-13 21:42:20.236,0
2014-11-13 21:42:22.053,11666,388.8667,40.10425,-88.22172,231,-1,-1,10,165,1415935777,-0.3140259,-0.9065094,-0.03437805,-18.25869,-29.35751,1.725006,91.1721,94.25529,10,-0.07694751,-0.2241146,0.006538327,-3.063643,-1.415179,1.265488,-0.01669455,-0.1831748,0.006734814,-0.003505505,0.04953363,-0.006634602,172.17.160.76,0.0.0.0,1,unknown,2,2014-11-13 21:42:17.694,663,2014-11-13 21:42:20.236,0
2014-11-13 21:42:22.087,11667,388.9,40.10425,-88.22172,231,-1,-1,10,165,1415935777,-0.3267822,-0.9217682,-0.02326965,-18.53435,-29.70199,1.791992,91.13583,94.21902,10,-0.08548001,-0.1442554,0.02822045,-3.063639,-1.42028,1.264363,-0.008187217,-0.143736,0.02389703,-0.01577667,0.04690622,0.01085547,172.17.160.76,0.0.0.0,1,unknown,2,2014-11-13 21:42:17.694,663,2014-11-13 21:42:20.236,0
2014-11-13 21:42:22.120,11668,388.9333,40.10425,-88.22172,231,-1,-1,10,165,1415935777,-0.3140564,-0.9463806,-0.01916504,-18.9134,-29.52975,2.093353,91.15868,94.24187,10,-0.08218675,-0.04335786,0.02237055,-3.063425,-1.423768,1.262182,-0.02412453,-0.01930135,0.0384141,-0.02560372,0.02155734,0.02492036,172.17.160.76,0.0.0.0,1,unknown,2,2014-11-13 21:42:17.694,663,2014-11-13 21:42:20.236,0
2014-11-13 21:42:22.153,11669,388.9667,40.10425,-88.22172,231,-1,-1,10,165,1415935777,-0.275528,-0.952652,-0.0480957,-19.01678,-29.63309,2.394806,92.46732,95.55051,10,-0.0874156,-0.0148647,-0.003996872,-3.064348,-1.421358,1.261365,-0.01652494,0.05593919,0.01224405,0.006719757,-0.002098116,0.01047106,172.17.160.76,0.0.0.0,1,unknown,2,2014-11-13 21:42:17.694,663,2014-11-13 21:42:20.236,0
2014-11-13 21:42:22.186,11670,389,40.10425,-88.22172,231,-1,-1,10,165,1415935777,-0.2755127,-0.9578094,-0.04945374,-18.63773,-29.25417,2.629211,94.35462,97.43781,10,-0.08100564,-0.06067959,-0.02018436,-3.065589,-1.419403,1.261228,-0.01863976,0.02395813,-0.001715752,0.02563468,-0.0001867104,-0.002150251,172.17.160.76,0.0.0.0,1,unknown,2,2014-11-13 21:42:17.694,663,2014-11-13 21:42:20.236,0
2014-11-13 21:42:22.220,11671,389.0334,40.10425,-88.22172,231,-1,-1,10,165,1415935777,-0.306427,-0.9898682,-0.03944397,-18.60326,-29.42641,2.595703,94.59348,97.67667,10,-0.05441637,-0.1478342,-0.02180436,-3.066657,-1.419824,1.262313,0.01329803,-0.0760223,-0.01297948,0.01881916,-0.01857947,0.0005279702,172.17.160.76,0.0.0.0,1,unknown,2,2014-11-13 21:42:17.694,663,2014-11-13 21:42:20.236,0
2014-11-13 21:42:22.253,11672,389.0667,40.10425,-88.22172,231,-1,-1,10,165,1415935777,-0.3091583,-0.9728699,-0.04748535,-18.63773,-29.66753,1.959442,91.76379,94.84698,10,-0.09274592,-0.1468723,-0.037578,-3.06597,-1.422324,1.262928,-0.001639208,-0.09727519,-0.0140984,0.002330586,-0.03879378,0.00480245,172.17.160.76,0.0.0.0,1,unknown,2,2014-11-13 21:42:17.694,663,2014-11-13 21:42:20.236,0
2014-11-13 21:42:22.287,11673,389.1,40.10425,-88.22172,231,-1,-1,10,165,1415935777,-0.3126068,-0.9432526,-0.04931641,-19.22352,-29.90868,1.122284,91.58179,94.66499,10,-0.1193639,-0.1533304,-0.05025012,-3.072352,-1.420654,1.264029,-0.05487133,-0.08678288,-0.03507316,-0.009082249,-0.01195612,-0.007229025,172.17.160.76,0.0.0.0,1,unknown,2,2014-11-13 21:42:17.694,663,2014-11-13 21:42:20.236,0
2014-11-13 21:42:22.320,11674,389.1334,40.10425,-88.22172,231,-1,-1,10,165,1415935777,-0.3393707,-0.9562836,-0.02371216,-18.81002,-29.63309,1.18927,91.49686,94.58006,10,-0.08737165,-0.1948917,-0.06438804,-3.077289,-1.418967,1.264771,-0.02712108,-0.1103022,-0.05228288,-0.02105751,0.0032974,0.003772485,172.17.160.76,0.0.0.0,1,unknown,2,2014-11-13 21:42:17.694,663,2014-11-13 21:42:20.236,0
2014-11-13 21:42:22.354,11675,389.1667,40.10425,-88.22172,231,-1,-1,10,165,1415935777,-0.4090881,-0.9113312,0.003982544,-18.70664,-29.32306,1.624603,91.38211,94.4653,10,-0.1302003,-0.2082448,-0.005916479,-3.079323,-1.421059,1.265658,-0.02929575,-0.1421322,-0.04607063,-0.05401076,0.004189919,0.02948193,172.17.160.76,0.0.0.0,1,unknown,2,2014-11-13 21:42:17.694,663,2014-11-13 21:42:20.236,0
2014-11-13 21:42:22.387,11676,389.2,40.10425,-88.22172,231,-1,-1,10,165,1415935777,-0.4685364,-0.870697,0.06159973,-18.25867,-28.94412,2.126892,91.38754,94.47073,10,-0.1198401,-0.1393648,0.1111705,-3.080875,-1.424341,1.263236,-0.07219276,-0.1404038,0.04008984,-0.109595,0.0417439,0.04816126,172.17.160.76,0.0.0.0,1,unknown,2,2014-11-13 21:42:17.694,663,2014-11-13 21:42:20.236,0
2014-11-13 21:42:22.420,11677,389.2334,40.10425,-88.22172,231,-1,-1,10,165,1415935777,-0.6075134,-0.9022217,0.1837769,-18.49989,-29.46085,2.361298,91.43043,94.51362,10,0.003458914,0.04033677,0.2772463,-3.072941,-1.435222,1.253426,0.02973709,0.03838354,0.2253685,-0.1828448,0.06958157,0.1416816,172.17.160.76,0.0.0.0,1,unknown,2,2014-11-13 21:42:17.694,663,2014-11-13 21:42:20.236,0
2014-11-13 21:42:22.453,11678,389.2667,40.10425,-88.22172,231,-1,-1,10,165,1415935777,-0.7046661,-0.8399353,0.2598267,-18.6722,-29.90868,2.193817,91.7592,94.84239,10,0.04860535,0.1772536,0.5421072,-3.056229,-1.445664,1.239025,0.09938814,0.1817113,0.4965402,-0.3261204,0.0620135,0.2446617,172.17.160.76,0.0.0.0,1,unknown,2,2014-11-13 21:42:17.694,663,2014-11-13 21:42:20.236,0
2014-11-13 21:42:22.487,11679,389.3,40.10425,-88.22172,231,-1,-1,10,165,1415935777,-0.7818298,-0.8878784,0.3899994,-19.46473,-29.59864,2.830048,93.16322,96.24641,10,0.333293,0.5953768,0.631346,-3.034568,-1.456524,1.222504,0.2815551,0.4736435,0.6130969,-0.3827952,0.1026307,0.3447019,172.17.160.76,0.0.0.0,1,unknown,2,2014-11-13 21:42:17.694,663,2014-11-13 21:42:20.236,0
2014-11-13 21:42:22.520,11680,389.3333,40.10425,-88.22172,231,-1,-1,10,165,1415935777,-0.8382568,-0.8717804,0.4626007,-20.05052,-28.94412,2.528656,90.4672,93.55039,10,0.5134721,0.9763772,0.7229036,-3.006128,-1.469137,1.210434,0.5044364,0.8491495,0.683236,-0.4310373,0.04789083,0.425784,172.17.160.76,0.0.0.0,1,unknown,2,2014-11-13 21:42:17.694,663,2014-11-13 21:42:20.236,0
2014-11-13 21:42:22.553,11681,389.3667,40.10425,-88.22172,231,-1,-1,10,165,1415935777,-0.8199158,-0.897522,0.5001373,-21.18764,-27.87623,2.562134,86.76801,89.8512,10,0.8401485,1.861872,0.7942782,-2.925837,-1.492773,1.182438,0.810698,1.659465,0.7882585,-0.4607393,0.05375153,0.4921158,172.17.160.76,0.0.0.0,1,unknown,2,2014-11-13 21:42:17.694,663,2014-11-13 21:42:20.236,0
2014-11-13 21:42:22.587,11682,389.4,40.10425,-88.22172,231,-1,-1,10,165,1415935777,-0.8205261,-0.97052,0.5698242,-21.5667,-27.49729,2.327728,84.27888,87.36208,10,1.166492,2.548054,0.9251089,-2.874374,-1.500639,1.167588,1.015577,2.165519,0.8369155,-0.4260373,0.03737566,0.5113919,172.17.160.76,0.0.0.0,1,unknown,2,2014-11-13 21:42:17.694,663,2014-11-13 21:42:20.236,0
2014-11-13 21:42:22.620,11683,389.4333,40.10425,-88.22172,231,-1,-1,10,165,1415935777,-0.7286224,-0.9289093,0.6449738,-22.42815,-26.56719,0.9547424,74.99455,78.07774,10,1.484488,3.430741,1.046391,-2.712692,-1.510691,1.123716,1.43152,3.169845,1.031713,-0.3553572,-0.07698544,0.6446679,172.17.160.76,0.0.0.0,1,unknown,2,2014-11-13 21:42:17.694,663,2014-11-13 21:42:20.236,0
2014-11-13 21:42:22.653,11684,389.4667,40.10425,-88.22172,231,-1,-1,10,165,1415935777,-0.6423035,-0.8419037,0.660202,-23.25516,-25.67152,-0.2507935,67.27728,70.36047,10,1.645352,3.811,1.179415,-2.605046,-1.503683,1.094991,1.595875,3.619634,1.085479,-0.2416919,-0.007316127,0.6767453,172.17.160.76,0.0.0.0,1,unknown,2,2014-11-13 21:42:17.694,663,2014-11-13 21:42:20.236,0
2014-11-13 21:42:22.686,11685,389.5,40.10425,-88.22172,231,-1,-1,10,165,1415935777,-0.5918884,-0.8572388,0.774353,-23.90987,-24.53472,-2.494415,53.38139,56.46458,10,1.986211,4.193726,1.369098,-2.491712,-1.488466,1.063595,1.79289,3.996918,1.249135,-0.1350071,0.05063611,0.7132549,172.17.160.76,0.0.0.0,1,unknown,2,2014-11-13 21:42:17.694,663,2014-11-13 21:42:20.236,0
2014-11-13 21:42:22.720,11686,389.5334,40.10425,-88.22172,231,-1,-1,10,165,1415935777,-0.5870056,-1.012604,0.8364868,-24.2889,-23.8113,-3.800415,46.54867,49.63186,10,2.460647,4.666074,1.474895,-2.268747,-1.462287,1.00378,2.453583,4.644526,1.499519,-0.06745128,-0.1157364,0.909364,172.17.160.76,0.0.0.0,1,unknown,2,2014-11-13 21:42:17.694,663,2014-11-13 21:42:20.236,0
2014-11-13 21:42:22.753,11687,389.5667,40.10425,-88.22172,231,-1,-1,10,165,1415935777,-0.4649963,-1.009338,0.7728271,-24.80576,-22.53671,-6.579865,31.91172,34.99491,10,2.688696,4.913699,1.213159,-2.120814,-1.442516,0.9701825,2.65572,4.858912,1.337484,0.002506684,-0.1930318,0.8912534,172.17.160.76,0.0.0.0,1,unknown,2,2014-11-13 21:42:17.694,663,2014-11-13 21:42:20.236,0
2014-11-13 21:42:22.786,11688,389.6,40.10425,-88.22172,231,-1,-1,10,165,1415935777,-0.3849182,-0.8766632,0.763504,-24.66793,-22.46783,-8.857086,18.01307,21.09626,10,2.851239,5.303601,0.7921338,-1.967696,-1.415782,0.9486804,2.8821,5.217159,0.9500208,0.1490563,-0.1499993,0.8400504,172.17.160.76,0.0.0.0,1,unknown,2,2014-11-13 21:42:17.694,663,2014-11-13 21:42:20.236,0
2014-11-13 21:42:22.820,11689,389.6334,40.10425,-88.22172,231,-1,-1,10,165,1415935777,-0.3439941,-0.8729095,0.8380585,-24.25444,-22.60562,-9.727753,14.44495,17.52814,10,3.015796,6.047245,0.5003417,-1.864649,-1.390993,0.9432819,2.964257,5.565595,0.6617635,0.1927511,-0.06717385,0.8685046,172.17.160.76,0.0.0.0,1,unknown,2,2014-11-13 21:42:17.694,663,2014-11-13 21:42:20.236,0
2014-11-13 21:42:22.853,11690,389.6667,40.10425,-88.22172,231,-1,-1,10,165,1415935777,-0.146637,-0.872345,0.8285828,-21.67007,-23.39793,-12.3063,356.1623,359.2455,10,3.039872,6.610979,0.4374082,-1.652138,-1.317228,0.9492548,3.110593,6.55009,0.4636567,0.2490485,-0.06934241,0.9902195,172.17.160.76,0.0.0.0,1,unknown,2,2014-11-13 21:42:17.694,663,2014-11-13 21:42:20.236,0
2014-11-13 21:42:22.887,11691,389.7,40.10425,-88.22172,231,-1,-1,10,165,1415935777,0.05467224,-0.9328766,0.8557739,-20.08498,-23.67352,-13.71274,349.1935,352.2767,10,3.072731,6.585884,0.4934116,-1.490681,-1.248446,0.962624,3.113848,6.702128,0.4708781,0.3953023,-0.05165134,1.009591,172.17.160.76,0.0.0.0,1,unknown,2,2014-11-13 21:42:17.694,663,2014-11-13 21:42:20.236,0
2014-11-13 21:42:22.920,11692,389.7334,40.10425,-88.22172,231,-1,-1,10,165,1415935777,0.1407166,-0.9621429,0.9224854,-16.15674,-25.05145,-16.39175,334.9693,338.0525,10,3.267883,6.213021,0.3771388,-1.32292,-1.190104,0.981168,3.232892,6.426159,0.5178072,0.5709153,-0.1017292,1.062382,172.17.160.76,0.0.0.0,1,unknown,2,2014-11-13 21:42:17.694,663,2014-11-13 21:42:20.236,0
2014-11-13 21:42:22.953,11693,389.7667,40.10425,-88.22172,231,-1,-1,10,165,1415935777,0.2614746,-0.9629517,0.9246979,-11.91837,-27.015,-17.36288,323.7023,326.7855,10,3.536686,6.338649,0.003152117,-1.084719,-1.13867,1.02167,3.483295,6.285275,0.1679615,0.6607159,-0.09275872,1.157693,172.17.160.76,0.0.0.0,1,unknown,2,2014-11-13 21:42:17.694,663,2014-11-13 21:42:20.236,0
2014-11-13 21:42:22.986,11694,389.8,40.10425,-88.22172,231,-1,-1,10,165,1415935777,0.2921906,-1.037308,0.8381195,-7.645531,-29.4264,-16.69315,309.5392,312.6223,10,3.586439,6.249014,0.09696569,-0.890529,-1.115247,1.066903,3.63101,6.421039,0.003593506,0.6950735,-0.08724252,1.137126,172.17.160.76,0.0.0.0,1,unknown,2,2014-11-13 21:42:17.694,663,2014-11-13 21:42:20.236,0
2014-11-13 21:42:23.020,11695,389.8333,40.10425,-88.22172,231,-1,-1,10,165,1415935777,0.2982788,-1.107544,0.8085785,-5.646954,-30.39095,-15.62149,303.278,306.3612,10,3.768843,5.714762,0.2781672,-0.5954845,-1.128285,1.127205,3.757939,5.979531,0.2215814,0.6819752,-0.1268591,1.007879,172.17.160.76,0.0.0.0,1,unknown,2,2014-11-13 21:42:17.694,663,2014-11-13 21:42:20.236,0
2014-11-13 21:42:23.053,11696,389.8667,40.10425,-88.22172,231,-1,-1,10,165,1415935777,0.2539215,-1.369736,0.7738342,-2.614628,-32.32006,-12.40677,290.6163,293.6995,10,3.755661,4.813498,0.5314106,-0.327504,-1.204823,1.163661,3.879359,5.300004,0.4383366,0.6582242,-0.2577511,0.95834,172.17.160.76,0.0.0.0,1,unknown,2,2014-11-13 21:42:17.694,663,2014-11-13 21:42:20.236,0
2014-11-13 21:42:23.087,11697,389.9,40.10425,-88.22172,231,-1,-1,10,165,1415935777,0.3466949,-1.506622,0.7032013,-0.7538834,-33.35352,-7.852509,277.4645,280.5477,10,3.549474,4.555996,0.6114993,0.06831818,-1.375741,1.18536,3.69496,4.634116,0.612788,0.638487,-0.4921581,0.8286372,172.17.160.76,0.0.0.0,1,unknown,2,2014-11-13 21:42:17.694,663,2014-11-13 21:42:20.236,0
2014-11-13 21:42:23.120,11698,389.9333,40.10425,-88.22172,231,-1,-1,10,165,1415935777,0.6430969,-1.55336,0.4679565,-0.2714615,-33.7669,-5.977203,271.6756,274.7588,10,3.398157,4.521844,0.5821646,0.2623711,-1.463199,1.184045,3.543607,4.621345,0.6005496,0.7216954,-0.580483,0.7437066,172.17.160.76,0.0.0.0,1,unknown,2,2014-11-13 21:42:17.694,663,2014-11-13 21:42:20.236,0
2014-11-13 21:42:23.153,11699,389.9667,40.10425,-88.22172,231,-1,-1,10,165,1415935777,0.922699,-1.580246,0.2602234,-0.4093018,-33.7669,-1.891754,259.7048,262.788,10,2.870623,3.136116,0.5290761,0.6101267,-1.612114,1.165082,3.107025,3.762773,0.5700646,1.037436,-0.6345394,0.4516543,172.17.160.76,0.0.0.0,1,unknown,2,2014-11-13 21:42:17.694,663,2014-11-13 21:42:20.236,0
2014-11-13 21:42:23.187,11700,390,40.10425,-88.22172,231,-1,-1,10,165,1415935777,1.0392,-1.616089,-0.08164978,-1.443054,-33.6291,1.256104,250.7256,253.8088,10,2.188774,0.8874809,0.169499,0.8119951,-1.716868,1.143614,2.493237,1.765763,0.3293822,1.332594,-0.670109,0.1999197,172.17.160.76,0.0.0.0,1,unknown,2,2014-11-13 21:42:17.694,663,2014-11-13 21:42:20.236,0
2014-11-13 21:42:23.220,11701,390.0334,40.10425,-88.22172,231,-1,-1,10,165,1415935777,0.8838654,-1.638351,-0.1764526,-1.580883,-33.28461,3.131378,245.0177,248.1009,10,1.371246,-1.63503,-0.1634137,0.9550518,-1.837794,1.128487,1.741904,-0.7783206,-0.04210547,1.452062,-0.7123235,-0.1945794,172.17.160.76,0.0.0.0,1,unknown,2,2014-11-13 21:42:17.694,663,2014-11-13 21:42:20.236,0
2014-11-13 21:42:23.253,11702,390.0667,40.10425,-88.22172,231,-1,-1,10,165,1415935777,0.4914093,-1.995987,0.04780579,-0.9606285,-32.66454,5.274628,244.3295,247.4127,10,-0.6964906,-4.512137,-0.6760871,1.052063,-2.023214,1.127863,0.2904316,-3.586738,-0.5662782,1.101689,-0.9109855,-0.3318561,172.17.160.76,0.0.0.0,1,unknown,2,2014-11-13 21:42:17.694,663,2014-11-13 21:42:20.236,0
2014-11-13 21:42:23.286,11703,390.1,40.10425,-88.22172,231,-1,-1,10,165,1415935777,0.4720612,-1.984314,0.3271637,1.037949,-32.80233,6.279236,252.5844,255.6676,10,-1.997531,-4.999029,-0.6483037,1.04344,-2.145131,1.152683,-1.072591,-4.710921,-0.6509514,0.8322992,-1.08213,-0.1727846,172.17.160.76,0.0.0.0,1,unknown,2,2014-11-13 21:42:17.694,663,2014-11-13 21:42:20.236,0
2014-11-13 21:42:23.320,11704,390.1334,40.10425,-88.22172,231,-1,-1,10,165,1415935777,0.7273407,-1.941376,0.5847931,2.037243,-33.11237,5.910858,259.2142,262.2974,10,-2.783776,-4.813608,-0.7675151,0.9125857,-2.219594,1.22053,-2.543649,-4.858439,-0.719462,0.7889724,-0.9839516,0.216763,172.17.160.76,0.0.0.0,1,unknown,2,2014-11-13 21:42:17.694,663,2014-11-13 21:42:20.236,0
2014-11-13 21:42:23.353,11705,390.1667,40.10425,-88.22172,231,-1,-1,10,165,1415935777,1.414902,-2.03212,1.135651,3.725697,-33.97357,4.136017,273.2505,276.3337,10,-3.214962,-5.602082,-0.801897,0.6687969,-2.178418,1.314868,-3.001768,-5.014366,-0.853376,1.318627,-1.036004,0.7637559,172.17.160.76,0.0.0.0,1,unknown,2,2014-11-13 21:42:17.694,663,2014-11-13 21:42:20.236,0
2014-11-13 21:42:23.387,11706,390.2,40.10425,-88.22172,231,-1,-1,10,165,1415935777,2.552231,-1.914307,1.937698,5.207405,-33.93912,0.3519897,287.864,290.9472,10,-4.260017,-9.670726,-0.3162666,0.3190265,-2.028652,1.387071,-3.805122,-7.93902,-0.6863785,2.338773,-1.097732,1.482035,172.17.160.76,0.0.0.0,1,unknown,2,2014-11-13 21:42:17.694,663,2014-11-13 21:42:20.236,0
2014-11-13 21:42:23.420,11707,390.2334,40.10425,-88.22172,231,-1,-1,10,165,1415935777,1.971603,-1.523102,3.392105,4.587154,-33.31905,-1.992157,297.1221,300.2053,10,-4.28072,-13.30465,1.381091,-0.4481311,-1.591274,1.412996,-4.373138,-12.3179,0.9634619,2.682123,-0.7126811,2.275164,172.17.160.76,0.0.0.0,1,unknown,2,2014-11-13 21:42:17.694,663,2014-11-13 21:42:20.236,0
2014-11-13 21:42:23.453,11708,390.2667,40.10425,-88.22172,231,-1,-1,10,165,1415935777,1.362946,-1.329041,3.669434,0.4521599,-31.52774,-6.613434,321.0606,324.1438,10,-4.879647,-13.73121,2.268486,-1.108201,-1.347919,1.348796,-4.451996,-13.83391,1.981165,2.186339,-0.5476429,3.440773,172.17.160.76,0.0.0.0,1,unknown,2,2014-11-13 21:42:17.694,663,2014-11-13 21:42:20.236,0
2014-11-13 21:42:23.487,11709,390.3,40.10425,-88.22172,231,-1,-1,10,165,1415935777,1.418396,-0.9575806,4.500168,-8.472534,-28.25513,-8.32132,352.1962,355.2794,10,-4.299585,-13.95855,4.288302,-1.670634,-1.357869,1.192869,-4.531751,-13.92432,3.659191,1.636601,-0.1400265,4.332478,172.17.160.76,0.0.0.0,1,unknown,2,2014-11-13 21:42:17.694,663,2014-11-13 21:42:20.236,0
2014-11-13 21:42:23.520,11710,390.3333,40.10425,-88.22172,231,-1,-1,10,165,1415935777,0.406723,0.3815613,4.020966,-13.05549,-26.56716,-7.1492,7.647736,10.73093,10,-2.731542,-13.38198,5.181357,-1.912023,-1.550856,1.040973,-3.739115,-13.348,5.033876,1.780182,0.5436675,4.522666,172.17.160.76,0.0.0.0,1,unknown,2,2014-11-13 21:42:17.694,663,2014-11-13 21:42:20.236,0
2014-11-13 21:42:23.554,11711,390.3667,40.10425,-88.22172,231,-1,-1,10,165,1415935777,-1.41864,-0.5797272,3.688583,-21.0498,-21.33101,0.5529175,37.27126,40.35445,10,-1.816469,-11.40111,6.966344,-2.087187,-1.804657,0.8920535,-1.798272,-13.13224,5.587146,0.4277571,1.099163,3.754248,172.17.160.76,0.0.0.0,1,unknown,2,2014-11-13 21:42:17.694,663,2014-11-13 21:42:20.236,0
2014-11-13 21:42:23.587,11712,390.4,40.10425,-88.22172,231,-1,-1,10,165,1415935777,-0.9524689,0.3209991,1.28154,-25.21926,-15.71591,10.49866,51.85612,54.93932,10,-4.368513,-8.509211,6.614303,-2.263975,-2.025293,0.7254913,-3.191776,-9.974607,7.155571,-0.9534661,0.05980435,2.90418,172.17.160.76,0.0.0.0,1,unknown,2,2014-11-13 21:42:17.694,663,2014-11-13 21:42:20.236,0
2014-11-13 21:42:23.620,11713,390.4333,40.10425,-88.22172,231,-1,-1,10,165,1415935777,-0.292923,-0.3764954,1.104675,-25.77059,-12.75335,14.85205,57.4374,60.5206,10,-4.136817,-7.298184,6.448914,-2.526263,-2.121943,0.6092096,-4.145416,-7.891405,6.467412,-0.2538052,0.8932186,0.8520821,172.17.160.76,0.0.0.0,1,unknown,2,2014-11-13 21:42:17.694,663,2014-11-13 21:42:20.236,0
2014-11-13 21:42:23.653,11714,390.4667,40.10425,-88.22172,231,-1,-1,10,165,1415935777,0.3054962,-0.06594849,1.270523,-24.08215,-8.102806,20.5784,69.37141,72.45461,10,-3.752096,-5.455248,5.545365,-2.931606,-2.234508,0.4627095,-3.796797,-5.578791,5.988941,0.9230813,-0.08286156,0.6741223,172.17.160.76,0.0.0.0,1,unknown,2,2014-11-13 21:42:17.694,663,2014-11-13 21:42:20.236,0
2014-11-13 21:42:23.687,11715,390.5,40.10425,-88.22172,231,-1,-1,10,165,1415935777,0.03704834,-0.01766968,1.102264,-22.32477,-6.208153,22.62115,75.00809,78.09128,10,-3.388445,-5.120926,5.23475,-3.071028,-2.282316,0.4243434,-3.570388,-5.29248,5.220026,0.9956948,0.345774,0.6754513,172.17.160.76,0.0.0.0,1,unknown,2,2014-11-13 21:42:17.694,663,2014-11-13 21:42:20.236,0
2014-11-13 21:42:23.720,11716,390.5334,40.10425,-88.22172,231,-1,-1,10,165,1415935777,-0.06944275,0.2721558,1.224487,-18.15533,-4.313499,26.27124,87.48787,90.57106,10,-2.624334,-5.193589,5.651853,2.95009,-2.386142,0.3591067,-2.874464,-5.06393,5.700537,0.67893,0.3337684,0.4207373,172.17.160.76,0.0.0.0,1,unknown,2,2014-11-13 21:42:17.694,663,2014-11-13 21:42:20.236,0
2014-11-13 21:42:23.753,11717,390.5667,40.10425,-88.22172,231,-1,-1,10,165,1415935777,-0.2471008,-0.2253113,0.8751221,-13.08996,-3.93457,29.05072,53.20358,56.28677,10,-2.05574,-6.30414,5.240512,2.768585,-2.487548,0.3057735,-2.113561,-5.779593,5.250219,0.5107373,0.5731866,0.4676706,172.17.160.76,0.0.0.0,1,unknown,2,2014-11-13 21:42:17.694,663,2014-11-13 21:42:20.236,0
2014-11-13 21:42:23.787,11718,390.6,40.10425,-88.22172,231,-1,-1,10,165,1415935777,-0.4143524,-0.3219299,0.5893707,-6.405052,-3.658989,31.72971,64.90769,67.99088,10,-0.3419741,-6.032363,5.457376,2.529432,-2.684116,0.2436259,-1.151253,-6.581373,6.217895,0.1227344,-0.08729868,-0.03328907,172.17.160.76,0.0.0.0,1,unknown,2,2014-11-13 21:42:17.694,663,2014-11-13 21:42:20.236,0
2014-11-13 21:42:23.820,11719,390.6334,40.10425,-88.22172,231,-1,-1,10,165,1415935777,-0.3488617,-0.6447144,0.5964966,-3.028141,-3.176712,32.53336,70.73177,73.81496,10,-0.01166491,-3.884296,3.585443,2.366385,-2.829408,0.1920313,-0.02359517,-5.543909,4.78932,-0.08080117,-0.245838,-0.407225,172.17.160.76,0.0.0.0,1,unknown,2,2014-11-13 21:42:17.694,663,2014-11-13 21:42:20.236,0
2014-11-13 21:42:23.853,11720,390.6667,40.10425,-88.22172,231,-1,-1,10,165,1415935777,-0.1535187,-0.5125885,0.8099365,3.31218,-2.832222,34.67654,81.0034,84.08659,10,-0.3342211,-1.725758,2.922915,2.255524,-2.931015,0.1622096,-0.06038447,-2.715514,3.215313,-0.1133602,-0.4630431,-0.3016515,172.17.160.76,0.0.0.0,1,unknown,2,2014-11-13 21:42:17.694,663,2014-11-13 21:42:20.236,0
2014-11-13 21:42:23.886,11721,390.7,40.10425,-88.22172,231,-1,-1,10,165,1415935777,0.180481,-0.2529297,1.035507,5.06955,-3.348961,35.78159,85.00163,88.08482,10,-1.084178,0.489726,2.599839,2.196738,-2.950867,0.1575184,-0.5446684,-0.7860344,2.744313,0.0337055,-0.3557207,-0.1597746,172.17.160.76,0.0.0.0,1,unknown,2,2014-11-13 21:42:17.694,663,2014-11-13 21:42:20.236,0
2014-11-13 21:42:23.920,11722,390.7334,40.10425,-88.22172,231,-1,-1,10,165,1415935777,0.146225,0.0446167,1.2155,5.999924,-5.243614,37.22156,91.72064,94.80383,10,-1.103761,0.2761943,1.615856,2.060208,-2.903682,0.1842179,-1.288216,0.6394545,2.204828,0.4124401,0.1163443,0.1320286,172.17.160.76,0.0.0.0,1,unknown,2,2014-11-13 21:42:17.694,663,2014-11-13 21:42:20.236,0
2014-11-13 21:42:23.953,11723,390.7667,40.10425,-88.22172,231,-1,-1,10,165,1415935777,0.03749084,0.1909943,1.247986,5.069553,-6.862686,37.58994,97.00882,100.092,10,-0.8592583,-0.02242222,1.061397,1.986337,-2.877673,0.2087813,-0.9158202,0.04436431,1.232228,0.3623033,0.2901841,0.273866,172.17.160.76,0.0.0.0,1,unknown,2,2014-11-13 21:42:17.694,663,2014-11-13 21:42:20.236,0
2014-11-13 21:42:23.987,11724,390.8,40.10425,-88.22172,231,-1,-1,10,165,1415935777,-0.1621704,0.01985168,1.322098,4.793888,-7.27607,36.65231,99.42369,102.5069,10,-0.3314829,0.09263486,0.710799,1.961814,-2.871442,0.2176355,-0.607873,0.08555625,0.9361994,0.2980724,0.4069158,0.306989,172.17.160.76,0.0.0.0,1,unknown,2,2014-11-13 21:42:17.694,663,2014-11-13 21:42:20.236,0
2014-11-13 21:42:24.020,11725,390.8333,40.10425,-88.22172,231,-1,-1,10,165,1415935777,-0.1925507,0.03057861,1.208038,4.380394,-7.27607,36.25046,99.6326,102.7158,10,0.02571841,0.351508,0.398749,1.931716,-2.857359,0.2195926,-0.02752787,0.3285703,0.5075287,0.1115178,0.2376838,0.3852712,172.17.160.76,0.0.0.0,1,unknown,2,2014-11-13 21:42:17.694,663,2014-11-13 21:42:20.236,0
2014-11-13 21:42:24.053,11726,390.8667,40.10425,-88.22172,231,-1,-1,10,165,1415935777,-0.1882935,-0.02301025,1.030518,3.794601,-7.37941,35.61417,101.4621,104.5453,10,0.1703992,0.2835255,0.1282328,1.923173,-2.843185,0.2124354,0.2228589,0.3963879,0.2161021,0.09483923,0.2414198,0.2737188,172.17.160.76,0.0.0.0,1,unknown,2,2014-11-13 21:42:17.694,663,2014-11-13 21:42:20.236,0
2014-11-13 21:42:24.087,11727,390.9,40.10425,-88.22172,231,-1,-1,10,165,1415935777,-0.2547302,-0.1457825,1.006729,3.725681,-7.517197,35.54718,102.1345,105.2177,10,0.3031367,0.2725138,-0.05595861,1.922939,-2.833298,0.2039503,0.3257343,0.3140926,0.01784782,0.07830328,0.164194,0.09352276,172.17.160.76,0.0.0.0,1,unknown,2,2014-11-13 21:42:17.694,663,2014-11-13 21:42:20.236,0
2014-11-13 21:42:24.119,11728,390.9333,40.10425,-88.22172,231,-1,-1,10,165,1415935777,-0.3234558,-0.1326141,0.9644165,3.381096,-7.517197,35.54721,103.3698,106.453,10,0.00400353,0.3982742,-0.1656318,1.928624,-2.819858,0.1918651,0.2301084,0.446414,-0.05433963,0.02615403,0.02587992,0.05474269,172.17.160.76,0.0.0.0,1,unknown,2,2014-11-13 21:42:17.694,663,2014-11-13 21:42:20.236,0
2014-11-13 21:42:24.153,11729,390.9667,40.10425,-88.22172,231,-1,-1,10,165,1415935777,-0.3599091,-0.1022339,0.9653625,2.760849,-7.379395,35.01144,103.8796,106.9628,10,-0.06322344,0.3500278,-0.5095543,1.933865,-2.80734,0.1905693,0.04098707,0.4310727,-0.2691931,-0.008426781,0.08401021,0.02505203,172.17.160.76,0.0.0.0,1,unknown,2,2014-11-13 21:42:17.694,663,2014-11-13 21:42:20.236,0
2014-11-13 21:42:24.187,11730,391,40.10425,-88.22172,231,-1,-1,10,165,1415935777,-0.4100037,-0.128067,0.9880219,2.140602,-7.310501,34.94446,103.7664,106.8496,10,-0.2098201,0.4456795,-0.6571091,1.947293,-2.797616,0.1950741,-0.03698562,0.4277562,-0.5735641,-0.02907195,0.0916053,0.04179708,172.17.160.76,0.0.0.0,1,unknown,2,2014-11-13 21:42:17.694,663,2014-11-13 21:42:20.236,0
2014-11-13 21:42:24.220,11731,391.0334,40.10425,-88.22172,231,-1,-1,10,165,1415935777,-0.3527222,-0.1178436,0.9989777,1.348061,-6.793777,34.71005,102.6355,105.7187,10,-0.3032462,0.6417084,-0.7353382,1.970066,-2.780723,0.2095897,-0.2144914,0.6564797,-0.6895195,-0.07680336,0.07640576,0.06939648,172.17.160.76,0.0.0.0,1,unknown,2,2014-11-13 21:42:17.694,663,2014-11-13 21:42:20.236,0
2014-11-13 21:42:24.253,11732,391.0667,40.10425,-88.22172,231,-1,-1,10,165,1415935777,-0.300705,-0.1246338,0.9828644,0.5210609,-7.138252,34.77704,101.4294,104.5126,10,-0.1891561,0.8060755,-1.054406,1.990122,-2.762828,0.2244022,-0.2009807,0.7983983,-0.8915658,0.007779359,0.10468,0.09315103,172.17.160.76,0.0.0.0,1,unknown,2,2014-11-13 21:42:17.694,663,2014-11-13 21:42:20.236,0
2014-11-13 21:42:24.287,11733,391.1,40.10425,-88.22172,231,-1,-1,10,165,1415935777,-0.3038483,-0.1461945,0.9010925,0.1075592,-7.207146,34.57608,100.6225,103.7057,10,-0.1259707,0.7542242,-1.163187,2.017753,-2.743799,0.2397588,-0.08942746,0.8509293,-1.105065,0.07559882,0.1128346,0.08731748,172.17.160.76,0.0.0.0,6,unknown,2,2014-11-13 21:42:17.694,663,2014-11-13 21:42:20.236,0
2014-11-13 21:42:24.320,11734,391.1334,40.10425,-88.22172,231,-1,-1,10,165,1415935777,-0.3179016,-0.2032166,0.8575439,-0.5126915,-7.758331,34.30823,99.11427,102.1975,10,-0.09403036,0.5839764,-1.192863,2.061862,-2.723818,0.2600505,-0.0316856,0.7046127,-1.200524,0.0882374,0.1109349,0.01782965,172.17.160.76,0.0.0.0,6,unknown,2,2014-11-13 21:42:17.694,663,2014-11-13 21:42:20.236,0
