time,timestamp,recordtime,lat,long,alt,speed,course,verticalAccuracy,horizontalAccuracy,locTimeStamp,accelerationX,accelerationY,accelerationZ,HeadingX,HeadingY,HeadingZ,TrueHeading,MagneticHeading,HeadingAccuracy,RotationX,RotationY,RotationZ,motionYaw,motionRoll,motionPitch,motionRotationRateX,motionRotationRateY,motionRotationRateZ,motionUserAccelerationX,motionUserAccelerationY,motionUserAccelerationZ,en0,pdp_ip0,DeviceOrientation,Activity,Activity Confidence,Activity Start,Steps,Last Step Date,State
2014-11-13 21:18:18.532,17591,586.3667,40.10424,-88.22172,230.9681,-1,-1,10.15411,165,1415935067,0.6579437,0.444046,0.5933685,25.18603,3.064697,29.68863,253.5606,256.6438,10,-0.02226269,-0.05140114,-0.05432289,-2.515482,2.326515,-0.4661571,0.04224048,0.02492549,-0.04629723,0.005253728,-0.001535035,-0.01632353,172.17.160.76,0.0.0.0,2,unknown,2,2014-11-13 21:18:17.006,198,2014-11-13 21:16:55.362,2
2014-11-13 21:18:18.565,17592,586.4,40.10424,-88.22172,230.9681,-1,-1,10.15411,165,1415935067,0.6682739,0.4361877,0.5948639,24.97941,3.202454,29.95685,253.5613,256.6445,10,-0.02337749,-0.08215213,-0.0459888,-2.516133,2.325771,-0.4679166,0.04538813,-0.000501527,-0.03582555,0.007938925,-0.006981779,-0.0182422,172.17.160.76,0.0.0.0,2,unknown,2,2014-11-13 21:18:17.006,198,2014-11-13 21:16:55.362,2
2014-11-13 21:18:18.599,17593,586.4333,40.10424,-88.22172,230.9681,-1,-1,10.15411,165,1415935067,0.663147,0.4352722,0.6029663,24.97941,3.684601,29.88986,253.5716,256.6548,10,-0.03188762,-0.100292,-0.05666728,-2.517531,2.322289,-0.4686232,0.03361939,-0.03659762,-0.03171782,0.01533874,-0.01690493,-0.009379124,172.17.160.76,0.0.0.0,2,unknown,2,2014-11-13 21:18:17.006,198,2014-11-13 21:16:55.362,2
2014-11-13 21:18:18.632,17594,586.4667,40.10424,-88.22172,230.9681,-1,-1,10.15411,165,1415935067,0.6602783,0.4413605,0.5957642,25.08273,3.374657,30.05746,253.5812,256.6644,10,-0.02231942,-0.1268458,-0.05471997,-2.517853,2.320472,-0.4692841,0.03791405,-0.03987747,-0.04342359,0.008912839,-0.0164569,-0.006403292,172.17.160.76,0.0.0.0,2,unknown,2,2014-11-13 21:18:17.006,198,2014-11-13 21:16:55.362,2
2014-11-13 21:18:18.665,17595,586.5001,40.10424,-88.22172,230.9681,-1,-1,10.15411,165,1415935067,0.6550751,0.442688,0.5965729,24.87611,3.374657,29.85632,253.5889,256.6721,10,-0.02339507,-0.1395965,-0.05478309,-2.51799,2.31974,-0.4696437,0.04216899,-0.04731061,-0.04241602,0.01046366,-0.0132681,-0.008667383,172.17.160.76,0.0.0.0,2,unknown,2,2014-11-13 21:18:17.006,198,2014-11-13 21:16:55.362,2
2014-11-13 21:18:18.698,17596,586.5334,40.10424,-88.22172,230.9681,-1,-1,10.15411,165,1415935067,0.6516876,0.4438629,0.6015167,25.08272,3.305786,30.12457,253.6064,256.6896,10,-0.03084713,-0.1172622,-0.05251461,-2.518417,2.315531,-0.4717979,0.04000311,-0.07597721,-0.03937171,-0.00189612,-0.01253295,0.001844278,172.17.160.76,0.0.0.0,2,unknown,2,2014-11-13 21:18:17.006,198,2014-11-13 21:16:55.362,2
2014-11-13 21:18:18.731,17597,586.5667,40.10424,-88.22172,230.9681,-1,-1,10.15411,165,1415935067,0.6507111,0.4564362,0.6033936,24.63505,2.926964,30.29218,253.6501,256.7333,10,-0.04363989,-0.1044806,-0.04921495,-2.518385,2.313552,-0.4732453,0.02830009,-0.04090537,-0.03914177,-0.005030527,-0.006848468,-0.001280435,172.17.160.76,0.0.0.0,2,unknown,2,2014-11-13 21:18:17.006,198,2014-11-13 21:16:55.362,2
2014-11-13 21:18:18.764,17598,586.6,40.10424,-88.22172,230.9681,-1,-1,10.15411,165,1415935067,0.6458893,0.4553223,0.5963287,25.28934,3.030289,30.19159,253.6567,256.7399,10,-0.03834153,-0.07459461,-0.03103222,-2.518312,2.312756,-0.4745181,0.0303903,-0.01951041,-0.01993085,-0.003890882,-0.0008246147,-0.001388514,172.17.160.76,0.0.0.0,2,unknown,2,2014-11-13 21:18:17.006,198,2014-11-13 21:16:55.362,2
2014-11-13 21:18:18.798,17599,586.6334,40.10424,-88.22172,230.9681,-1,-1,10.15411,165,1415935067,0.6437683,0.4645844,0.5852509,24.97941,3.271355,29.68872,253.6717,256.7549,10,-0.03407887,-0.06394676,-0.02780766,-2.518889,2.312484,-0.4762415,0.03145631,0.0007180946,-0.01452254,-0.01526799,0.003655016,-0.01450156,172.17.160.76,0.0.0.0,2,unknown,2,2014-11-13 21:18:17.006,198,2014-11-13 21:16:55.362,2
2014-11-13 21:18:18.832,17600,586.6667,40.10424,-88.22172,230.9681,-1,-1,10.15411,165,1415935067,0.6476746,0.4603271,0.5884247,25.11716,3.477982,29.42053,253.6725,256.7557,10,-0.03303119,-0.05857836,-0.02035294,-2.519089,2.31239,-0.476847,0.03464971,0.001794783,-0.0124067,-0.01678274,0.005237917,-0.01698375,172.17.160.76,0.0.0.0,2,unknown,2,2014-11-13 21:18:17.006,198,2014-11-13 21:16:55.362,2
2014-11-13 21:18:18.866,17601,586.7,40.10424,-88.22172,230.9681,-1,-1,10.15411,165,1415935067,0.6669312,0.4148407,0.5584259,24.60061,3.650162,29.38702,253.6981,256.7813,10,-0.01185852,-0.03053793,0.03597398,-2.521655,2.311538,-0.478293,0.05585939,0.03506516,0.0333334,0.006038834,-0.01406688,-0.01637335,172.17.160.76,0.0.0.0,2,unknown,2,2014-11-13 21:18:17.006,198,2014-11-13 21:16:55.362,2
2014-11-13 21:18:18.900,17602,586.7333,40.10424,-88.22172,230.9681,-1,-1,10.15411,165,1415935067,0.6728058,0.399292,0.5544281,24.91054,3.409103,29.88986,253.7347,256.8179,10,-0.0322879,-0.05351356,0.08794211,-2.525623,2.308686,-0.4759794,0.04502352,0.02378149,0.08746069,0.01018431,-0.05144036,-0.04475823,172.17.160.76,0.0.0.0,2,unknown,2,2014-11-13 21:18:17.006,198,2014-11-13 21:16:55.362,2
2014-11-13 21:18:18.931,17603,586.7667,40.10424,-88.22172,230.9681,-1,-1,10.15411,165,1415935067,0.7268677,0.3179779,0.5944214,24.97941,3.477989,29.95691,253.7759,256.8591,10,-0.008093613,-0.04738989,0.1972164,-2.531342,2.305384,-0.4713587,0.04578765,-0.005287638,0.1785992,0.03828077,-0.09438658,-0.02271015,172.17.160.76,0.0.0.0,2,unknown,2,2014-11-13 21:18:17.006,198,2014-11-13 21:16:55.362,2
2014-11-13 21:18:18.965,17604,586.8,40.10424,-88.22172,230.9681,-1,-1,10.15411,165,1415935067,0.774826,0.266922,0.6267395,25.42709,3.236916,30.05746,254.132,257.2152,10,-0.005987052,-0.03029346,0.2100363,-2.535298,2.303744,-0.4690994,0.06062758,0.01833753,0.2126354,0.06394637,-0.1341053,-0.00236679,172.17.160.76,0.0.0.0,2,unknown,2,2014-11-13 21:18:17.006,198,2014-11-13 21:16:55.362,2
2014-11-13 21:18:18.999,17605,586.8334,40.10424,-88.22172,230.9681,-1,-1,10.15411,165,1415935067,0.774826,0.266922,0.6267395,25.28934,3.374664,30.05746,254.5597,257.6429,10,-0.00813356,-0.01109366,0.2196988,-2.535298,2.303744,-0.4690994,0.06062758,0.01833753,0.2126354,0.06394637,-0.1341053,-0.00236679,172.17.160.76,0.0.0.0,2,unknown,2,2014-11-13 21:18:17.006,198,2014-11-13 21:16:55.362,2
2014-11-13 21:18:19.031,17606,586.8667,40.10424,-88.22172,230.9681,-1,-1,10.15411,165,1415935067,0.9084167,0.2908478,0.7401428,24.394,3.099167,30.19156,255.6671,258.7503,10,0.01655847,0.08640573,0.1872138,-2.553421,2.301536,-0.4517843,0.07461774,0.1499519,0.1952599,0.1940163,-0.1624626,0.1042692,172.17.160.76,0.0.0.0,2,unknown,2,2014-11-13 21:18:17.006,198,2014-11-13 21:16:55.362,2
2014-11-13 21:18:19.065,17607,586.9,40.10424,-88.22172,230.9681,-1,-1,10.15411,165,1415935067,0.9584198,0.2957153,0.7582703,23.98076,3.236916,30.39273,257.116,260.1992,10,0.02924417,0.08027939,0.2211015,-2.555588,2.302106,-0.4508466,0.08525746,0.1521275,0.2026618,0.2162562,-0.1523415,0.1233436,172.17.160.76,0.0.0.0,2,unknown,2,2014-11-13 21:18:17.006,198,2014-11-13 21:16:55.362,2
2014-11-13 21:18:19.098,17608,586.9333,40.10424,-88.22172,230.9681,-1,-1,10.15411,165,1415935067,0.972168,0.4469147,0.7783203,24.22181,3.064728,30.82855,256.8861,259.9693,10,-0.01574541,-0.2225716,0.2154292,-2.571523,2.300354,-0.4432431,0.06894066,-0.07263544,0.2620171,0.3054658,-0.06040214,0.1511208,172.17.160.76,0.0.0.0,2,unknown,2,2014-11-13 21:18:17.006,198,2014-11-13 21:16:55.362,2
2014-11-13 21:18:19.132,17609,586.9667,40.10424,-88.22172,230.9681,-1,-1,10.15411,165,1415935067,0.9725494,0.4120026,0.8353119,24.77279,2.720337,30.69437,256.822,259.9052,10,-0.01258637,-0.3981341,0.1837099,-2.575682,2.294998,-0.4405319,0.04444889,-0.2440937,0.2091932,0.2946527,0.02049398,0.1790387,172.17.160.76,0.0.0.0,2,unknown,2,2014-11-13 21:18:17.006,198,2014-11-13 21:16:55.362,2
2014-11-13 21:18:19.165,17610,587.0001,40.10424,-88.22172,230.9681,-1,-1,10.15411,165,1415935067,0.8849182,0.3384399,0.7530518,24.91054,2.651466,30.29208,254.7576,257.8408,10,0.04073305,-1.066234,0.3615055,-2.588454,2.26446,-0.4343289,0.129003,-0.734156,0.3262433,0.2584913,-0.05785619,0.2416748,172.17.160.76,0.0.0.0,2,unknown,2,2014-11-13 21:18:17.006,198,2014-11-13 21:16:55.362,2
2014-11-13 21:18:19.200,17611,587.0334,40.10424,-88.22172,230.9681,-1,-1,10.15411,165,1415935067,0.6150208,0.380127,0.6508331,25.32378,2.651466,29.82275,253.1163,256.1995,10,-0.04157754,-1.559607,0.3103874,-2.598864,2.231048,-0.4278017,0.07950744,-1.153508,0.3709254,0.04203866,-0.0791783,0.1118936,172.17.160.76,0.0.0.0,2,unknown,2,2014-11-13 21:18:17.006,198,2014-11-13 21:16:55.362,2
2014-11-13 21:18:19.233,17612,587.0667,40.10424,-88.22172,230.9681,-1,-1,10.15411,165,1415935067,0.6150208,0.380127,0.6508331,25.59927,2.444847,29.35342,253.1218,256.205,10,-0.04157754,-1.559607,0.3103874,-2.601708,2.217199,-0.4252723,0.04319803,-1.30557,0.3532769,-0.03696687,-0.06059434,0.092003,172.17.160.76,0.0.0.0,2,unknown,2,2014-11-13 21:18:17.006,198,2014-11-13 21:16:55.362,2
2014-11-13 21:18:19.265,17613,587.1,40.10424,-88.22172,230.9681,-1,-1,10.15411,165,1415935067,0.5292358,0.2730865,0.8692627,27.21778,2.479294,27.57669,248.1117,251.1949,10,-0.3637135,-1.886352,-0.0637686,-2.612818,2.117496,-0.4210585,0.2058339,-2.11091,-0.04962923,-0.1693418,0.03060432,0.379418,172.17.160.76,0.0.0.0,2,unknown,2,2014-11-13 21:18:17.006,198,2014-11-13 21:16:55.362,2
2014-11-13 21:18:19.299,17614,587.1334,40.10424,-88.22172,230.9681,-1,-1,10.15411,165,1415935067,0.497757,0.150528,1.013596,29.38729,1.893837,24.7272,244.9544,248.0376,10,-1.117861,-1.761379,0.1169809,-2.605595,2.064273,-0.4190378,-0.6448723,-1.774104,0.03494096,-0.2854059,-0.2024902,0.5253463,172.17.160.76,0.0.0.0,2,unknown,2,2014-11-13 21:18:17.006,198,2014-11-13 21:16:55.362,2
2014-11-13 21:18:19.332,17615,587.1667,40.10424,-88.22172,230.9681,-1,-1,10.15411,165,1415935067,0.2151184,0.238205,1.180725,31.35016,0.8951263,21.47537,235.6465,238.7297,10,-4.339962,0.1326281,0.4086365,-2.506618,2.036919,-0.3567871,-3.776125,-0.4987216,0.445069,-0.5220574,-0.3188699,0.8559005,172.17.160.76,0.0.0.0,2,unknown,2,2014-11-13 21:18:17.006,198,2014-11-13 21:16:55.362,2
2014-11-13 21:18:19.365,17616,587.2,40.10424,-88.22172,230.9681,-1,-1,10.15411,165,1415935067,-0.04335022,0.6487885,0.7184143,31.55678,-0.2757721,20.73785,231.0168,234.1,10,-4.394988,2.158094,0.4354308,-2.430051,2.070964,-0.3095694,-4.460224,1.136589,0.4063524,-0.6206715,-0.06644354,0.7239489,172.17.160.76,0.0.0.0,2,unknown,2,2014-11-13 21:18:17.006,198,2014-11-13 21:16:55.362,2
2014-11-13 21:18:19.398,17617,587.2333,40.10424,-88.22172,230.9681,-1,-1,10.15411,165,1415935067,-0.04335022,0.6487885,0.7184143,31.04024,-2.169868,20.83838,229.9077,232.9909,10,-4.394988,2.158094,0.4354308,-2.430051,2.070964,-0.3095694,-4.460224,1.136589,0.4063524,-0.6206715,-0.06644354,0.7239489,172.17.160.76,0.0.0.0,2,unknown,2,2014-11-13 21:18:17.006,198,2014-11-13 21:16:55.362,2
2014-11-13 21:18:19.432,17618,587.2667,40.10424,-88.22172,230.9681,-1,-1,10.15411,165,1415935067,0.8170624,0.2792664,0.9543915,25.9092,-8.954163,23.15149,214.3256,217.4088,10,-4.053317,3.136563,0.8607123,-2.251581,2.356012,-0.1337575,-3.946068,3.210449,0.8282642,-0.3879457,0.2299375,0.2779902,172.17.160.76,0.0.0.0,2,unknown,2,2014-11-13 21:18:17.006,198,2014-11-13 21:16:55.362,2
2014-11-13 21:18:19.465,17619,587.3,40.10424,-88.22172,230.9681,-1,-1,10.15411,165,1415935067,1.123703,0.5339508,0.6155243,23.60195,-11.19264,24.52597,210.7631,213.8463,10,-3.666527,3.644126,0.6984686,-2.251581,2.356012,-0.1337575,-3.946068,3.210449,0.8282642,-0.3879457,0.2299375,0.2779902,172.17.160.76,0.0.0.0,2,unknown,2,2014-11-13 21:18:17.006,198,2014-11-13 21:16:55.362,2
2014-11-13 21:18:19.498,17620,587.3334,40.10424,-88.22172,230.9681,-1,-1,10.15411,165,1415935067,1.547882,0.3356018,0.2226715,16.50804,-14.91196,26.47037,182.7759,185.8591,10,-0.6641117,3.260031,2.230721,-2.227509,2.67598,0.02348867,-0.898767,6.705976,2.957163,1.096335,0.5584902,-0.7539265,172.17.160.76,0.0.0.0,2,unknown,2,2014-11-13 21:18:17.006,198,2014-11-13 21:16:55.362,2
2014-11-13 21:18:19.532,17621,587.3667,40.10424,-88.22172,230.9681,-1,-1,10.15411,165,1415935067,1.385757,0.0501709,0.2020721,9.965107,-17.3915,27.74429,186.3668,189.45,10,-0.226924,-1.830294,0.192893,-2.284491,2.791869,0.06844761,-0.2696414,1.541987,1.591208,1.185356,0.3403211,-0.7431759,172.17.160.76,0.0.0.0,2,unknown,2,2014-11-13 21:18:17.006,198,2014-11-13 21:16:55.362,2
2014-11-13 21:18:19.565,17622,587.4,40.10424,-88.22172,230.9681,-1,-1,10.15411,165,1415935067,0.7598572,-0.05073547,0.6069641,8.622086,-18.39021,26.43689,186.9023,189.9855,10,-0.4941328,-5.945225,0.08306,-2.276692,2.621763,0.1041036,-0.9362402,-5.238404,-0.02997848,0.3704586,-0.009670724,-0.3206787,172.17.160.76,0.0.0.0,2,unknown,2,2014-11-13 21:18:17.006,198,2014-11-13 21:16:55.362,2
2014-11-13 21:18:19.598,17623,587.4333,40.10424,-88.22172,230.9681,-1,-1,10.15411,165,1415935067,0.6297302,-0.0008087158,0.8525238,10.9982,-18.83791,25.39764,186.4352,189.5184,10,0.7081162,-6.522691,0.3748551,-2.274313,2.564265,0.1093005,-0.4254152,-5.879464,0.09847959,0.2173272,0.05834757,-0.2259597,172.17.160.76,0.0.0.0,2,unknown,2,2014-11-13 21:18:17.006,198,2014-11-13 21:16:55.362,2
2014-11-13 21:18:19.632,17624,587.4667,40.10424,-88.22172,230.9681,-1,-1,10.15411,165,1415935067,0.3336334,0.1138,1.013596,17.5067,-18.73459,22.8833,186.6206,189.7038,10,2.05703,-4.801703,0.6941268,-2.310646,2.321362,0.09550549,1.720154,-5.539354,0.668621,-0.2363326,0.1601797,0.3307605,172.17.160.76,0.0.0.0,2,unknown,2,2014-11-13 21:18:17.006,198,2014-11-13 21:16:55.362,2
2014-11-13 21:18:19.665,17625,587.5001,40.10424,-88.22172,230.9681,-1,-1,10.15411,165,1415935067,0.380722,0.04695129,0.9914398,20.26162,-18.32133,21.67642,182.6202,185.7034,10,2.77256,-0.736339,0.599277,-2.40553,2.187869,0.05503039,2.855388,-1.748056,0.6100311,-0.5199078,0.1621651,0.4200898,172.17.160.76,0.0.0.0,2,unknown,2,2014-11-13 21:18:17.006,198,2014-11-13 21:16:55.362,2
2014-11-13 21:18:19.698,17626,587.5334,40.10424,-88.22172,230.9681,-1,-1,10.15411,165,1415935067,0.5420837,0.01443481,0.9712219,23.15428,-16.53054,20.46957,186.5511,189.6343,10,2.386597,1.380924,0.801877,-2.432418,2.179788,0.04362059,2.841276,-0.6705787,0.6146963,-0.4929831,0.1234255,0.4259856,172.17.160.76,0.0.0.0,2,unknown,2,2014-11-13 21:18:17.006,198,2014-11-13 21:16:55.362,2
2014-11-13 21:18:19.732,17627,587.5667,40.10424,-88.22172,230.9681,-1,-1,10.15411,165,1415935067,0.8962555,0.06381226,0.8281708,21.67351,-14.91196,22.11224,195.5863,198.6694,10,1.725299,3.425595,1.083675,-2.551692,2.2792,0.0114498,1.863189,3.383031,1.111003,-0.04827663,0.0322015,0.2584471,172.17.160.76,0.0.0.0,2,unknown,2,2014-11-13 21:18:17.006,198,2014-11-13 21:16:55.362,2
2014-11-13 21:18:19.765,17628,587.6,40.10424,-88.22172,230.9681,-1,-1,10.15411,165,1415935067,1.202469,0.2106781,0.6109314,20.02056,-13.80995,23.38617,198.5616,201.6448,10,1.780703,2.034215,0.7396512,-2.612427,2.380834,-0.002713441,1.799469,3.140789,0.9687886,0.3120724,0.08513141,0.06314998,172.17.160.76,0.0.0.0,2,unknown,2,2014-11-13 21:18:17.006,198,2014-11-13 21:16:55.362,2
2014-11-13 21:18:19.798,17629,587.6334,40.10424,-88.22172,230.9681,-1,-1,10.15411,165,1415935067,1.202469,0.2106781,0.6109314,17.95437,-12.98344,25.12939,202.1522,205.2354,10,1.780703,2.034215,0.7396512,-2.631339,2.40893,-0.01000613,1.82609,2.700108,0.8665891,0.4265344,0.1083259,-0.005901814,172.17.160.76,0.0.0.0,2,unknown,2,2014-11-13 21:18:17.006,198,2014-11-13 21:16:55.362,2
2014-11-13 21:18:19.833,17630,587.6667,40.10424,-88.22172,230.9681,-1,-1,10.15411,165,1415935067,0.8738556,0.3170166,0.5283508,15.37164,-9.849564,28.04593,209.2937,212.3769,10,1.806062,-2.580261,0.3469223,-2.732006,2.430569,-0.07744912,2.009729,-1.559067,0.3965886,0.332699,0.3042811,-0.2675229,172.17.160.76,0.0.0.0,2,unknown,2,2014-11-13 21:18:17.006,198,2014-11-13 21:16:55.362,2
2014-11-13 21:18:19.865,17631,587.7,40.10424,-88.22172,230.9681,-1,-1,10.15411,165,1415935067,0.7687225,0.2219391,0.5545349,15.81931,-9.126366,28.21356,211.6164,214.6996,10,1.70684,-2.846165,0.3055573,-2.763634,2.383739,-0.1011449,1.874776,-2.514503,0.3623411,0.1900046,0.2160441,-0.1942503,172.17.160.76,0.0.0.0,2,unknown,2,2014-11-13 21:18:17.006,198,2014-11-13 21:16:55.362,2
2014-11-13 21:18:19.899,17632,587.7333,40.10424,-88.22172,230.9681,-1,-1,10.15411,165,1415935067,0.5294647,0.2708893,0.5272369,18.57423,-7.473335,27.14081,228.1864,231.2696,10,0.9162835,-2.448236,-0.09699605,-2.817018,2.263234,-0.1382592,1.323091,-2.8243,0.1080191,-0.1101105,0.0628492,-0.08535636,172.17.160.76,0.0.0.0,2,unknown,2,2014-11-13 21:18:17.006,198,2014-11-13 21:16:55.362,2
2014-11-13 21:18:19.935,17633,587.7667,40.10424,-88.22172,230.9681,-1,-1,10.15411,165,1415935067,0.513092,0.3167725,0.5403137,21.67351,-6.026939,25.53171,230.7986,233.8818,10,0.6890271,-1.829665,-0.2308803,-2.834512,2.209359,-0.1521019,0.9849976,-2.38248,-0.08157808,-0.2346162,0.09375369,-0.05717814,172.17.160.76,0.0.0.0,2,unknown,2,2014-11-13 21:18:17.006,198,2014-11-13 21:16:55.362,2
2014-11-13 21:18:19.966,17634,587.8,40.10424,-88.22172,230.9681,-1,-1,10.15411,165,1415935067,0.513092,0.3167725,0.5403137,21.67351,-6.026939,25.53171,230.7986,233.8818,10,0.6890271,-1.829665,-0.2308803,-2.834512,2.209359,-0.1521019,0.9849976,-2.38248,-0.08157808,-0.2346162,0.09375369,-0.05717814,172.17.160.76,0.0.0.0,2,unknown,2,2014-11-13 21:18:17.006,198,2014-11-13 21:16:55.362,2
2014-11-13 21:18:19.998,17635,587.8334,40.10424,-88.22172,230.9681,-1,-1,10.15411,165,1415935067,0.7337952,0.2649536,0.5929108,24.22181,-4.029518,24.52606,238.0565,241.1397,10,0.8081088,0.5882374,0.1359413,-2.882426,2.128386,-0.192481,0.8511628,0.4157193,0.1151715,-0.2178267,0.1217852,0.06218738,172.17.160.76,0.0.0.0,4,unknown,2,2014-11-13 21:18:17.006,198,2014-11-13 21:16:55.362,2
2014-11-13 21:18:20.031,17636,587.8667,40.10424,-88.22172,230.9681,-1,-1,10.15411,165,1415935067,0.780426,0.2531738,0.593338,23.77414,-3.444069,24.49255,239.0879,242.1711,10,0.8038957,0.7627059,0.1634129,-2.890731,2.132765,-0.1958975,0.8768217,0.6539927,0.1513591,-0.1800288,0.1034029,0.06352033,172.17.160.76,0.0.0.0,4,unknown,2,2014-11-13 21:18:17.006,198,2014-11-13 21:16:55.362,2
2014-11-13 21:18:20.065,17637,587.9,40.10424,-88.22172,230.9681,-1,-1,10.15411,165,1415935067,0.9832458,0.2351074,0.5139008,22.9821,-2.583115,25.19653,243.6645,246.7477,10,0.261247,0.7374825,0.1663735,-2.941985,2.189479,-0.2096618,0.4332889,0.9119706,0.2350506,0.1570998,0.02162245,-0.01529098,172.17.160.76,0.0.0.0,4,unknown,2,2014-11-13 21:18:17.006,198,2014-11-13 21:16:55.362,2
2014-11-13 21:18:20.101,17638,587.9333,40.10424,-88.22172,230.9681,-1,-1,10.15411,165,1415935067,0.9769897,0.2401428,0.4780426,21.77682,-2.204308,26.03464,246.7319,249.8151,10,0.06633801,0.4071031,0.02312503,-2.948996,2.203283,-0.2105817,0.2287753,0.6540122,0.113449,0.1983023,0.02610917,-0.07807776,172.17.160.76,0.0.0.0,4,unknown,2,2014-11-13 21:18:17.006,198,2014-11-13 21:16:55.362,2
2014-11-13 21:18:20.132,17639,587.9667,40.10424,-88.22172,230.9681,-1,-1,10.15411,165,1415935067,0.8978271,0.2670288,0.4934082,21.70795,-2.204308,26.43698,247.3871,250.4703,10,-0.1703448,-0.5476817,-0.2134811,-2.95148,2.202474,-0.2137574,-0.04607889,-0.1808638,-0.1478873,0.1592055,0.03150385,-0.1012606,172.17.160.76,0.0.0.0,4,unknown,2,2014-11-13 21:18:17.006,198,2014-11-13 21:16:55.362,2
