time,timestamp,recordtime,lat,long,alt,speed,course,verticalAccuracy,horizontalAccuracy,locTimeStamp,accelerationX,accelerationY,accelerationZ,HeadingX,HeadingY,HeadingZ,TrueHeading,MagneticHeading,HeadingAccuracy,RotationX,RotationY,RotationZ,motionYaw,motionRoll,motionPitch,motionRotationRateX,motionRotationRateY,motionRotationRateZ,motionUserAccelerationX,motionUserAccelerationY,motionUserAccelerationZ,en0,pdp_ip0,DeviceOrientation,Activity,Activity Confidence,Activity Start,Steps,Last Step Date,State
2014-11-15 17:55:55.151,7992,266.4,40.10464,-88.22195,235.7378,0.68,262.2656,12,10,1416095755,-0.1042938,0.7485199,0.3825836,-19.3236,46.87709,-14.20358,167.1588,170.2411,15,-0.2137658,0.7504314,0.02173592,-1.495472,-2.877774,-1.074384,0.09161833,0.7960274,0.1722,-0.08944093,-0.1584565,-0.09399659,172.17.160.76,10.64.29.0,2,unknown,2,2014-11-15 17:55:53.389,8,2014-11-15 17:52:35.410,3
2014-11-15 17:55:55.184,7993,266.4333,40.10464,-88.22195,235.7378,0.68,262.2656,12,10,1416095755,-0.02340698,0.8378448,0.3978729,-19.28928,46.56735,-14.64053,167.7451,170.8275,15,-0.286016,0.7189891,-0.06626211,-1.500112,-2.86554,-1.073608,-0.1467575,0.8174464,0.03839714,-0.009618849,-0.1561028,-0.09489998,172.17.160.76,10.64.29.0,2,unknown,2,2014-11-15 17:55:53.389,8,2014-11-15 17:52:35.410,3
2014-11-15 17:55:55.218,7994,266.4667,40.10464,-88.22195,235.7378,0.68,262.2656,12,10,1416095755,-0.1127777,0.9718933,0.5804596,-19.42659,46.77383,-15.44724,170.068,173.1503,15,-0.3429012,0.4554208,-0.3593446,-1.48492,-2.812174,-1.051493,-0.3269814,0.5509387,-0.3667843,0.1070445,0.03559782,0.01846121,172.17.160.76,10.64.29.0,2,unknown,2,2014-11-15 17:55:53.389,8,2014-11-15 17:52:35.410,3
2014-11-15 17:55:55.251,7995,266.5,40.10464,-88.22195,235.7378,0.68,262.2656,12,10,1416095755,-0.1805725,1.018906,0.6614075,-19.66687,46.32643,-15.81699,173.2334,176.3157,15,-0.2304162,0.3459404,-0.2159808,-1.476115,-2.794355,-1.044367,-0.2238812,0.4781983,-0.2836965,0.02482025,0.1292899,0.1289178,172.17.160.76,10.64.29.0,2,unknown,2,2014-11-15 17:55:53.389,8,2014-11-15 17:52:35.410,3
2014-11-15 17:55:55.284,7996,266.5334,40.10464,-88.22195,235.7378,0.68,262.2656,12,10,1416095755,-0.221405,0.8982391,0.6345215,-19.76985,46.36084,-15.98508,173.4205,176.5028,15,0.1397984,0.008622251,0.3073517,-1.473038,-2.778129,-1.043028,0.1827731,0.2117043,0.1931672,-0.04151149,0.1264994,0.2540254,172.17.160.76,10.64.29.0,2,unknown,2,2014-11-15 17:55:53.389,8,2014-11-15 17:52:35.410,3
2014-11-15 17:55:55.318,7997,266.5667,40.10464,-88.22195,235.7378,0.68,262.2656,12,10,1416095755,-0.1709747,0.8782196,0.5354767,-20.01012,45.98225,-16.82535,175.7385,178.8208,15,-0.06210385,-0.2297712,0.385402,-1.490214,-2.793442,-1.051455,0.08481182,-0.1435799,0.4177586,-0.02512202,0.009142695,0.1195116,172.17.160.76,10.64.29.0,2,unknown,2,2014-11-15 17:55:53.389,8,2014-11-15 17:52:35.410,3
2014-11-15 17:55:55.351,7998,266.6,40.10464,-88.22195,235.7378,0.68,262.2656,12,10,1416095755,-0.1507263,0.9121857,0.5840759,-19.39225,45.98225,-17.16153,175.6099,178.6922,15,0.002478338,0.1370021,0.273513,-1.512897,-2.816852,-1.054907,-0.03437037,-0.04612084,0.3709514,-0.0159129,0.03061249,0.062016,172.17.160.76,10.64.29.0,2,unknown,2,2014-11-15 17:55:53.389,8,2014-11-15 17:52:35.410,3
2014-11-15 17:55:55.384,7999,266.6334,40.10464,-88.22195,235.7378,0.68,262.2656,12,10,1416095755,-0.09202576,0.7942963,0.4678497,-19.08332,45.87901,-17.59848,174.0843,177.1666,15,0.05954775,0.3176001,0.1309503,-1.529198,-2.825948,-1.059252,0.1241273,0.3331246,0.2279933,0.001236412,0.04019601,0.1187359,172.17.160.76,10.64.29.0,2,unknown,2,2014-11-15 17:55:53.389,8,2014-11-15 17:52:35.410,3
2014-11-15 17:55:55.418,8000,266.6667,40.10464,-88.22195,235.7378,0.68,262.2656,12,10,1416095755,-0.0123291,0.8241577,0.46492,-18.08787,45.70694,-17.83371,174.319,177.4013,15,-0.1512108,0.1880842,-0.007996674,-1.536019,-2.820699,-1.064111,0.05516837,0.3238032,0.1146238,0.06103889,-0.08006176,0.007339938,172.17.160.76,10.64.29.0,2,unknown,2,2014-11-15 17:55:53.389,8,2014-11-15 17:52:35.410,3
2014-11-15 17:55:55.451,8001,266.7,40.10464,-88.22195,235.7378,0.68,262.2656,12,10,1416095755,-0.05152893,0.8725128,0.5339966,-17.46999,45.77576,-18.23703,175.407,178.4893,15,-0.01926611,0.2764622,-0.2574736,-1.536358,-2.809905,-1.061634,-0.05707029,0.3144955,-0.1408222,0.1464024,-0.0489954,0.004042675,172.17.160.76,10.64.29.0,2,unknown,2,2014-11-15 17:55:53.389,8,2014-11-15 17:52:35.410,3
2014-11-15 17:55:55.484,8002,266.7333,40.10464,-88.22195,235.7378,0.68,262.2656,12,10,1416095755,-0.01205444,0.9067535,0.5311127,-17.64163,45.67252,-18.20352,175.8857,178.968,15,0.02990304,0.1132286,-0.3423744,-1.522514,-2.787868,-1.060228,0.08300306,0.2974077,-0.2847369,0.1177445,4.574779e-05,0.07557786,172.17.160.76,10.64.29.0,2,unknown,2,2014-11-15 17:55:53.389,8,2014-11-15 17:52:35.410,3
2014-11-15 17:55:55.518,8003,266.7667,40.10464,-88.22195,235.7378,0.68,262.2656,12,10,1416095755,-0.09771729,0.9175568,0.4816132,-17.95057,45.63812,-18.03543,175.5817,178.664,15,0.0468964,-0.5972373,-0.1487437,-1.490038,-2.76446,-1.059341,0.1003329,-0.4288061,-0.2068921,0.1480001,0.03943517,0.05007672,172.17.160.76,10.64.29.0,2,unknown,2,2014-11-15 17:55:53.389,8,2014-11-15 17:52:35.410,3
2014-11-15 17:55:55.551,8004,266.8,40.10464,-88.22195,235.7378,0.68,262.2656,12,10,1416095755,-0.1588898,0.8911591,0.4603424,-18.60276,45.3972,-17.80014,175.3467,178.429,15,0.1188702,-0.792928,-0.02691177,-1.481843,-2.774824,-1.061983,0.1614435,-0.6718935,-0.03007215,0.02567221,0.03220982,0.01051354,172.17.160.76,10.64.29.0,2,unknown,2,2014-11-15 17:55:53.389,8,2014-11-15 17:52:35.410,3
2014-11-15 17:55:55.584,8005,266.8333,40.10464,-88.22195,235.7378,0.68,262.2656,12,10,1416095755,-0.1924286,0.8644257,0.4643097,-18.67141,45.53485,-17.66568,174.0395,177.1218,15,0.1540495,-0.8451089,-0.04005607,-1.478909,-2.786995,-1.065467,0.2071511,-0.7631409,-0.009493721,0.001625814,0.003021157,0.003831542,172.17.160.76,10.64.29.0,2,unknown,2,2014-11-15 17:55:53.389,8,2014-11-15 17:52:35.410,3
2014-11-15 17:55:55.618,8006,266.8667,40.10464,-88.22195,235.7378,0.68,262.2656,12,10,1416095755,-0.2355347,0.8473969,0.4489288,-18.80872,45.05302,-17.66562,172.6377,175.72,15,0.200201,-0.7043172,-0.1074223,-1.468169,-2.807305,-1.073833,0.267141,-0.6787304,-0.08463921,-0.05092916,-0.01494462,0.0181086,172.17.160.76,10.64.29.0,2,unknown,2,2014-11-15 17:55:53.389,8,2014-11-15 17:52:35.410,3
2014-11-15 17:55:55.650,8007,266.9,40.10464,-88.22195,235.7378,0.68,262.2656,12,10,1416095755,-0.2504578,0.814682,0.3677063,-19.01468,44.91536,-17.3967,169.6913,172.7736,15,0.05732295,-0.5593964,-0.06154193,-1.458098,-2.816494,-1.079968,0.1989796,-0.5425959,-0.07199088,-0.08991062,-0.04768363,-0.02610384,172.17.160.76,10.64.29.0,2,unknown,2,2014-11-15 17:55:53.389,8,2014-11-15 17:52:35.410,3
2014-11-15 17:55:55.684,8008,266.9333,40.10464,-88.22195,235.7378,0.68,262.2656,12,10,1416095755,-0.2958832,0.8961487,0.4148712,-19.3236,44.94978,-17.29587,168.7462,171.8285,15,-0.1785567,-0.1008022,0.1487453,-1.457403,-2.831668,-1.080613,-0.1092874,-0.2332734,0.06560042,-0.1261302,-0.04112096,-0.08863195,172.17.160.76,10.64.29.0,2,unknown,2,2014-11-15 17:55:53.389,8,2014-11-15 17:52:35.410,3
2014-11-15 17:55:55.718,8009,266.9667,40.10464,-88.22195,235.7378,0.68,262.2656,12,10,1416095755,-0.290329,0.8896484,0.4989929,-19.73551,45.50044,-16.89255,167.912,170.9943,15,-0.0390478,0.0549229,0.2360844,-1.468597,-2.843353,-1.078798,-0.09458338,0.03129047,0.2059926,-0.1730992,0.01866435,-0.007748117,172.17.160.76,10.64.29.0,2,unknown,2,2014-11-15 17:55:53.389,8,2014-11-15 17:52:35.410,3
2014-11-15 17:55:55.751,8010,267,40.10464,-88.22195,235.7378,0.68,262.2656,12,10,1416095755,-0.1512756,0.8005676,0.5197449,-19.70118,45.53485,-16.79172,168.2244,171.3067,15,0.04873452,0.1401989,0.1364255,-1.483145,-2.852791,-1.081138,0.08131827,0.1610792,0.2378617,-0.1245643,-0.007295304,0.06651829,172.17.160.76,10.64.29.0,2,unknown,2,2014-11-15 17:55:53.389,8,2014-11-15 17:52:35.410,3
2014-11-15 17:55:55.784,8011,267.0334,40.10464,-88.22195,235.7378,0.68,262.2656,12,10,1416095755,-0.07789612,0.7861328,0.4805603,-19.11763,45.56927,-17.09427,168.6147,171.697,15,-0.02649819,0.06776413,-0.03351136,-1.49119,-2.853919,-1.085722,0.1062808,0.2057358,0.1021336,-0.01898339,-0.08407281,0.07263184,172.17.160.76,10.64.29.0,2,unknown,2,2014-11-15 17:55:53.389,8,2014-11-15 17:52:35.410,3
2014-11-15 17:55:55.818,8012,267.0667,40.10464,-88.22195,235.7378,0.68,262.2656,12,10,1416095755,-0.0006866455,0.9116058,0.4053955,-18.84304,45.70694,-17.22879,169.3624,172.4447,15,-0.1698854,-0.08998822,-0.249286,-1.48414,-2.842777,-1.085281,-0.07313448,0.002740375,-0.1976016,0.1239373,-0.008290391,-0.02571118,172.17.160.76,10.64.29.0,2,unknown,2,2014-11-15 17:55:53.389,8,2014-11-15 17:52:35.410,3
2014-11-15 17:55:55.850,8013,267.1,40.10464,-88.22195,235.7378,0.68,262.2656,12,10,1416095755,-0.02796936,0.9921417,0.4030609,-18.6714,46.01668,-17.12796,169.9186,173.0009,15,-0.1785578,-0.1662755,-0.2209952,-1.472102,-2.833292,-1.079902,-0.1327953,-0.06865618,-0.2285372,0.1261241,0.08467158,-0.05454966,172.17.160.76,10.64.29.0,2,unknown,2,2014-11-15 17:55:53.389,8,2014-11-15 17:52:35.410,3
2014-11-15 17:55:55.884,8014,267.1334,40.10464,-88.22195,235.7378,0.68,262.2656,12,10,1416095755,-0.04167175,1.038818,0.4911346,-19.15197,46.29201,-16.8591,169.1316,172.2139,15,-0.028409,-0.1403848,-0.1598552,-1.465378,-2.829267,-1.076897,-0.05195291,-0.09273728,-0.1758928,0.1165527,0.1372091,-0.01481849,172.17.160.76,10.64.29.0,2,unknown,2,2014-11-15 17:55:53.389,8,2014-11-15 17:52:35.410,3
2014-11-15 17:55:55.918,8015,267.1667,40.10464,-88.22195,235.7378,0.68,262.2656,12,10,1416095755,-0.05041504,0.8994751,0.4357452,-19.80416,46.32643,-16.48923,168.1181,171.2004,15,0.2312982,-0.2714944,-0.05749286,-1.453026,-2.822,-1.080947,0.2696054,-0.1419541,-0.05953166,0.09061453,0.09539483,0.03996433,172.17.160.76,10.64.29.0,2,unknown,2,2014-11-15 17:55:53.389,8,2014-11-15 17:52:35.410,3
2014-11-15 17:55:55.950,8016,267.2,40.10464,-88.22195,235.7378,0.68,262.2656,12,10,1416095755,-0.03329468,0.8581848,0.4179077,-19.97579,46.08551,-16.85904,167.9607,171.043,15,0.1917596,-0.4266704,-0.06559233,-1.447446,-2.821568,-1.086275,0.2886161,-0.2809809,-0.03592093,0.09611604,0.0145769,-0.00639028,172.17.160.76,10.64.29.0,2,unknown,2,2014-11-15 17:55:53.389,8,2014-11-15 17:52:35.410,3
2014-11-15 17:55:55.984,8017,267.2333,40.10464,-88.22195,235.7378,0.68,262.2656,12,10,1416095755,-0.1134186,0.8630066,0.4398499,-20.35337,45.8446,-16.55649,166.2461,169.3284,15,0.08632477,-0.7632945,-0.1858561,-1.443319,-2.838017,-1.095292,0.1735732,-0.5717985,-0.1399662,0.09857891,-0.02868006,-0.02022771,172.17.160.76,10.64.29.0,2,unknown,2,2014-11-15 17:55:53.389,8,2014-11-15 17:52:35.410,3
2014-11-15 17:55:56.018,8018,267.2667,40.10464,-88.22195,235.7378,0.68,262.2656,12,10,1416095755,-0.2268982,0.8762207,0.500473,-20.73096,45.25952,-16.52298,163.8556,166.9379,15,0.1509871,-0.7666665,-0.0651071,-1.426805,-2.851337,-1.099333,0.1648611,-0.754451,-0.1260338,-0.01832727,-0.02888972,0.0228156,172.17.160.76,10.64.29.0,2,unknown,2,2014-11-15 17:55:53.389,8,2014-11-15 17:52:35.410,3
2014-11-15 17:55:56.050,8019,267.3,40.10464,-88.22195,235.7378,0.68,262.2656,12,10,1416095755,-0.2585907,0.8827057,0.4698639,-21.34882,45.32835,-15.78348,161.36,164.4423,15,0.187147,-0.6429755,-0.005148157,-1.417708,-2.864044,-1.104089,0.239232,-0.6537878,-0.01751496,-0.103613,-0.01683387,0.06774412,172.17.160.76,10.64.29.0,2,unknown,2,2014-11-15 17:55:53.389,8,2014-11-15 17:52:35.410,3
2014-11-15 17:55:56.084,8020,267.3333,40.10464,-88.22195,235.7378,0.68,262.2656,12,10,1416095755,-0.2470093,0.8414154,0.4358521,-21.21151,45.32835,-15.85068,160.6451,163.7274,15,0.1392724,-0.473926,0.00547466,-1.413715,-2.878009,-1.111416,0.2477465,-0.535588,0.01704292,-0.1430682,-0.01362177,0.04178489,172.17.160.76,10.64.29.0,2,unknown,2,2014-11-15 17:55:53.389,8,2014-11-15 17:52:35.410,3
2014-11-15 17:55:56.118,8021,267.3667,40.10465,-88.22196,235.8243,1,298.8281,12,10,1416095756,-0.2006378,0.8442841,0.4220734,-21.21151,45.53485,-15.44736,159.0647,162.147,15,0.04890469,-0.2126087,-0.009794574,-1.410823,-2.890612,-1.119227,0.146728,-0.2306433,0.009473549,-0.1285318,-0.06181191,0.006356175,172.17.160.76,10.64.29.0,2,unknown,2,2014-11-15 17:55:53.389,8,2014-11-15 17:52:35.410,3
2014-11-15 17:55:56.151,8022,267.4,40.10465,-88.22196,235.8243,1,298.8281,12,10,1416095756,-0.1815186,0.8280029,0.417572,-21.00557,45.87901,-15.3129,159.0574,162.1397,15,-0.07046565,-0.06783551,0.01795184,-1.410217,-2.893281,-1.122355,0.02317908,-0.009433253,0.02808463,-0.07943414,-0.06622405,-0.005255179,172.17.160.76,10.64.29.0,2,unknown,2,2014-11-15 17:55:53.389,8,2014-11-15 17:52:35.410,3
2014-11-15 17:55:56.184,8023,267.4333,40.10465,-88.22196,235.8243,1,298.8281,12,10,1416095756,-0.170105,0.8331146,0.4244232,-20.86826,45.74135,-15.17844,159.5881,162.6704,15,-0.1418112,-0.04990338,-0.003977697,-1.412763,-2.895485,-1.121993,-0.05035891,0.009713939,0.02633777,-0.06955414,-0.07975411,0.002190124,172.17.160.76,10.64.29.0,2,unknown,2,2014-11-15 17:55:53.389,8,2014-11-15 17:52:35.410,3
2014-11-15 17:55:56.218,8024,267.4667,40.10465,-88.22196,235.8243,1,298.8281,12,10,1416095756,-0.1632996,0.8742065,0.4463348,-20.55931,46.05109,-15.27921,160.5163,163.5986,15,-0.183283,-0.004366519,-0.02693521,-1.414082,-2.896274,-1.120467,-0.09930653,0.03074868,-0.002056156,-0.06439494,-0.06718926,0.002193067,172.17.160.76,10.64.29.0,2,unknown,2,2014-11-15 17:55:53.389,8,2014-11-15 17:52:35.410,3
2014-11-15 17:55:56.251,8025,267.5,40.10465,-88.22196,235.8243,1,298.8281,12,10,1416095756,-0.165863,0.900528,0.4588318,-20.38769,45.60367,-15.4473,161.2889,164.3712,15,-0.139592,0.1808957,0.02588939,-1.407758,-2.884211,-1.112544,-0.1045566,0.1827747,0.007236324,-0.05148503,-0.003409511,0.02382009,172.17.160.76,10.64.29.0,2,unknown,2,2014-11-15 17:55:53.389,8,2014-11-15 17:52:35.410,3
2014-11-15 17:55:56.285,8026,267.5334,40.10465,-88.22196,235.8243,1,298.8281,12,10,1416095756,-0.1520996,0.883667,0.4521179,-20.62798,45.63809,-15.48099,161.3913,164.4736,15,-0.1279244,0.2002005,0.05036144,-1.40418,-2.87521,-1.10887,-0.07263631,0.2478463,0.04247513,-0.04941211,0.007087173,0.03006756,172.17.160.76,10.64.29.0,2,unknown,2,2014-11-15 17:55:53.389,8,2014-11-15 17:52:35.410,3
2014-11-15 17:55:56.318,8027,267.5667,40.10465,-88.22196,235.8243,1,298.8281,12,10,1416095756,-0.09890747,0.8939972,0.4333191,-20.76529,45.15625,-15.81711,161.9456,165.0279,15,-0.1556732,0.2013568,0.06108626,-1.409728,-2.868305,-1.10536,-0.06640094,0.2844296,0.1031399,-0.02074221,-0.01752707,0.02093751,172.17.160.76,10.64.29.0,2,unknown,2,2014-11-15 17:55:53.389,8,2014-11-15 17:52:35.410,3
2014-11-15 17:55:56.351,8028,267.6,40.10465,-88.22196,235.8243,1,298.8281,12,10,1416095756,-0.08209229,0.8908539,0.4141235,-20.45634,45.32835,-16.254,162.8466,165.929,15,-0.1812204,0.1842401,0.04410807,-1.418044,-2.868005,-1.103095,-0.1014889,0.2575924,0.06491856,0.01048193,-0.003034802,0.008345189,172.17.160.76,10.64.29.0,2,unknown,2,2014-11-15 17:55:53.389,8,2014-11-15 17:52:35.410,3
2014-11-15 17:55:56.384,8029,267.6334,40.10465,-88.22196,235.8243,1,298.8281,12,10,1416095756,-0.07174683,0.9085388,0.4311829,-20.45634,45.12186,-16.254,163.0677,166.15,15,-0.184381,0.1958584,0.03462775,-1.432479,-2.869204,-1.099744,-0.1228098,0.2576066,0.06606914,0.03871955,-0.001305401,-0.02367068,172.17.160.76,10.64.29.0,2,unknown,2,2014-11-15 17:55:53.389,8,2014-11-15 17:52:35.410,3
2014-11-15 17:55:56.418,8030,267.6667,40.10465,-88.22196,235.8243,1,298.8281,12,10,1416095756,-0.05326843,0.9102936,0.4581757,-20.31903,45.12186,-16.11954,163.4166,166.4989,15,-0.1063403,0.1282046,-0.05518522,-1.44237,-2.8718,-1.0983,-0.06822415,0.2378704,-0.01065292,0.05787055,0.02811368,0.006115647,172.17.160.76,10.64.29.0,2,unknown,2,2014-11-15 17:55:53.389,8,2014-11-15 17:52:35.410,3
2014-11-15 17:55:56.452,8031,267.7,40.10465,-88.22196,235.8243,1,298.8281,12,10,1416095756,-0.08111572,0.8942566,0.4427338,-21.10853,44.88094,-16.35483,163.3813,166.4636,15,-0.07336503,-0.07071012,-0.08183175,-1.445871,-2.87185,-1.097382,0.004281904,0.02699079,-0.07040172,0.06423099,0.01403596,0.01833773,172.17.160.76,10.64.29.0,2,unknown,2,2014-11-15 17:55:53.389,8,2014-11-15 17:52:35.410,3
2014-11-15 17:55:56.484,8032,267.7333,40.10465,-88.22196,235.8243,1,298.8281,12,10,1416095756,-0.1317139,0.9065094,0.41185,-20.7996,45.32835,-16.38852,163.4964,166.5787,15,-0.09696863,-0.1129068,-0.04269074,-1.444164,-2.871224,-1.097442,-0.02144686,-0.03864,-0.03880265,0.01824253,0.004044808,-0.0109387,172.17.160.76,10.64.29.0,2,unknown,2,2014-11-15 17:55:53.389,8,2014-11-15 17:52:35.410,3
2014-11-15 17:55:56.518,8033,267.7667,40.10465,-88.22196,235.8243,1,298.8281,12,10,1416095756,-0.1549835,0.9440002,0.4582214,-20.76528,45.56924,-16.28769,163.4319,166.5142,15,-0.1321831,-0.1202556,-0.03304424,-1.443574,-2.871644,-1.096699,-0.04071936,-0.05119814,-0.01438259,-0.009964115,0.01680402,-0.02815154,172.17.160.76,10.64.29.0,2,unknown,2,2014-11-15 17:55:53.389,8,2014-11-15 17:52:35.410,3
2014-11-15 17:55:56.551,8034,267.8,40.10465,-88.22196,235.8243,1,298.8281,12,10,1416095756,-0.2321777,1.047424,0.5886078,-19.94145,45.91339,-15.54825,164.0917,167.174,15,-0.2913653,-0.1832052,0.0638152,-1.443712,-2.87407,-1.092203,-0.2210391,-0.1081991,0.0242022,-0.04034083,0.08672173,0.02991047,172.17.160.76,10.64.29.0,2,unknown,2,2014-11-15 17:55:53.389,8,2014-11-15 17:52:35.410,3
2014-11-15 17:55:56.584,8035,267.8333,40.10465,-88.22196,235.8243,1,298.8281,12,10,1416095756,-0.3492279,0.9966888,0.644989,-20.11309,45.60365,-15.38016,163.8927,166.975,15,0.06663575,0.1306339,0.5609009,-1.463057,-2.892812,-1.088472,0.003031308,0.1035852,0.365214,-0.1715133,0.1713926,0.2346908,172.17.160.76,10.64.29.0,2,unknown,2,2014-11-15 17:55:53.389,8,2014-11-15 17:52:35.410,3
2014-11-15 17:55:56.618,8036,267.8667,40.10465,-88.22196,235.8243,1,298.8281,12,10,1416095756,-0.06689453,0.6340485,0.3170319,-19.15195,45.466,-15.44736,164.0125,167.0948,15,0.09935029,0.7686101,0.4802809,-1.495206,-2.915348,-1.095621,0.1421995,0.3048739,0.5769877,-0.180807,0.04697512,0.08604043,172.17.160.76,10.64.29.0,2,unknown,2,2014-11-15 17:55:53.389,8,2014-11-15 17:52:35.410,3
2014-11-15 17:55:56.651,8037,267.9,40.10465,-88.22196,235.8243,1,298.8281,12,10,1416095756,-0.03016663,0.5117035,0.4224091,-18.22515,45.50041,-16.01877,163.4688,166.5511,15,0.1744062,0.7547191,0.3334422,-1.525572,-2.919794,-1.103927,0.2049623,1.02857,0.4521242,0.03211896,-0.2589334,-0.122035,172.17.160.76,10.64.29.0,2,unknown,2,2014-11-15 17:55:53.389,8,2014-11-15 17:52:35.410,3
2014-11-15 17:55:56.684,8038,267.9333,40.10465,-88.22196,235.8243,1,298.8281,12,10,1416095756,0.06806946,0.782074,0.4109039,-17.53862,45.77573,-16.69101,164.4788,167.5611,15,0.2178303,-0.09627061,0.2109738,-1.545558,-2.912453,-1.113492,0.2829219,0.529955,0.2793694,0.07012267,-0.3855427,-0.007580872,172.17.160.76,10.64.29.0,2,unknown,2,2014-11-15 17:55:53.389,8,2014-11-15 17:52:35.410,3
2014-11-15 17:55:56.718,8039,267.9667,40.10465,-88.22196,235.8243,1,298.8281,12,10,1416095756,-0.05871582,1.05777,0.530304,-17.26402,46.46405,-16.89267,165.2277,168.31,15,0.1392455,-0.6926306,0.3121528,-1.568246,-2.941101,-1.129242,0.2169222,-0.5843544,0.3172692,0.006004625,0.1534066,0.07964338,172.17.160.76,10.64.29.0,2,unknown,2,2014-11-15 17:55:53.389,8,2014-11-15 17:52:35.410,3
2014-11-15 17:55:56.751,8040,268,40.10465,-88.22196,235.8243,1,298.8281,12,10,1416095756,-0.09211731,0.9884796,0.4740448,-17.16105,46.29198,-17.46414,163.3818,166.4641,15,0.1777532,-0.5460588,0.3064116,-1.58155,-2.96527,-1.134512,0.2041108,-0.5704626,0.3269436,0.0351071,0.1287517,0.09293436,172.17.160.76,10.64.29.0,2,unknown,2,2014-11-15 17:55:53.389,8,2014-11-15 17:52:35.410,3
2014-11-15 17:55:56.784,8041,268.0334,40.10465,-88.22196,235.8243,1,298.8281,12,10,1416095756,-0.1482544,0.8861389,0.4171448,-16.85211,46.18874,-17.09439,161.9865,165.0688,15,0.2327384,-0.1952438,0.1912901,-1.605721,-3.002947,-1.147655,0.3228971,-0.2352436,0.2613905,-0.08967398,0.003021793,0.05092494,172.17.160.76,10.64.29.0,2,unknown,2,2014-11-15 17:55:53.389,8,2014-11-15 17:52:35.410,3
2014-11-15 17:55:56.818,8042,268.0667,40.10465,-88.22196,235.8243,1,298.8281,12,10,1416095756,-0.2073212,0.8454437,0.3676605,-16.06261,45.879,-17.12802,160.2155,163.2978,15,0.1000717,0.1653083,0.0875373,-1.615009,-3.012361,-1.152804,0.221231,0.114394,0.1213702,-0.09678094,-0.04508552,-0.06640574,172.17.160.76,10.64.29.0,2,unknown,2,2014-11-15 17:55:53.389,8,2014-11-15 17:52:35.410,3
2014-11-15 17:55:56.850,8043,268.1,40.10465,-88.22196,235.8243,1,298.8281,12,10,1416095756,-0.1716919,0.9161835,0.5720062,-15.6507,46.08548,-17.12802,160.606,163.6883,15,0.1169146,0.3744964,0.2117077,-1.619208,-3.011089,-1.15613,0.1180375,0.3321508,0.1059195,-0.1548926,-0.06980719,-0.03179786,172.17.160.76,10.64.29.0,2,unknown,2,2014-11-15 17:55:53.389,8,2014-11-15 17:52:35.410,3
2014-11-15 17:55:56.884,8044,268.1334,40.10465,-88.22196,235.8243,1,298.8281,12,10,1416095756,-0.02813721,1.173508,0.345993,-15.44474,46.22314,-18.00198,162.4183,165.5006,15,0.1892253,0.7288901,0.00843716,-1.624633,-2.995553,-1.156996,0.1830065,0.5738714,0.1780444,-0.03836526,0.06972169,0.1050265,172.17.160.76,10.64.29.0,2,unknown,2,2014-11-15 17:55:53.389,8,2014-11-15 17:52:35.410,3
2014-11-15 17:55:56.918,8045,268.1667,40.10465,-88.22196,235.8243,1,298.8281,12,10,1416095756,-0.05461121,0.973587,0.5014343,-14.86119,45.91339,-19.31284,163.8995,166.9818,15,0.3871025,0.6595542,0.1262171,-1.625104,-2.964889,-1.168802,0.4116732,0.8226134,0.06491928,-0.0225774,0.1638699,0.04792771,172.17.160.76,10.64.29.0,2,unknown,2,2014-11-15 17:55:53.389,8,2014-11-15 17:52:35.410,3
2014-11-15 17:55:56.951,8046,268.2,40.10465,-88.22196,235.8243,1,298.8281,12,10,1416095756,-0.005447388,1.073288,0.2704773,-14.14035,45.39717,-20.08591,166.2364,169.3187,15,0.4448113,0.7368876,0.09880967,-1.628396,-2.945307,-1.182568,0.4626361,0.7805227,0.1228882,0.01921612,0.04800572,0.1301544,172.17.160.76,10.64.29.0,2,unknown,2,2014-11-15 17:55:53.389,8,2014-11-15 17:52:35.410,3
2014-11-15 17:55:56.984,8047,268.2333,40.10465,-88.22196,235.8243,1,298.8281,12,10,1416095756,-0.02883911,0.8763733,0.2922211,-13.52249,45.19066,-20.62369,167.4232,170.5055,15,0.486077,0.6301194,0.1745196,-1.628801,-2.929549,-1.192361,0.5117147,0.8038193,0.1153967,0.07351542,0.1494459,-0.03743146,172.17.160.76,10.64.29.0,2,unknown,2,2014-11-15 17:55:53.389,8,2014-11-15 17:52:35.410,3
2014-11-15 17:55:57.018,8048,268.2667,40.10465,-88.22196,235.8243,1,298.8281,12,10,1416095756,0.03163147,1.122009,0.3574982,-12.90462,44.91533,-21.90103,169.1727,172.255,15,0.4742232,0.3674869,0.1498284,-1.642996,-2.903425,-1.225893,0.5005618,0.5463547,0.2128002,0.09331673,0.1165091,0.05031411,172.17.160.76,10.64.29.0,2,unknown,2,2014-11-15 17:55:53.389,8,2014-11-15 17:52:35.410,3
2014-11-15 17:55:57.051,8049,268.3,40.10465,-88.22196,235.8243,1,298.8281,12,10,1416095756,-0.002182007,1.023544,0.3342133,-12.04647,44.05493,-22.80862,170.1824,173.2647,15,0.6171317,0.2459115,0.09982487,-1.641441,-2.890588,-1.244079,0.6617312,0.3105122,0.08782278,0.1078503,0.1518216,-0.001597947,172.17.160.76,10.64.29.0,2,unknown,2,2014-11-15 17:55:53.389,8,2014-11-15 17:52:35.410,3
2014-11-15 17:55:57.084,8050,268.3333,40.10465,-88.22196,235.8243,1,298.8281,12,10,1416095756,-0.03634644,0.8609009,0.2273254,-11.46292,43.74519,-23.31277,170.8499,173.9322,15,0.5762066,0.1458315,0.2119682,-1.638647,-2.881731,-1.258061,0.6966386,0.3058524,0.1768319,0.03579431,-0.01430074,0.04026787,172.17.160.76,10.64.29.0,2,unknown,2,2014-11-15 17:55:53.389,8,2014-11-15 17:52:35.410,3
2014-11-15 17:55:57.117,8051,268.3667,40.10468,-88.22196,235.7435,1.08,332.5781,12,10,1416095757,-0.1064453,0.8611145,0.1396637,-11.05103,43.3322,-23.91782,170.849,173.9313,15,0.3717533,-0.03243144,0.0907861,-1.642965,-2.877903,-1.284373,0.5377355,0.0952885,0.1434121,0.04534824,-0.1294874,-0.1704631,172.17.160.76,10.64.29.0,2,unknown,2,2014-11-15 17:55:53.389,8,2014-11-15 17:52:35.410,3
2014-11-15 17:55:57.151,8052,268.4,40.10468,-88.22196,235.7435,1.08,332.5781,12,10,1416095757,-0.05012512,0.9812164,0.339798,-10.91372,43.1257,-23.98502,170.5356,173.6179,15,0.2271146,0.2531532,0.04931083,-1.627085,-2.856066,-1.299682,0.2940179,0.3200904,0.06588296,-0.05275826,-0.06209069,0.02651531,172.17.160.76,10.64.29.0,2,unknown,2,2014-11-15 17:55:53.389,8,2014-11-15 17:52:35.410,3
2014-11-15 17:55:57.184,8053,268.4333,40.10468,-88.22196,235.7435,1.08,332.5781,12,10,1416095757,-0.02340698,0.8900452,0.1457825,-10.43316,42.85037,-24.05228,170.5969,173.6792,15,0.2964391,0.148712,0.01241086,-1.628088,-2.845455,-1.309856,0.3857707,0.3730831,0.05414687,0.03703469,0.03316561,0.05241971,172.17.160.76,10.64.29.0,2,unknown,2,2014-11-15 17:55:53.389,8,2014-11-15 17:52:35.410,3
2014-11-15 17:55:57.218,8054,268.4667,40.10468,-88.22196,235.7435,1.08,332.5781,12,10,1416095757,-0.08062744,0.8894806,0.3427887,-9.300388,42.05881,-23.95145,172.2432,175.3255,15,0.1502159,0.02146455,0.03776389,-1.619139,-2.82954,-1.320486,0.2993393,0.1688742,0.0257714,0.03588724,-0.1367891,-0.1283351,172.17.160.76,10.64.29.0,2,unknown,2,2014-11-15 17:55:53.389,8,2014-11-15 17:52:35.410,3
2014-11-15 17:55:57.251,8055,268.5,40.10468,-88.22196,235.7435,1.08,332.5781,12,10,1416095757,-0.01080322,0.923645,0.1854706,-8.922802,41.54256,-24.25394,172.5008,175.5831,15,0.1874793,-0.05188956,0.03511511,-1.616886,-2.824819,-1.32526,0.2171051,0.088373,0.05431536,0.004612807,-0.1218016,0.03595512,172.17.160.76,10.64.29.0,2,unknown,2,2014-11-15 17:55:53.389,8,2014-11-15 17:52:35.410,3
2014-11-15 17:55:57.284,8056,268.5334,40.10468,-88.22196,235.7435,1.08,332.5781,12,10,1416095757,-0.1163025,0.8110352,0.124527,-8.579536,41.26723,-24.85892,172.9072,175.9895,15,0.02996083,-0.05671628,-0.05136199,-1.603089,-2.812933,-1.33503,0.1981783,-0.06451269,-0.07167386,0.06459307,-0.0486907,-0.03561459,172.17.160.76,10.64.29.0,2,unknown,2,2014-11-15 17:55:53.389,8,2014-11-15 17:52:35.410,3
2014-11-15 17:55:57.318,8057,268.5667,40.10468,-88.22196,235.7435,1.08,332.5781,12,10,1416095757,-0.006256104,0.9397583,0.2426453,-8.785496,40.99188,-25.06058,172.2554,175.3377,15,-0.07543004,0.04835821,-0.07376663,-1.592255,-2.80142,-1.337667,-0.003316287,0.09955554,-0.02653476,-0.04904804,-0.06469921,0.1816897,172.17.160.76,10.64.29.0,2,unknown,2,2014-11-15 17:55:53.389,8,2014-11-15 17:52:35.410,3
2014-11-15 17:55:57.351,8058,268.6,40.10468,-88.22196,235.7435,1.08,332.5781,12,10,1416095757,0.02180481,0.8548584,-0.02427673,-9.128757,41.12956,-24.92618,171.7995,174.8818,15,-0.1434999,-0.08614261,-0.1602001,-1.576428,-2.783096,-1.338253,0.01396629,0.01700713,-0.1225677,0.1144889,-0.08854657,-0.1890845,172.17.160.76,10.64.29.0,2,unknown,2,2014-11-15 17:55:53.389,8,2014-11-15 17:52:35.410,3
2014-11-15 17:55:57.384,8059,268.6334,40.10468,-88.22196,235.7435,1.08,332.5781,12,10,1416095757,-0.09169006,0.912796,0.3387909,-9.025768,41.64581,-25.09421,172.3004,175.3827,15,-0.2446042,-0.1173948,-0.2247364,-1.562069,-2.77038,-1.333454,-0.1575305,-0.06523116,-0.189232,0.01248898,-0.1902433,-0.1806686,172.17.160.76,10.64.29.0,2,unknown,2,2014-11-15 17:55:53.389,8,2014-11-15 17:52:35.410,3
2014-11-15 17:55:57.418,8060,268.6667,40.10468,-88.22196,235.7435,1.08,332.5781,12,10,1416095757,-0.0009460449,0.9711761,0.2500458,-9.334705,42.09322,-25.59836,172.6811,175.7634,15,-0.2668804,-0.1357594,-0.2661475,-1.550954,-2.760791,-1.328384,-0.2107045,-0.07617435,-0.2347343,-0.002473929,-0.05796581,0.1159413,172.17.160.76,10.64.29.0,2,unknown,2,2014-11-15 17:55:53.389,8,2014-11-15 17:52:35.410,3
2014-11-15 17:55:57.451,8061,268.7,40.10468,-88.22196,235.7435,1.08,332.5781,12,10,1416095757,-0.02285767,0.8477325,0.1253052,-9.231724,41.85231,-25.56479,173.2476,176.3299,15,-0.350051,-0.3549813,-0.3158187,-1.523054,-2.73594,-1.321067,-0.04339701,-0.1101659,-0.2228022,0.1127245,-0.06672715,-0.1477697,172.17.160.76,10.64.29.0,2,unknown,2,2014-11-15 17:55:53.389,8,2014-11-15 17:52:35.410,3
2014-11-15 17:55:57.485,8062,268.7333,40.10468,-88.22196,235.7435,1.08,332.5781,12,10,1416095757,-0.05369568,0.9837189,0.3186951,-10.22717,41.19841,-25.06064,172.5225,175.6048,15,-0.4809259,-0.4258064,-0.4165424,-1.509605,-2.727573,-1.315441,-0.2831648,-0.2880759,-0.2992679,0.1164615,-0.1497788,-0.2466291,172.17.160.76,10.64.29.0,2,unknown,2,2014-11-15 17:55:53.389,8,2014-11-15 17:52:35.410,3
2014-11-15 17:55:57.518,8063,268.7667,40.10468,-88.22196,235.7435,1.08,332.5781,12,10,1416095757,-0.07141113,0.9116516,0.181366,-11.29128,40.9575,-24.28757,172.0331,175.1154,15,-0.3563083,-0.4979818,-0.3982824,-1.470659,-2.707144,-1.291926,-0.2286668,-0.3373989,-0.354929,0.01887932,0.02305388,0.02489896,172.17.160.76,10.64.29.0,2,unknown,2,2014-11-15 17:55:53.389,8,2014-11-15 17:52:35.410,3
2014-11-15 17:55:57.551,8064,268.8,40.10468,-88.22196,235.7435,1.08,332.5781,12,10,1416095757,-0.07991028,0.9703369,0.3461304,-11.87482,41.61139,-24.4556,172.0852,175.1675,15,-0.4393031,-0.500465,-0.4510588,-1.454977,-2.700011,-1.28439,-0.2894231,-0.4310774,-0.3817319,0.03595721,-0.03580336,-0.1143556,172.17.160.76,10.64.29.0,2,unknown,2,2014-11-15 17:55:53.389,8,2014-11-15 17:52:35.410,3
2014-11-15 17:55:57.584,8065,268.8333,40.10468,-88.22196,235.7435,1.08,332.5781,12,10,1416095757,-0.07470703,0.9030609,0.15979,-13.14488,41.71465,-23.74973,171.403,174.4854,15,-0.4786603,-0.5379239,-0.489322,-1.421895,-2.684895,-1.261355,-0.4319406,-0.4062951,-0.4861546,0.05438181,0.01783298,0.0728139,172.17.160.76,10.64.29.0,2,unknown,2,2014-11-15 17:55:53.389,8,2014-11-15 17:52:35.410,3
2014-11-15 17:55:57.618,8066,268.8667,40.10468,-88.22196,235.7435,1.08,332.5781,12,10,1416095757,-0.08720398,0.8838196,0.3410339,-14.00303,41.74905,-22.90939,171.8413,174.9236,15,-0.7821392,-0.7036577,-0.6461577,-1.384234,-2.675029,-1.227628,-0.6577598,-0.6174408,-0.6010611,0.1038209,-0.112256,-0.06656256,172.17.160.76,10.64.29.0,2,unknown,2,2014-11-15 17:55:53.389,8,2014-11-15 17:52:35.410,3
2014-11-15 17:55:57.651,8067,268.9,40.10468,-88.22196,235.7435,1.08,332.5781,12,10,1416095757,-0.1339264,0.9614105,0.273468,-14.55223,41.74904,-22.16989,171.7942,174.8765,15,-0.8215916,-0.7525896,-0.655821,-1.363769,-2.676017,-1.199083,-0.773882,-0.7123302,-0.6510158,0.03815132,0.04185021,0.03196828,172.17.160.76,10.64.29.0,2,unknown,2,2014-11-15 17:55:53.389,8,2014-11-15 17:52:35.410,3
2014-11-15 17:55:57.684,8068,268.9333,40.10468,-88.22196,235.7435,1.08,332.5781,12,10,1416095757,-0.1319122,0.7903442,0.3031921,-16.09692,42.05878,-21.32956,171.8139,174.8962,15,-0.8940567,-0.7504921,-0.6640304,-1.34573,-2.679197,-1.170462,-0.7664559,-0.6451747,-0.62203,0.05440832,-0.0779286,-0.1673571,172.17.160.76,10.64.29.0,2,unknown,2,2014-11-15 17:55:53.389,8,2014-11-15 17:52:35.410,3
2014-11-15 17:55:57.718,8069,268.9667,40.10468,-88.22196,235.7435,1.08,332.5781,12,10,1416095757,-0.2320404,0.8296509,0.4076385,-18.22513,42.60944,-20.3212,171.3497,174.432,15,-1.05921,-0.823018,-0.7104992,-1.33521,-2.683356,-1.149497,-0.9006763,-0.715631,-0.6739111,0.04899228,-0.1222142,-0.06356489,172.17.160.76,10.64.29.0,2,unknown,2,2014-11-15 17:55:53.389,8,2014-11-15 17:52:35.410,3
2014-11-15 17:55:57.751,8070,269,40.10468,-88.22196,235.7435,1.08,332.5781,12,10,1416095757,-0.2639771,0.803894,0.445343,-19.70115,43.05685,-19.34641,170.6744,173.7567,15,-1.036863,-0.5738132,-0.6339053,-1.32146,-2.701101,-1.098661,-1.144873,-0.6865957,-0.6431224,-0.04035334,-0.06830326,-0.06352079,172.17.160.76,10.64.29.0,2,unknown,2,2014-11-15 17:55:53.389,8,2014-11-15 17:52:35.410,3
2014-11-15 17:55:57.784,8071,269.0334,40.10468,-88.22196,235.7435,1.08,332.5781,12,10,1416095757,-0.2208099,0.8038177,0.4990997,-21.48609,43.53868,-17.39688,170.576,173.6583,15,-1.149464,-0.5002375,-0.7477363,-1.309012,-2.710786,-1.051259,-1.013464,-0.453161,-0.6784757,-0.06175736,-0.07913913,0.1071127,172.17.160.76,10.64.29.0,2,unknown,2,2014-11-15 17:55:53.389,8,2014-11-15 17:52:35.410,3
2014-11-15 17:55:57.818,8072,269.0667,40.10468,-88.22196,235.7435,1.08,332.5781,12,10,1416095757,-0.3049622,0.7689972,0.4876251,-23.27104,43.53868,-15.1785,170.5896,173.6719,15,-1.29976,-0.3713959,-0.7210194,-1.296935,-2.71311,-1.012884,-1.13905,-0.357808,-0.7231472,0.0005618118,-0.06384663,-0.07318483,172.17.160.76,10.64.29.0,2,unknown,2,2014-11-15 17:55:53.389,8,2014-11-15 17:52:35.410,3
2014-11-15 17:55:57.851,8073,269.1,40.10468,-88.22196,235.7435,1.08,332.5781,12,10,1416095757,-0.2340851,0.9010162,0.6235199,-24.09485,43.05685,-14.439,170.937,174.0193,15,-1.339807,-0.2320071,-0.8390214,-1.290447,-2.715204,-0.9697439,-1.28925,-0.169589,-0.7131019,-0.07107512,-0.05574374,-0.02725278,172.17.160.76,10.64.29.0,2,unknown,2,2014-11-15 17:55:53.389,8,2014-11-15 17:52:35.410,3
2014-11-15 17:55:57.884,8074,269.1334,40.10468,-88.22196,235.7435,1.08,332.5781,12,10,1416095757,-0.2436829,0.7810822,0.4072418,-26.2574,42.67828,-12.5903,171.9915,175.0738,15,-1.363152,-0.2162961,-0.8706958,-1.284153,-2.713053,-0.9399507,-1.272926,-0.1651071,-0.8224721,-0.03914209,0.05471464,0.1665721,172.17.160.76,10.64.29.0,2,unknown,2,2014-11-15 17:55:53.389,8,2014-11-15 17:52:35.410,3
2014-11-15 17:55:57.918,8075,269.1667,40.10468,-88.22196,235.7435,1.08,332.5781,12,10,1416095757,-0.2484283,0.8417511,0.8035278,-28.21397,42.57501,-10.47269,174.4598,177.5421,15,-1.246747,-0.05185068,-0.8968027,-1.265175,-2.706307,-0.8467357,-1.28347,-0.05148423,-0.8324493,0.01330549,0.07027498,0.1837637,172.17.160.76,10.64.29.0,2,unknown,2,2014-11-15 17:55:53.389,8,2014-11-15 17:52:35.410,3
2014-11-15 17:55:57.951,8076,269.2,40.10468,-88.22196,235.7435,1.08,332.5781,12,10,1416095757,-0.2776031,0.6203308,0.4943695,-28.96914,42.2997,-9.464264,175.9992,179.0815,15,-1.246638,-0.2299123,-0.9784134,-1.25597,-2.699633,-0.8177161,-1.160539,-0.03747627,-0.9400455,0.06103142,0.07249248,0.0726331,172.17.160.76,10.64.29.0,2,unknown,2,2014-11-15 17:55:53.389,8,2014-11-15 17:52:35.410,3
2014-11-15 17:55:57.984,8077,269.2333,40.10468,-88.22196,235.7435,1.08,332.5781,12,10,1416095757,-0.3007202,0.7450867,0.8831635,-31.06302,41.71461,-7.548309,179.3096,182.392,15,-1.526025,-0.218931,-0.9486494,-1.239671,-2.698042,-0.7533023,-1.538094,-0.2945017,-0.9484773,0.03822501,-0.07244851,-0.09607466,172.17.160.76,10.64.29.0,2,unknown,2,2014-11-15 17:55:53.389,8,2014-11-15 17:52:35.410,3
2014-11-15 17:55:58.018,8078,269.2667,40.10468,-88.22196,235.7435,1.08,332.5781,12,10,1416095757,-0.2799835,0.6164093,0.6786957,-33.32853,40.47566,-5.665985,182.4479,185.5302,15,-1.233107,-0.2833928,-0.8832123,-1.233576,-2.697047,-0.7199091,-1.288669,-0.1220777,-0.8943678,0.02261817,0.08577035,0.2043746,172.17.160.76,10.64.29.0,2,unknown,2,2014-11-15 17:55:53.389,8,2014-11-15 17:52:35.410,3
2014-11-15 17:55:58.052,8079,269.3,40.10468,-88.22196,235.7435,1.08,332.5781,12,10,1416095757,-0.2506561,0.5054779,0.5297852,-34.39263,40.09706,-4.758392,287.0678,290.1501,15,-1.527557,-0.5882443,-0.887961,-1.223009,-2.699363,-0.6775643,-1.177181,-0.4510371,-0.8296443,0.05343762,-0.01048789,-0.02545647,172.17.160.76,10.64.29.0,2,unknown,2,2014-11-15 17:55:53.389,8,2014-11-15 17:52:35.410,3
2014-11-15 17:55:58.084,8080,269.3333,40.10468,-88.22196,235.7435,1.08,332.5781,12,10,1416095757,-0.4249115,0.5458069,0.8704071,-35.86866,38.41066,-2.170166,301.9648,305.0471,15,-1.325402,-0.7502365,-0.7982836,-1.210472,-2.716577,-0.5969039,-1.300841,-0.5340267,-0.8519095,0.0378417,-0.003765333,0.1491982,172.17.160.76,10.64.29.0,2,unknown,2,2014-11-15 17:55:53.389,8,2014-11-15 17:52:35.410,3
2014-11-15 17:55:58.118,8081,269.3667,40.10469,-88.22195,235.7376,0.98,341.0156,12,10,1416095758,-0.4979401,0.4759979,0.719101,-37.20737,37.27495,0.6868896,301.6728,304.7551,15,-1.4811,-0.5041066,-0.7178548,-1.205002,-2.726656,-0.5671204,-1.258525,-0.6833397,-0.7817349,-0.08488952,0.008601416,0.09852931,172.17.160.76,10.64.29.0,2,unknown,2,2014-11-15 17:55:53.389,8,2014-11-15 17:52:35.410,3
2014-11-15 17:55:58.151,8082,269.4,40.10469,-88.22195,235.7376,0.98,341.0156,12,10,1416095758,-0.3522949,0.3841248,0.9259796,-38.09985,36.51779,1.896942,301.1833,304.2656,15,-1.352817,0.01020843,-0.705012,-1.200866,-2.738686,-0.5046507,-1.435357,0.00413932,-0.6511363,-0.1211694,-0.01331735,-0.07787935,172.17.160.76,10.64.29.0,2,unknown,2,2014-11-15 17:55:53.389,8,2014-11-15 17:52:35.410,3
2014-11-15 17:55:58.184,8083,269.4333,40.10469,-88.22195,235.7376,0.98,341.0156,12,10,1416095758,-0.4229584,0.3829498,0.828476,-39.67884,35.41647,3.913788,300.7647,303.847,15,-1.397491,-0.1273561,-0.773504,-1.197076,-2.734819,-0.4603681,-1.213363,0.04598091,-0.7249897,0.002161671,-0.06015313,0.1031931,172.17.160.76,10.64.29.0,2,unknown,2,2014-11-15 17:55:53.389,8,2014-11-15 17:52:35.410,3
2014-11-15 17:55:58.218,8084,269.4667,40.10469,-88.22195,235.7376,0.98,341.0156,12,10,1416095758,-0.3020172,0.3383331,0.8204346,-41.32648,33.83331,5.05661,299.993,303.0753,15,-1.492452,-0.02277429,-0.7195235,-1.189411,-2.731696,-0.3836907,-1.446871,0.07915086,-0.7059196,0.03906316,0.0001053428,-0.07891403,172.17.160.76,10.64.29.0,2,unknown,2,2014-11-15 17:55:53.389,8,2014-11-15 17:52:35.410,3
2014-11-15 17:55:58.251,8085,269.5,40.10469,-88.22195,235.7376,0.98,341.0156,12,10,1416095758,-0.4609375,0.2468414,0.9547577,-41.66973,33.00732,6.064972,299.8283,302.9106,15,-1.409484,-0.3204401,-0.7341395,-1.186366,-2.732955,-0.3368099,-1.356464,-0.2567887,-0.7228881,-0.03115546,-0.06550905,0.03108339,172.17.160.76,10.64.29.0,2,unknown,2,2014-11-15 17:55:53.389,8,2014-11-15 17:52:35.410,3
2014-11-15 17:55:58.284,8086,269.5334,40.10469,-88.22195,235.7376,0.98,341.0156,12,10,1416095758,-0.5118408,0.2198181,0.7947845,-43.42035,31.45859,6.636414,299.3503,302.4326,15,-1.426769,-0.1846583,-0.6240271,-1.183895,-2.737103,-0.3068025,-1.308649,-0.2287378,-0.6634765,-0.1729532,-0.03307588,0.06707548,172.17.160.76,10.64.29.0,2,unknown,2,2014-11-15 17:55:53.389,8,2014-11-15 17:52:35.410,3
2014-11-15 17:55:58.318,8087,269.5667,40.10469,-88.22195,235.7376,0.98,341.0156,12,10,1416095758,-0.3762665,0.2070312,1.03157,-44.62176,28.94621,7.745605,298.3568,301.4391,15,-1.406279,0.3193642,-0.573683,-1.185971,-2.735063,-0.2466391,-1.423856,0.328282,-0.4977053,0.0235491,-0.08464602,-0.09323328,172.17.160.76,10.64.29.0,2,unknown,2,2014-11-15 17:55:53.389,8,2014-11-15 17:52:35.410,3
2014-11-15 17:55:58.351,8088,269.6,40.10469,-88.22195,235.7376,0.98,341.0156,12,10,1416095758,-0.2748413,0.01550293,0.8332367,-45.61722,27.81048,8.048126,297.8562,300.9385,15,-1.429057,0.2335848,-0.8192517,-1.181785,-2.721647,-0.189598,-1.230061,0.2536992,-0.7949772,-0.02923664,0.01391323,0.09830811,172.17.160.76,10.64.29.0,2,unknown,2,2014-11-15 17:55:53.389,8,2014-11-15 17:52:35.410,3
2014-11-15 17:55:58.384,8089,269.6334,40.10469,-88.22195,235.7376,0.98,341.0156,12,10,1416095758,-0.3422241,0.02635193,0.9580383,-46.71565,25.74551,8.854858,294.4698,297.5521,15,-1.312727,0.1576187,-0.8816533,-1.176181,-2.712042,-0.1431597,-1.358964,0.323799,-0.8068633,0.1373603,-0.1271682,-0.06661594,172.17.160.76,10.64.29.0,2,unknown,2,2014-11-15 17:55:53.389,8,2014-11-15 17:52:35.410,3
2014-11-15 17:55:58.418,8090,269.6667,40.10469,-88.22195,235.7376,0.98,341.0156,12,10,1416095758,-0.5197296,0.04515076,0.9688873,-48.15734,24.02469,8.922058,293.9754,297.0577,15,-1.41452,-0.2051332,-0.8025098,-1.16888,-2.703897,-0.09762354,-1.258611,0.1104693,-0.9092034,0.07961094,-0.07111663,0.05661996,172.17.160.76,10.64.29.0,2,unknown,2,2014-11-15 17:55:53.389,8,2014-11-15 17:52:35.410,3
2014-11-15 17:55:58.451,8091,269.7,40.10469,-88.22195,235.7376,0.98,341.0156,12,10,1416095758,-0.4962463,0.04924011,0.931427,-48.7752,22.9922,9.123688,293.1971,296.2794,15,-1.42016,-0.2597147,-0.7136116,-1.164599,-2.704575,-0.0666908,-1.347656,-0.1382633,-0.7859864,-0.05372974,-0.02240615,0.07257403,172.17.160.76,10.64.29.0,2,unknown,2,2014-11-15 17:55:53.389,8,2014-11-15 17:52:35.410,3
2014-11-15 17:55:58.484,8092,269.7333,40.10469,-88.22195,235.7376,0.98,341.0156,12,10,1416095758,-0.5345764,-0.005691528,1.001678,-50.01094,20.58306,10.19934,292.2717,295.354,15,-1.26887,0.03639583,-0.6085936,-1.162676,-2.711178,-0.009092732,-1.210605,-0.09989513,-0.6207065,-0.04424078,0.04791423,0.02805827,172.17.160.76,10.64.29.0,6,unknown,2,2014-11-15 17:55:53.389,8,2014-11-15 17:52:35.410,3
2014-11-15 17:55:58.518,8093,269.7667,40.10469,-88.22195,235.7376,0.98,341.0156,12,10,1416095758,-0.4037323,-0.1589813,0.863266,-51.10938,19.06874,11.54388,292.1348,295.2171,15,-1.28075,0.1262115,-0.5348338,-1.161752,-2.706993,0.04477391,-1.22663,0.2046714,-0.5320013,-0.1044598,-0.01012691,-0.002824481,172.17.160.76,10.64.29.0,6,unknown,2,2014-11-15 17:55:53.389,8,2014-11-15 17:52:35.410,3
2014-11-15 17:55:58.551,8094,269.8,40.10469,-88.22195,235.7376,0.98,341.0156,12,10,1416095758,-0.542511,-0.09939575,1.016708,-51.6586,18.24275,11.87997,292.6012,295.6835,15,-0.8853828,0.09017304,-0.4982907,-1.160971,-2.698906,0.09229214,-0.8514045,0.218393,-0.5205964,-0.03388886,-0.02705575,0.07585783,172.17.160.76,10.64.29.0,6,unknown,2,2014-11-15 17:55:53.389,8,2014-11-15 17:52:35.410,3
2014-11-15 17:55:58.584,8095,269.8333,40.10469,-88.22195,235.7376,0.98,341.0156,12,10,1416095758,-0.4847565,-0.1741333,0.9472504,-52.10485,17.17585,12.51862,292.4734,295.5557,15,-1.007312,0.003931358,-0.3878942,-1.159712,-2.696127,0.1113145,-0.854984,0.1033058,-0.4235328,-0.1142992,0.011689,0.1198835,172.17.160.76,10.64.29.0,6,unknown,2,2014-11-15 17:55:53.389,8,2014-11-15 17:52:35.410,3
2014-11-15 17:55:58.618,8096,269.8667,40.10469,-88.22195,235.7376,0.98,341.0156,12,10,1416095758,-0.475708,-0.2030029,0.9413147,-52.72273,15.79919,12.85474,292.3154,295.3977,15,-0.9821083,0.04106967,-0.2519233,-1.164667,-2.692633,0.153053,-0.9780037,0.0873876,-0.2872864,-0.05598445,-0.02550712,0.07256871,172.17.160.76,10.64.29.0,6,unknown,2,2014-11-15 17:55:53.389,8,2014-11-15 17:52:35.410,3
2014-11-15 17:55:58.651,8097,269.9,40.10469,-88.22195,235.7376,0.98,341.0156,12,10,1416095758,-0.382431,-0.2421417,0.8982544,-52.75706,15.07645,13.09003,292.4271,295.5094,15,-0.8837532,-0.06293849,-0.3706638,-1.172271,-2.68645,0.189715,-0.9396467,0.1065827,-0.2756528,0.07165708,-0.05398998,-0.02504241,172.17.160.76,10.64.29.0,6,unknown,2,2014-11-15 17:55:53.389,8,2014-11-15 17:52:35.410,3
2014-11-15 17:55:58.684,8098,269.9333,40.10469,-88.22195,235.7376,0.98,341.0156,12,10,1416095758,-0.5656891,-0.1208801,0.9766998,-53.6152,14.21604,13.25806,292.7816,295.8639,15,-0.7506735,-0.09556221,-0.3203828,-1.174167,-2.685411,0.2086622,-0.8168931,0.003928185,-0.3541412,0.04853665,-0.03499045,0.01998609,172.17.160.76,10.64.29.0,6,unknown,2,2014-11-15 17:55:53.389,8,2014-11-15 17:52:35.410,3
2014-11-15 17:55:58.718,8099,269.9667,40.10469,-88.22195,235.7376,0.98,341.0156,12,10,1416095758,-0.3608551,-0.3012848,0.8728333,-53.82116,13.87188,13.19083,293.3306,296.4129,15,-0.5665689,-0.05438867,-0.2030309,-1.177992,-2.686697,0.2347347,-0.6012146,-0.03267642,-0.1216157,-0.1024348,0.1214247,0.05157563,172.17.160.76,10.64.29.0,6,unknown,2,2014-11-15 17:55:53.389,8,2014-11-15 17:52:35.410,3
2014-11-15 17:55:58.751,8100,270,40.10469,-88.22195,235.7376,0.98,341.0156,12,10,1416095758,-0.4221497,-0.1414032,1.017792,-54.09577,13.94071,13.05637,293.5273,296.6096,15,-0.5119631,-0.01668151,-0.2720331,-1.180162,-2.686272,0.2459899,-0.4997095,0.0124772,-0.1865085,0.03408668,-0.02198641,-0.03073654,172.17.160.76,10.64.29.0,6,unknown,2,2014-11-15 17:55:53.389,8,2014-11-15 17:52:35.410,3
2014-11-15 17:55:58.784,8101,270.0334,40.10469,-88.22195,235.7376,0.98,341.0156,12,10,1416095758,-0.4067993,-0.1309357,0.9510651,-54.16442,12.90823,13.45972,293.6508,296.7331,15,-0.2155967,-0.2372035,-0.3295012,-1.177285,-2.686809,0.2641291,-0.2948717,-0.07637277,-0.2609858,0.001885055,0.1196655,0.1505907,172.17.160.76,10.64.29.0,6,unknown,2,2014-11-15 17:55:53.389,8,2014-11-15 17:52:35.410,3
2014-11-15 17:55:58.818,8102,270.0667,40.10469,-88.22195,235.7376,0.98,341.0156,12,10,1416095758,-0.5446167,-0.1767731,0.9695892,-54.64499,12.08223,13.99753,292.889,295.9713,15,-0.07559942,-0.3046651,-0.1074695,-1.16653,-2.699147,0.2767786,-0.0477846,-0.2281375,-0.2213126,-0.07637995,0.06882102,0.07989058,172.17.160.76,10.64.29.0,6,unknown,2,2014-11-15 17:55:53.389,8,2014-11-15 17:52:35.410,3
2014-11-15 17:55:58.851,8103,270.1,40.10469,-88.22195,235.7376,0.98,341.0156,12,10,1416095758,-0.5549011,-0.1731262,0.934433,-54.64499,11.66924,14.53531,292.6602,295.7425,15,0.05706968,-0.3170994,0.0840965,-1.165271,-2.704313,0.2771571,0.05805128,-0.2518159,0.02761461,-0.1541772,0.1223467,0.1201658,172.17.160.76,10.64.29.0,6,unknown,2,2014-11-15 17:55:53.389,8,2014-11-15 17:52:35.410,3
2014-11-15 17:55:58.884,8104,270.1334,40.10469,-88.22195,235.7376,0.98,341.0156,12,10,1416095758,-0.441391,-0.2620392,0.9067078,-54.91959,12.21991,14.93866,292.7396,295.8219,15,0.09450813,-0.2173613,0.06749782,-1.166575,-2.713763,0.2708525,0.1559552,-0.235463,0.08889994,-0.09525488,0.003926843,0.02447117,172.17.160.76,10.64.29.0,6,unknown,2,2014-11-15 17:55:53.389,8,2014-11-15 17:52:35.410,3
2014-11-15 17:55:58.918,8105,270.1667,40.10469,-88.22195,235.7376,0.98,341.0156,12,10,1416095758,-0.3356323,-0.2358551,0.9571991,-54.78229,12.90823,15.20758,292.9936,296.0759,15,0.3003095,-0.1835248,0.05841351,-1.166238,-2.717252,0.2640156,0.3031906,-0.07720936,0.08918187,-0.008994056,0.005450667,0.05106824,172.17.160.76,10.64.29.0,6,unknown,2,2014-11-15 17:55:53.389,8,2014-11-15 17:52:35.410,3
2014-11-15 17:55:58.951,8106,270.2,40.10469,-88.22195,235.7376,0.98,341.0156,12,10,1416095758,-0.4559937,-0.2615814,0.9067993,-54.71364,13.32122,15.20758,293.3155,296.3978,15,0.3716127,-0.3599763,0.05403288,-1.160751,-2.725622,0.2500988,0.3641691,-0.2747242,-0.03203415,0.04728291,0.01184297,0.05897045,172.17.160.76,10.64.29.0,6,unknown,2,2014-11-15 17:55:53.389,8,2014-11-15 17:52:35.410,3
2014-11-15 17:55:58.983,8107,270.2333,40.10469,-88.22195,235.7376,0.98,341.0156,12,10,1416095758,-0.4978943,-0.1348267,1.029236,-54.23307,13.39005,15.20758,292.7874,295.8698,15,0.3998284,-0.3319556,0.2493875,-1.157826,-2.732466,0.2424118,0.4384688,-0.2931136,0.07055447,-0.06981667,-0.02153682,0.01615577,172.17.160.76,10.64.29.0,6,unknown,2,2014-11-15 17:55:53.389,8,2014-11-15 17:52:35.410,3
2014-11-15 17:55:59.018,8108,270.2667,40.10469,-88.22195,235.7376,0.98,341.0156,12,10,1416095758,-0.5305939,-0.2212982,0.9730377,-53.88983,13.52771,15.4765,292.2582,295.3405,15,0.4847938,-0.2119642,0.3855709,-1.159995,-2.742965,0.2205875,0.5314118,-0.2877921,0.3600189,-0.1252496,0.09876201,0.1421945,172.17.160.76,10.64.29.0,6,unknown,2,2014-11-15 17:55:53.389,8,2014-11-15 17:52:35.410,3
2014-11-15 17:55:59.051,8109,270.3,40.10469,-88.22195,235.7376,0.98,341.0156,12,10,1416095758,-0.4356537,-0.1831207,0.9541016,-53.68386,13.59654,15.74542,292.3439,295.4262,15,0.5828485,0.03396702,0.4554951,-1.164684,-2.746937,0.2008381,0.5335819,-0.03238577,0.4123068,-0.1538319,-0.02180757,0.06846385,172.17.160.76,10.64.29.0,6,unknown,2,2014-11-15 17:55:53.389,8,2014-11-15 17:52:35.410,3
2014-11-15 17:55:59.085,8110,270.3333,40.10469,-88.22195,235.7376,0.98,341.0156,12,10,1416095758,-0.4414368,-0.1315308,1.047226,-53.2033,14.90436,15.67819,292.8028,295.8851,15,0.8450274,0.06063272,0.4854367,-1.168518,-2.74487,0.1864616,0.6497034,0.1008285,0.4720164,-0.07864336,-0.03058992,0.03478676,172.17.160.76,10.64.29.0,6,unknown,2,2014-11-15 17:55:53.389,8,2014-11-15 17:52:35.410,3
2014-11-15 17:55:59.118,8111,270.3667,40.10471,-88.22195,235.6947,0.89,337.1484,12,30,1416095759,-0.4566803,-0.1833344,0.947525,-52.58543,16.4875,14.87146,293.3625,296.4448,15,0.7912512,0.03203303,0.6351565,-1.175697,-2.736705,0.1254777,0.8487856,0.09395292,0.5593375,-0.06340507,-0.05315024,0.001806496,172.17.160.76,10.64.29.0,6,unknown,2,2014-11-15 17:55:53.389,8,2014-11-15 17:52:35.410,3
2014-11-15 17:55:59.151,8112,270.4,40.10471,-88.22195,235.6947,0.89,337.1484,12,30,1416095759,-0.4394684,-0.03392029,1.028946,-52.24218,17.38232,13.72864,293.4721,296.5544,15,0.9208236,0.02254046,0.7938436,-1.181264,-2.734174,0.1040236,0.9164253,0.08687185,0.7522366,-0.06645765,-0.04603575,0.06746812,172.17.160.76,10.64.29.0,6,unknown,2,2014-11-15 17:55:53.389,8,2014-11-15 17:52:35.410,3
2014-11-15 17:55:59.184,8113,270.4333,40.10471,-88.22195,235.6947,0.89,337.1484,12,30,1416095759,-0.4308777,-0.03593445,0.9743195,-51.07508,18.8278,12.58582,293.9417,297.024,15,0.9764435,-0.004563593,0.7255577,-1.194085,-2.729182,0.05375731,1.042199,0.07089341,0.7548658,-0.04122679,0.02075718,0.09307047,172.17.160.76,10.64.29.0,6,unknown,2,2014-11-15 17:55:53.389,8,2014-11-15 17:52:35.410,3
2014-11-15 17:55:59.218,8114,270.4667,40.10471,-88.22195,235.6947,0.89,337.1484,12,30,1416095759,-0.3269958,-0.05862427,0.989975,-49.97666,20.89277,11.64465,294.8286,297.9109,15,1.069024,-0.01803226,0.7771528,-1.201929,-2.727841,0.01608001,1.058139,0.02097472,0.7587891,0.002901942,-0.0439335,0.03561042,172.17.160.76,10.64.29.0,6,unknown,2,2014-11-15 17:55:53.389,8,2014-11-15 17:52:35.410,3
2014-11-15 17:55:59.252,8115,270.5,40.10471,-88.22195,235.6947,0.89,337.1484,12,30,1416095759,-0.4891663,0.01139832,1.004181,-49.29014,22.06293,11.57742,295.4998,298.5821,15,1.294575,-0.1586003,0.8912694,-1.211089,-2.727488,-0.04277142,1.362774,-0.08823105,0.8122472,0.009515542,-0.07834187,0.07681525,172.17.160.76,10.64.29.0,6,unknown,2,2014-11-15 17:55:53.389,8,2014-11-15 17:52:35.410,3
2014-11-15 17:55:59.285,8116,270.5334,40.10471,-88.22195,235.6947,0.89,337.1484,12,30,1416095759,-0.4689636,0.1058502,0.9638519,-48.74092,24.88506,10.56906,296.5637,299.646,15,1.390612,0.0519146,0.9143096,-1.219159,-2.730646,-0.09085643,1.394446,0.003016431,0.9378639,-0.1016975,-0.03163418,0.1100636,172.17.160.76,10.64.29.0,6,unknown,2,2014-11-15 17:55:53.389,8,2014-11-15 17:52:35.410,3
2014-11-15 17:55:59.318,8117,270.5667,40.10471,-88.22195,235.6947,0.89,337.1484,12,30,1416095759,-0.4685974,0.1677704,1.006622,-48.02008,26.08963,10.19928,297.1575,300.2398,15,1.376817,0.04324494,0.890963,-1.225028,-2.729375,-0.1246001,1.457453,0.1187524,0.9308069,-0.07142758,-0.01842769,0.05472042,172.17.160.76,10.64.29.0,6,unknown,2,2014-11-15 17:55:53.389,8,2014-11-15 17:52:35.410,3
2014-11-15 17:55:59.351,8118,270.6,40.10471,-88.22195,235.6947,0.89,337.1484,12,30,1416095759,-0.4198456,0.2253723,0.9820404,-46.37243,28.36111,9.325348,298.2424,301.3247,15,1.570933,0.136601,0.8832973,-1.235512,-2.726629,-0.1930375,1.518119,0.1317443,0.9667384,-0.07292937,-0.02407043,0.1084887,172.17.160.76,10.64.29.0,6,unknown,2,2014-11-15 17:55:53.389,8,2014-11-15 17:52:35.410,3
2014-11-15 17:55:59.384,8119,270.6334,40.10471,-88.22195,235.6947,0.89,337.1484,12,30,1416095759,-0.2518768,0.2006073,0.9842682,-44.24423,30.08192,8.182495,299.1236,302.2059,15,1.701264,0.191216,0.8066702,-1.241856,-2.720555,-0.2678361,1.724258,0.1988005,0.8538024,0.08328353,-0.06333607,0.07290845,172.17.160.76,10.64.29.0,6,unknown,2,2014-11-15 17:55:53.389,8,2014-11-15 17:52:35.410,3
2014-11-15 17:55:59.418,8120,270.6667,40.10471,-88.22195,235.6947,0.89,337.1484,12,30,1416095759,-0.301651,0.2927704,0.9608917,-42.56226,31.83716,6.132111,299.6805,302.7628,15,1.865002,0.01496643,0.5524962,-1.238601,-2.709816,-0.3465133,1.908281,0.1778958,0.6290305,0.1311296,-0.08237246,0.1637031,172.17.160.76,10.64.29.0,6,unknown,2,2014-11-15 17:55:53.389,8,2014-11-15 17:52:35.410,3
2014-11-15 17:55:59.451,8121,270.7,40.10471,-88.22195,235.6947,0.89,337.1484,12,30,1416095759,-0.4190826,0.3511505,0.8498535,-41.5668,32.90406,4.686737,300.084,303.1663,15,1.91842,-0.07051571,0.492403,-1.231979,-2.705956,-0.3863788,1.956471,0.03360543,0.5198189,0.06160958,-0.05202284,0.1111918,172.17.160.76,10.64.29.0,6,unknown,2,2014-11-15 17:55:53.389,8,2014-11-15 17:52:35.410,3
2014-11-15 17:55:59.484,8122,270.7333,40.10471,-88.22195,235.6947,0.89,337.1484,12,30,1416095759,-0.5201721,0.3864441,0.8366089,-40.33105,34.55605,1.930481,300.1255,303.2078,15,1.942415,-0.07773448,0.6642352,-1.216287,-2.699974,-0.4667135,1.979641,-0.02744648,0.5979602,-0.09128288,-0.07628118,0.05000286,172.17.160.76,10.64.29.0,6,unknown,2,2014-11-15 17:55:53.389,8,2014-11-15 17:52:35.410,3
2014-11-15 17:55:59.517,8123,270.7667,40.10471,-88.22195,235.6947,0.89,337.1484,12,30,1416095759,-0.4768372,0.503479,0.855072,-38.82071,36.34569,-1.296356,300.3109,303.3932,15,1.963399,0.2233146,0.8525628,-1.209598,-2.695551,-0.5309433,2.028098,0.1528353,0.8365,-0.1834736,-0.07330254,0.07276229,172.17.160.76,10.64.29.0,6,unknown,2,2014-11-15 17:55:53.389,8,2014-11-15 17:52:35.410,3
2014-11-15 17:55:59.551,8124,270.8,40.10471,-88.22195,235.6947,0.89,337.1484,12,30,1416095759,-0.367569,0.5248718,0.7427979,-38.30582,37.20609,-2.472778,300.2755,303.3578,15,1.944944,0.3896972,0.6518265,-1.202508,-2.676063,-0.6175714,1.983894,0.4612273,0.7257723,0.009442127,-0.06562914,0.0664858,172.17.160.76,10.64.29.0,6,unknown,2,2014-11-15 17:55:53.389,8,2014-11-15 17:52:35.410,3
2014-11-15 17:55:59.584,8125,270.8333,40.10471,-88.22195,235.6947,0.89,337.1484,12,30,1416095759,-0.4100494,0.6331177,0.7644196,-36.28058,38.75482,-5.262604,300.4441,303.5264,15,2.160265,0.5205931,0.6920459,-1.194308,-2.661813,-0.6597102,2.064111,0.4945991,0.6470979,-0.002839742,-0.08801608,0.04184064,172.17.160.76,10.64.29.0,6,unknown,2,2014-11-15 17:55:53.389,8,2014-11-15 17:52:35.410,3
2014-11-15 17:55:59.618,8126,270.8667,40.10471,-88.22195,235.6947,0.89,337.1484,12,30,1416095759,-0.3186035,0.6995697,0.74617,-34.39265,38.99571,-8.119781,299.8715,302.9538,15,2.252079,0.6916181,0.6915412,-1.177581,-2.63369,-0.7277359,2.252653,0.6598946,0.7385497,-0.04690386,-0.03206312,0.1119935,172.17.160.76,10.64.29.0,6,unknown,2,2014-11-15 17:55:53.389,8,2014-11-15 17:52:35.410,3
2014-11-15 17:55:59.651,8127,270.9,40.10471,-88.22195,235.6947,0.89,337.1484,12,30,1416095759,-0.4941559,0.6987152,0.5666199,-33.15692,39.13336,-9.800385,201.2616,204.3439,15,2.484688,0.06872927,0.8168908,-1.145385,-2.583075,-0.8226242,2.423223,0.5501533,0.7097344,0.04190774,-0.03336388,0.1692472,172.17.160.76,10.64.29.0,6,unknown,2,2014-11-15 17:55:53.389,8,2014-11-15 17:52:35.410,3
2014-11-15 17:55:59.684,8128,270.9333,40.10471,-88.22195,235.6947,0.89,337.1484,12,30,1416095759,-0.3750916,0.6813049,0.403244,-30.85707,38.96129,-13.5314,185.8803,188.9626,15,2.257837,0.2689708,1.148916,-1.11414,-2.553373,-0.8994067,2.529845,0.05236226,0.9306864,-0.1489788,-0.08424275,0.04909728,172.17.160.76,10.64.29.0,6,unknown,2,2014-11-15 17:55:53.389,8,2014-11-15 17:52:35.410,3
2014-11-15 17:55:59.718,8129,270.9667,40.10471,-88.22195,235.6947,0.89,337.1484,12,30,1416095759,-0.4087219,0.9230499,0.4100342,-29.3124,39.20219,-14.90958,184.0693,187.1516,15,1.962842,0.4525329,1.09579,-1.09041,-2.519437,-1.001228,2.105022,0.6341041,1.255908,-0.00925282,-0.08862451,-0.03522244,172.17.160.76,10.64.29.0,6,unknown,2,2014-11-15 17:55:53.389,8,2014-11-15 17:52:35.410,3
2014-11-15 17:55:59.752,8130,271,40.10471,-88.22195,235.6947,0.89,337.1484,12,30,1416095759,-0.3317719,0.9101868,0.2218475,-27.01256,39.3743,-18.37173,176.8679,179.9502,15,1.72816,0.8570303,0.8949941,-1.062545,-2.472973,-1.090982,1.887574,0.6144388,0.8882843,-0.1422191,0.1048015,-0.07397997,172.17.160.76,10.64.29.0,6,unknown,2,2014-11-15 17:55:53.389,8,2014-11-15 17:52:35.410,3
2014-11-15 17:55:59.784,8131,271.0334,40.10471,-88.22195,235.6947,0.89,337.1484,12,30,1416095759,-0.1519623,0.7197418,0.1311951,-24.19783,39.71846,-20.72458,176.5399,179.6222,15,1.251517,1.184382,1.017389,-1.039616,-2.420153,-1.148483,1.499577,1.251138,1.035329,0.008255342,-0.05441608,-0.1349946,172.17.160.76,10.64.29.0,6,unknown,2,2014-11-15 17:55:53.389,8,2014-11-15 17:52:35.410,3
2014-11-15 17:55:59.818,8132,271.0667,40.10471,-88.22195,235.6947,0.89,337.1484,12,30,1416095759,0.09790039,0.6944122,0.008453369,-21.58905,39.64963,-22.4053,175.5795,178.6618,15,0.8380398,0.786041,0.866109,-1.034652,-2.379094,-1.195879,1.040155,1.107517,0.9832184,0.2126285,-0.2659872,-0.2034142,172.17.160.76,10.64.29.0,6,unknown,2,2014-11-15 17:55:53.389,8,2014-11-15 17:52:35.410,3
2014-11-15 17:55:59.851,8133,271.1,40.10471,-88.22195,235.6947,0.89,337.1484,12,30,1416095759,-0.08210754,0.7439117,0.1524048,-20.11303,39.6152,-22.97678,175.586,178.6684,15,0.4238533,-0.1422975,0.4615311,-1.034399,-2.360754,-1.228468,0.6164948,0.2172049,0.5480932,0.3341782,-0.2475634,-0.2299888,172.17.160.76,10.64.29.0,6,unknown,2,2014-11-15 17:55:53.389,8,2014-11-15 17:52:35.410,3
2014-11-15 17:55:59.884,8134,271.1334,40.10471,-88.22195,235.6947,0.89,337.1484,12,30,1416095759,-0.04264832,0.6253204,0.1368408,-17.77887,39.68404,-24.05234,175.4546,178.5369,15,0.4214463,-0.1799349,0.5430761,-1.032491,-2.36012,-1.24976,0.4766331,-0.1345906,0.5276576,0.1401429,-0.204997,-0.07159723,172.17.160.76,10.64.29.0,6,unknown,2,2014-11-15 17:55:53.389,8,2014-11-15 17:52:35.410,3
2014-11-15 17:55:59.918,8135,271.1667,40.10471,-88.22195,235.6947,0.89,337.1484,12,30,1416095759,-0.261261,1.040924,0.11203,-16.57746,39.23665,-24.42209,173.0166,176.0989,15,-0.1806577,-0.4766824,0.04274853,-1.03862,-2.373207,-1.276741,0.1773124,-0.4320737,0.3722354,0.2180916,-0.3006432,-0.2122318,172.17.160.76,10.64.29.0,6,unknown,2,2014-11-15 17:55:53.389,8,2014-11-15 17:52:35.410,3
2014-11-15 17:55:59.951,8136,271.2,40.10471,-88.22195,235.6947,0.89,337.1484,12,30,1416095759,-0.516098,0.6499786,0.3117218,-16.13122,39.27104,-24.72464,173.1655,176.2478,15,0.01917076,0.1501448,0.04423963,-1.051302,-2.394989,-1.27809,-0.1138248,-0.4098531,0.05924385,0.1281701,-0.05477178,-0.2743679,172.17.160.76,10.64.29.0,6,unknown,2,2014-11-15 17:55:53.389,8,2014-11-15 17:52:35.410,3
2014-11-15 17:55:59.984,8137,271.2333,40.10471,-88.22195,235.6947,0.89,337.1484,12,30,1416095759,0.1080475,0.9971313,0.2022552,-15.92527,39.20222,-24.65738,172.3457,175.428,15,-0.2518938,0.2063502,0.1538218,-1.06402,-2.394078,-1.290085,0.1447764,0.4375012,0.4236413,0.1605349,-0.274091,-0.03566422,172.17.160.76,10.64.29.0,6,unknown,2,2014-11-15 17:55:53.389,8,2014-11-15 17:52:35.410,3
2014-11-15 17:56:00.018,8138,271.2667,40.10471,-88.22195,235.6947,0.89,337.1484,12,30,1416095759,-0.1599731,1.028625,0.130661,-15.10144,39.61522,-24.25406,172.6261,175.7084,15,-0.2908404,0.08056755,-0.04306891,-1.081889,-2.404929,-1.293169,-0.1850619,0.2731786,0.1703169,0.2921764,0.03542291,-0.0007556062,172.17.160.76,10.64.29.0,6,unknown,2,2014-11-15 17:55:53.389,8,2014-11-15 17:52:35.410,3
2014-11-15 17:56:00.050,8139,271.3,40.10471,-88.22195,235.6947,0.89,337.1484,12,30,1416095759,-0.3016052,0.7803192,0.291748,-15.27308,39.44313,-23.88431,172.4144,175.4967,15,0.05437988,-0.4072596,0.2460385,-1.09824,-2.416139,-1.288851,-0.08253331,-0.03181556,0.03033409,0.02462187,0.06810946,-0.07750633,172.17.160.76,10.64.29.0,6,unknown,2,2014-11-15 17:55:53.389,8,2014-11-15 17:52:35.410,3
2014-11-15 17:56:00.084,8140,271.3333,40.10471,-88.22195,235.6947,0.89,337.1484,12,30,1416095759,-0.09870911,1.056152,0.05906677,-14.86116,39.37428,-23.54819,171.6498,174.7321,15,-0.1530894,-0.2708552,0.14457,-1.121542,-2.455222,-1.300172,0.02636055,-0.3393943,0.2533407,0.05551092,-0.05073197,-0.004036746,172.17.160.76,10.64.29.0,6,unknown,2,2014-11-15 17:55:53.389,8,2014-11-15 17:52:35.410,3
2014-11-15 17:56:00.118,8141,271.3667,40.10472,-88.22195,235.3766,0.29,321.6797,12,30,1416095760,-0.3107147,0.8765869,0.1789703,-14.82684,39.20221,-23.44736,171.5145,174.5968,15,-0.3355463,-0.1090804,-0.113958,-1.134316,-2.471231,-1.299886,-0.2094437,-0.1125428,0.02613805,0.0675481,0.09262467,-0.1506306,172.17.160.76,10.64.29.0,6,unknown,2,2014-11-15 17:55:53.389,8,2014-11-15 17:52:35.410,3
2014-11-15 17:56:00.151,8142,271.4,40.10472,-88.22195,235.3766,0.29,321.6797,12,30,1416095760,-0.1264496,0.9018097,0.2902679,-15.1701,39.40872,-23.44736,169.4733,172.5556,15,-0.06461814,-0.08243549,0.196182,-1.151551,-2.477862,-1.285576,-0.3071682,0.3454628,0.02573124,-0.08256528,-0.1220601,0.2984923,172.17.160.76,10.64.29.0,6,unknown,2,2014-11-15 17:55:53.389,8,2014-11-15 17:52:35.410,3
