time,timestamp,recordtime,lat,long,alt,speed,course,verticalAccuracy,horizontalAccuracy,locTimeStamp,accelerationX,accelerationY,accelerationZ,HeadingX,HeadingY,HeadingZ,TrueHeading,MagneticHeading,HeadingAccuracy,RotationX,RotationY,RotationZ,motionYaw,motionRoll,motionPitch,motionRotationRateX,motionRotationRateY,motionRotationRateZ,motionUserAccelerationX,motionUserAccelerationY,motionUserAccelerationZ,en0,pdp_ip0,DeviceOrientation,Activity,Activity Confidence,Activity Start,Steps,Last Step Date,State
2014-11-13 21:43:36.553,13901,463.3667,40.10425,-88.22172,231,-1,-1,10,165,1415935777,-0.5922546,-0.7951813,0.1710663,-23.90993,-20.05653,11.16876,86.53209,89.61528,10,-0.05140433,-0.1399182,0.04191496,2.894342,-1.856035,0.9080837,0.0120813,-0.0611221,0.05814595,0.001362639,-0.006198961,-0.005950133,172.17.160.76,0.0.0.0,1,running,0,2014-11-13 21:43:34.407,669,2014-11-13 21:42:44.967,0
2014-11-13 21:43:36.587,13902,463.4,40.10425,-88.22172,231,-1,-1,10,165,1415935777,-0.6070099,-0.7958221,0.1698608,-23.73765,-19.95319,11.13522,86.6389,89.72209,10,-0.05032789,-0.1261049,0.04198367,2.893854,-1.857615,0.906557,0.01642565,-0.07083636,0.05166747,-0.006134906,-0.006223703,-0.002034793,172.17.160.76,0.0.0.0,1,running,0,2014-11-13 21:43:34.407,669,2014-11-13 21:42:44.967,0
2014-11-13 21:43:36.620,13903,463.4333,40.10425,-88.22172,231,-1,-1,10,165,1415935777,-0.617691,-0.7909241,0.1672058,-23.66873,-19.7465,10.59946,86.64336,89.72655,10,-0.06525517,-0.1037349,0.04852626,2.893427,-1.858334,0.9052938,0.01215169,-0.05697202,0.0581259,-0.01490485,-0.009215578,-0.005244095,172.17.160.76,0.0.0.0,1,running,0,2014-11-13 21:43:34.407,669,2014-11-13 21:42:44.967,0
2014-11-13 21:43:36.654,13904,463.4667,40.10425,-88.22172,231,-1,-1,10,165,1415935777,-0.612381,-0.7800293,0.1625214,-23.84102,-19.02309,10.56592,86.59193,89.67512,10,-0.09072804,-0.03906325,0.02773256,2.890731,-1.856785,0.9020798,-0.01766698,-0.003809016,0.06064395,-0.02539562,-0.00505483,-0.007557011,172.17.160.76,0.0.0.0,1,stationary,1,2014-11-13 21:43:36.573,669,2014-11-13 21:42:44.967,0
2014-11-13 21:43:36.687,13905,463.5,40.10425,-88.22172,231,-1,-1,10,165,1415935777,-0.6037903,-0.7731171,0.1663666,-24.15114,-19.05753,10.46548,86.50295,89.58614,10,-0.104523,0.01188462,0.01956065,2.886717,-1.851577,0.8996818,-0.03886529,0.0650892,0.03667628,-0.008206094,0.01458966,-0.00918908,172.17.160.76,0.0.0.0,1,stationary,1,2014-11-13 21:43:36.573,669,2014-11-13 21:42:44.967,0
2014-11-13 21:43:36.720,13906,463.5334,40.10425,-88.22172,231,-1,-1,10,165,1415935777,-0.6021423,-0.7757263,0.1733551,-23.90993,-19.50536,10.90082,86.5201,89.60329,10,-0.1119494,0.01712146,0.009001218,2.882488,-1.844748,0.8981975,-0.05377208,0.08208279,0.03470089,-0.002400099,0.00098572,0.0005623872,172.17.160.76,0.0.0.0,1,stationary,1,2014-11-13 21:43:36.573,669,2014-11-13 21:42:44.967,0
2014-11-13 21:43:36.753,13907,463.5667,40.10425,-88.22172,231,-1,-1,10,165,1415935777,-0.5949554,-0.7695923,0.1801453,-23.7721,-20.19434,10.76688,86.57272,89.65591,10,-0.1172574,0.00855141,-0.0005773733,2.880899,-1.841929,0.8977229,-0.05053668,0.0798595,0.02194019,-0.002439414,0.008059925,0.005297938,172.17.160.76,0.0.0.0,1,stationary,1,2014-11-13 21:43:36.573,669,2014-11-13 21:42:44.967,0
2014-11-13 21:43:36.787,13908,463.6,40.10425,-88.22172,231,-1,-1,10,165,1415935777,-0.5879211,-0.7758636,0.1714325,-23.84102,-20.26324,10.56592,86.66706,89.75025,10,-0.1204036,-0.003287406,-0.02079609,2.879076,-1.838482,0.8974755,-0.05686806,0.08289637,0.001812833,0.006421429,0.01216292,0.01520691,172.17.160.76,0.0.0.0,1,stationary,1,2014-11-13 21:43:36.573,669,2014-11-13 21:42:44.967,0
2014-11-13 21:43:36.820,13909,463.6334,40.10425,-88.22172,231,-1,-1,10,165,1415935777,-0.6138916,-0.77034,0.1681976,-24.15114,-20.29768,10.5994,86.68895,89.77214,10,-0.104471,-0.09789886,-0.0255999,2.876729,-1.835634,0.8985918,-0.05155695,-0.004354153,-0.01352807,0.009814958,0.009638918,0.004437901,172.17.160.76,0.0.0.0,1,stationary,1,2014-11-13 21:43:36.573,669,2014-11-13 21:42:44.967,0
2014-11-13 21:43:36.853,13910,463.6667,40.10425,-88.22172,231,-1,-1,10,165,1415935777,-0.63974,-0.7732544,0.1904449,-24.63356,-19.9532,10.53238,86.69146,89.77465,10,-0.02885402,-0.1701456,-0.01989461,2.876175,-1.837529,0.8980412,0.02404927,-0.08828267,-0.006819041,-0.02203134,0.01004363,0.0129212,172.17.160.76,0.0.0.0,1,stationary,1,2014-11-13 21:43:36.573,669,2014-11-13 21:42:44.967,0
2014-11-13 21:43:36.887,13911,463.7,40.10425,-88.22172,231,-1,-1,10,165,1415935777,-0.6538086,-0.7282562,0.1967163,-24.56464,-20.0221,10.53238,86.68271,89.7659,10,-0.05111272,-0.1140323,-0.04817579,2.878738,-1.843011,0.8950771,0.02193739,-0.08938692,-0.01211341,-0.049748,0.01960669,0.02632453,172.17.160.76,0.0.0.0,1,stationary,1,2014-11-13 21:43:36.573,669,2014-11-13 21:42:44.967,0
2014-11-13 21:43:36.920,13912,463.7334,40.10425,-88.22172,231,-1,-1,10,165,1415935777,-0.6588287,-0.7086487,0.2109985,-24.53019,-20.05655,10.43188,86.66922,89.75241,10,-0.02546408,-0.05564995,-0.05433328,2.879334,-1.844713,0.8954686,0.01137078,-0.04490441,-0.03200782,-0.05196191,0.05224589,0.02760979,172.17.160.76,0.0.0.0,1,stationary,1,2014-11-13 21:43:36.573,669,2014-11-13 21:42:44.967,0
2014-11-13 21:43:36.953,13913,463.7667,40.10425,-88.22172,231,-1,-1,10,165,1415935777,-0.6200409,-0.765274,0.2284698,-23.90995,-19.84987,9.963074,86.62151,89.7047,10,0.0192962,0.03166072,-0.02750406,2.882686,-1.846817,0.8944907,0.05724356,0.06252176,-0.01462346,-0.0539958,0.06333765,0.04318008,172.17.160.76,0.0.0.0,1,stationary,1,2014-11-13 21:43:36.573,669,2014-11-13 21:42:44.967,0
2014-11-13 21:43:36.987,13914,463.8,40.10425,-88.22172,231,-1,-1,10,165,1415935777,-0.6114655,-0.8242645,0.2145233,-23.97886,-19.57428,9.963074,86.57943,89.66262,10,0.05979223,0.02954724,-0.0234209,2.887518,-1.848261,0.8931333,0.0999228,0.1113851,-0.01346079,-0.01704671,0.01376603,0.05672999,172.17.160.76,0.0.0.0,1,running,0,2014-11-13 21:43:36.882,669,2014-11-13 21:42:44.967,0
2014-11-13 21:43:37.020,13915,463.8333,40.10425,-88.22172,231,-1,-1,10,165,1415935777,-0.5954895,-0.7704315,0.1466217,-24.11669,-19.22979,10.09702,86.46472,89.54791,10,0.003179814,-0.1862604,-0.04132906,2.896229,-1.852933,0.8923154,0.06353942,-0.06391311,-0.01212622,-0.00351096,-0.02460409,1.116901e-05,172.17.160.76,0.0.0.0,1,running,0,2014-11-13 21:43:36.882,669,2014-11-13 21:42:44.967,0
2014-11-13 21:43:37.053,13916,463.8667,40.10425,-88.22172,231,-1,-1,10,165,1415935777,-0.6491699,-0.7718506,0.121521,-24.46127,-19.092,10.63281,86.37657,89.45976,10,-0.05343979,-0.2455541,-0.0170152,2.897309,-1.854829,0.8923519,0.06566989,-0.1171402,-0.02515229,0.003423277,-0.005095754,-0.01349787,172.17.160.76,0.0.0.0,1,running,0,2014-11-13 21:43:36.882,669,2014-11-13 21:42:44.967,0
2014-11-13 21:43:37.087,13917,463.9,40.10425,-88.22172,231,-1,-1,10,165,1415935777,-0.6636963,-0.6982727,0.2157135,-24.63357,-19.33314,10.86722,84.87758,87.96077,10,-0.001010137,-0.1087283,-0.0462125,2.895591,-1.862204,0.8903136,0.005780703,-0.165611,0.02471163,-0.05501102,0.03773659,-0.01984163,172.17.160.76,0.0.0.0,1,running,0,2014-11-13 21:43:36.882,669,2014-11-13 21:42:44.967,0
2014-11-13 21:43:37.120,13918,463.9333,40.10425,-88.22172,231,-1,-1,10,165,1415935777,-0.6363831,-0.7344513,0.206955,-24.18561,-19.50539,10.76678,85.16718,88.25037,10,0.06981823,0.1689909,-0.1309953,2.900829,-1.864811,0.8912637,0.1450341,0.1829085,-0.1077213,-0.0655755,0.07182711,0.03767073,172.17.160.76,0.0.0.0,1,running,0,2014-11-13 21:43:36.882,669,2014-11-13 21:42:44.967,0
2014-11-13 21:43:37.153,13919,463.9667,40.10425,-88.22172,231,-1,-1,10,165,1415935777,-0.5646973,-0.7125702,0.2151794,-24.28899,-19.95322,10.53238,83.96813,87.05132,10,0.1298046,0.303448,-0.1920778,2.911531,-1.861146,0.8927704,0.1613569,0.391801,-0.163995,-0.007411412,0.05789574,0.0390219,172.17.160.76,0.0.0.0,1,running,0,2014-11-13 21:43:36.882,669,2014-11-13 21:42:44.967,0
2014-11-13 21:43:37.187,13920,464,40.10425,-88.22172,231,-1,-1,10,165,1415935777,-0.5253448,-0.7156982,0.207428,-24.49573,-19.95322,10.53238,83.50335,86.58654,10,0.1082444,0.1731103,-0.1459782,2.919669,-1.860124,0.8944941,0.1922962,0.372568,-0.1758863,0.03520066,0.06732234,0.03660141,172.17.160.76,0.0.0.0,1,running,0,2014-11-13 21:43:36.882,669,2014-11-13 21:42:44.967,0
2014-11-13 21:43:37.220,13921,464.0334,40.10425,-88.22172,231,-1,-1,10,165,1415935777,-0.5242615,-0.7351837,0.1860352,-23.9444,-19.81543,10.53232,84.96086,88.04405,10,0.09214325,0.1116472,-0.125012,2.927734,-1.861094,0.8963748,0.1707382,0.2422267,-0.1297878,0.06528275,0.06356955,0.02691848,172.17.160.76,0.0.0.0,1,running,0,2014-11-13 21:43:36.882,669,2014-11-13 21:42:44.967,0
2014-11-13 21:43:37.253,13922,464.0667,40.10425,-88.22172,231,-1,-1,10,165,1415935777,-0.5419617,-0.8786316,0.157547,-24.25452,-19.84987,10.96762,85.85179,88.93498,10,-0.0277576,-0.3597206,-0.07821704,2.939045,-1.868608,0.9000318,0.06257929,-0.1493431,-0.06776018,0.06320237,-0.01664112,0.002530359,172.17.160.76,0.0.0.0,1,running,0,2014-11-13 21:43:36.882,669,2014-11-13 21:42:44.967,0
2014-11-13 21:43:37.287,13923,464.1,40.10425,-88.22172,231,-1,-1,10,165,1415935777,-0.6165009,-0.8639832,0.1261902,-23.97884,-19.71207,11.10156,86.43819,89.52138,10,-0.1120102,-0.4894757,-0.09981448,2.941226,-1.878315,0.9038063,0.001667781,-0.350168,-0.07178327,0.04764112,-0.09294432,-0.029707,172.17.160.76,0.0.0.0,1,running,0,2014-11-13 21:43:36.882,669,2014-11-13 21:42:44.967,0
2014-11-13 21:43:37.320,13924,464.1334,40.10425,-88.22172,231,-1,-1,10,165,1415935777,-0.8091431,-0.819397,0.3750458,-24.18559,-19.71207,11.77133,87.5598,90.64299,10,0.3771342,0.04301964,-0.6136608,2.950045,-1.906859,0.9123906,0.3270187,-0.2491734,-0.4684014,-0.1388012,-0.02893178,0.0136498,172.17.160.76,0.0.0.0,1,running,0,2014-11-13 21:43:36.882,669,2014-11-13 21:42:44.967,0
2014-11-13 21:43:37.353,13925,464.1667,40.10425,-88.22172,231,-1,-1,10,165,1415935777,-0.5984039,-0.8027191,0.1753998,-23.1863,-19.60873,12.07272,89.89082,92.97401,10,0.2200064,0.7622079,-0.6453755,2.969951,-1.918543,0.9208887,0.4240612,0.4858029,-0.6453464,-0.2402505,-0.0232573,0.1688351,172.17.160.76,0.0.0.0,1,running,0,2014-11-13 21:43:36.882,669,2014-11-13 21:42:44.967,0
2014-11-13 21:43:37.387,13926,464.2,40.10425,-88.22172,231,-1,-1,10,165,1415935777,-0.6102142,-0.7603149,0.1639862,-22.80727,-20.12546,12.24014,91.47238,94.55557,10,0.07106485,1.67334,-0.8682384,2.994032,-1.891345,0.9434649,0.1085848,1.561537,-0.749956,-0.01005173,0.05500392,-0.03404231,172.17.160.76,0.0.0.0,1,running,0,2014-11-13 21:43:36.882,669,2014-11-13 21:42:44.967,0
2014-11-13 21:43:37.420,13927,464.2334,40.10425,-88.22172,231,-1,-1,10,165,1415935777,-0.1400757,-0.706955,-0.04705811,-22.87618,-20.95222,11.70428,91.94452,95.02771,10,-0.1326811,1.963332,-0.7513084,3.010849,-1.849277,0.9672707,-0.01978609,2.032725,-0.8361586,-0.01880011,0.05148922,-0.02622493,172.17.160.76,0.0.0.0,1,running,0,2014-11-13 21:43:36.882,669,2014-11-13 21:42:44.967,0
2014-11-13 21:43:37.453,13928,464.2667,40.10425,-88.22172,231,-1,-1,10,165,1415935777,0.0827179,-0.7563782,-0.1233826,-23.08293,-22.05457,10.36481,91.21431,94.2975,10,-0.1892525,1.074066,-0.600803,3.015752,-1.796844,0.9876652,-0.100787,1.582924,-0.6036366,0.3965563,0.1277876,-0.170472,172.17.160.76,0.0.0.0,1,running,0,2014-11-13 21:43:36.882,669,2014-11-13 21:42:44.967,0
2014-11-13 21:43:37.487,13929,464.3,40.10425,-88.22172,231,-1,-1,10,165,1415935777,0.07244873,-1.016754,-0.03335571,-23.46197,-21.95123,9.259735,88.0703,91.1535,10,-0.3644877,-1.33669,-0.7274818,3.01449,-1.776056,1.012471,-0.1693693,-0.4160034,-0.6415047,0.6116331,-0.02136352,-0.2148658,172.17.160.76,0.0.0.0,1,running,0,2014-11-13 21:43:36.882,669,2014-11-13 21:42:44.967,0
2014-11-13 21:43:37.520,13930,464.3333,40.10425,-88.22172,231,-1,-1,10,165,1415935777,-0.01000977,-1.121552,0.0819397,-22.63497,-22.84689,8.656982,89.79086,92.87405,10,-0.6265731,-1.792622,-0.8976771,3.011092,-1.792695,1.02681,-0.3020033,-1.267577,-0.7113044,0.5773103,-0.1611019,-0.1472593,172.17.160.76,0.0.0.0,1,running,0,2014-11-13 21:43:36.882,669,2014-11-13 21:42:44.967,0
2014-11-13 21:43:37.553,13931,464.3667,40.10425,-88.22172,231,-1,-1,10,165,1415935777,-0.00617981,-1.282394,0.1720734,-20.84313,-23.94925,9.393707,96.4359,99.51909,10,-0.9292659,-2.109365,-1.353587,2.98428,-1.838576,1.068475,-0.7595456,-1.953965,-1.147397,0.430291,-0.2704751,-0.02599585,172.17.160.76,0.0.0.0,1,running,0,2014-11-13 21:43:36.882,669,2014-11-13 21:42:44.967,0
2014-11-13 21:43:37.587,13932,464.4,40.10425,-88.22172,231,-1,-1,10,165,1415935777,0.06069946,-1.304138,0.2968445,-19.43035,-24.74156,10.09692,103.2444,106.3276,10,-1.193726,-2.193681,-1.702269,2.943992,-1.883732,1.131195,-1.012072,-2.034533,-1.5598,0.4173461,-0.4082348,0.07313156,172.17.160.76,0.0.0.0,1,running,0,2014-11-13 21:43:36.882,669,2014-11-13 21:42:44.967,0
2014-11-13 21:43:37.620,13933,464.4333,40.10425,-88.22172,231,-1,-1,10,165,1415935777,0.3237915,-1.300613,0.3503113,-17.08718,-25.84391,11.03461,113.2481,116.3313,10,-1.70514,-3.085764,-1.672145,2.873318,-1.91201,1.213077,-1.551575,-2.67816,-1.697039,0.5023772,-0.3837977,0.1891987,172.17.160.76,0.0.0.0,1,running,0,2014-11-13 21:43:36.882,669,2014-11-13 21:42:44.967,0
2014-11-13 21:43:37.653,13934,464.4667,40.10425,-88.22172,231,-1,-1,10,165,1415935777,0.515152,-1.333542,0.4282379,-14.12376,-27.08405,11.50342,124.3823,127.4655,10,-2.113618,-4.698517,-1.669555,2.773403,-1.919503,1.277439,-1.874671,-4.063376,-1.669156,0.6561485,-0.3359345,0.2672546,172.17.160.76,0.0.0.0,1,running,0,2014-11-13 21:43:36.882,669,2014-11-13 21:42:44.967,0
2014-11-13 21:43:37.687,13935,464.5,40.10425,-88.22172,231,-1,-1,10,165,1415935777,0.4873047,-1.284317,0.5293121,-12.43531,-27.73856,11.60385,130.8238,133.907,10,-2.418748,-5.83423,-1.525786,2.667158,-1.912516,1.322515,-2.226469,-5.196469,-1.603748,0.7466816,-0.3642057,0.345889,172.17.160.76,0.0.0.0,1,running,0,2014-11-13 21:43:36.882,669,2014-11-13 21:42:44.967,0
2014-11-13 21:43:37.720,13936,464.5334,40.10425,-88.22172,231,-1,-1,10,165,1415935777,0.5467529,-1.404953,0.7738495,-8.128033,-29.42654,11.23547,148.4898,151.573,10,-2.720822,-7.396488,-0.7367699,2.278274,-1.785264,1.400274,-2.564588,-7.047721,-0.9551734,0.6201549,-0.3349535,0.5569471,172.17.160.76,0.0.0.0,1,running,0,2014-11-13 21:43:36.882,669,2014-11-13 21:42:44.967,0
2014-11-13 21:43:37.753,13937,464.5667,40.10425,-88.22172,231,-1,-1,10,165,1415935777,0.5423431,-1.289566,0.6990356,-4.578835,-31.66568,10.33133,163.8019,166.8851,10,-3.47442,-9.217899,0.1799498,1.753571,-1.49441,1.424097,-2.979761,-8.048111,-0.3442888,0.6925007,-0.4156941,0.7850044,172.17.160.76,0.0.0.0,1,running,0,2014-11-13 21:43:36.882,669,2014-11-13 21:42:44.967,0
2014-11-13 21:43:37.787,13938,464.6,40.10425,-88.22172,231,-1,-1,10,165,1415935777,0.3995667,-1.25206,0.9163666,-3.028214,-32.52689,9.226227,172.1613,175.2445,10,-3.560937,-11.82196,2.046445,0.9917172,-1.117885,1.370216,-3.598043,-10.62739,1.11035,0.6798831,-0.2762593,0.8096874,172.17.160.76,0.0.0.0,1,running,0,2014-11-13 21:43:36.882,669,2014-11-13 21:42:44.967,0
2014-11-13 21:43:37.820,13939,464.6334,40.10425,-88.22172,231,-1,-1,10,165,1415935777,0.05422974,-1.036346,1.105682,-2.028919,-33.87038,6.513733,186.6929,189.7761,10,-3.31967,-12.09279,2.925146,0.7746693,-1.134236,1.308475,-3.498373,-11.75296,2.062568,0.6345683,-0.2862694,1.026015,172.17.160.76,0.0.0.0,1,running,0,2014-11-13 21:43:36.882,669,2014-11-13 21:42:44.967,0
2014-11-13 21:43:37.853,13940,464.6667,40.10425,-88.22172,231,-1,-1,10,165,1415935777,-0.40065,-0.9099579,1.095413,-2.718079,-33.87038,3.031097,205.6586,208.7418,10,-2.499988,-10.35121,3.40573,0.5174702,-1.365903,1.1557,-2.892211,-11.47486,3.333418,0.3102933,-0.04749255,1.214254,172.17.160.76,0.0.0.0,1,running,0,2014-11-13 21:43:36.882,669,2014-11-13 21:42:44.967,0
2014-11-13 21:43:37.887,13941,464.7,40.10425,-88.22172,231,-1,-1,10,165,1415935777,-0.8353882,-0.7880402,0.8051453,-4.061947,-33.69815,2.193909,214.2312,217.3144,10,-1.738797,-8.261847,3.220693,0.3374743,-1.610972,1.012385,-1.967106,-8.93354,3.348644,-0.1250371,0.005888804,0.9008688,172.17.160.76,0.0.0.0,1,running,0,2014-11-13 21:43:36.882,669,2014-11-13 21:42:44.967,0
2014-11-13 21:43:37.920,13942,464.7334,40.10425,-88.22172,231,-1,-1,10,165,1415935777,-1.005661,-0.7740784,0.6644135,-7.301033,-33.14697,1.792084,228.5359,231.6191,10,-0.7996724,-4.396579,2.812937,0.2170172,-1.793705,0.8974654,-0.8840674,-5.33874,2.873114,-0.3891955,0.006495567,0.5763618,172.17.160.76,0.0.0.0,1,running,0,2014-11-13 21:43:36.882,669,2014-11-13 21:42:44.967,0
2014-11-13 21:43:37.953,13943,464.7667,40.10425,-88.22172,231,-1,-1,10,165,1415935777,-0.8426514,-0.799942,0.6324921,-10.02324,-31.87238,2.763214,237.9209,241.0041,10,-0.5306966,-1.985158,2.610209,0.1539141,-1.855848,0.8218599,-0.5755119,-2.597654,2.709125,-0.3080249,-0.03611074,0.4563343,172.17.160.76,0.0.0.0,1,running,0,2014-11-13 21:43:36.882,669,2014-11-13 21:42:44.967,0
2014-11-13 21:43:37.986,13944,464.8,40.10425,-88.22172,231,-1,-1,10,165,1415935777,-0.6446991,-0.7103729,0.659729,-11.36712,-31.28676,3.265503,239.9254,243.0086,10,-0.2445237,-1.069322,2.33373,0.1205559,-1.867751,0.7746544,-0.3362412,-1.377331,2.508728,-0.159268,-0.1004728,0.4233747,172.17.160.76,0.0.0.0,1,running,0,2014-11-13 21:43:36.882,669,2014-11-13 21:42:44.967,0
2014-11-13 21:43:38.020,13945,464.8333,40.10425,-88.22172,231,-1,-1,10,165,1415935777,-0.4859772,-0.5552368,0.5925446,-13.67583,-29.3232,4.102753,238.5524,241.6356,10,0.1632899,-0.9363003,1.821268,0.08504673,-1.876998,0.6930549,0.165048,-0.726654,1.886126,0.1416716,-0.002787554,0.4206149,172.17.160.76,0.0.0.0,1,running,0,2014-11-13 21:43:36.882,669,2014-11-13 21:42:44.967,0
2014-11-13 21:43:38.052,13946,464.8667,40.10425,-88.22172,231,-1,-1,10,165,1415935777,-0.4695129,-0.422699,0.6260834,-16.36358,-28.01418,5.375275,234.3529,237.4361,10,0.617928,-2.594274,1.940336,0.06918322,-1.915701,0.6171632,0.436858,-1.757762,1.987949,0.2922148,0.04077538,0.3134538,172.17.160.76,0.0.0.0,1,running,0,2014-11-13 21:43:36.882,669,2014-11-13 21:42:44.967,0
2014-11-13 21:43:38.087,13947,464.9,40.10425,-88.22172,231,-1,-1,10,165,1415935777,-0.5332489,-0.2437134,0.7759247,-17.63853,-26.87738,6.145477,232.4328,235.516,10,0.8639808,-3.211345,1.851247,0.06528325,-1.958368,0.575941,0.6804892,-2.525282,1.956458,0.3027504,0.2003096,0.3485551,172.17.160.76,0.0.0.0,1,running,0,2014-11-13 21:43:36.882,669,2014-11-13 21:42:44.967,0
2014-11-13 21:43:38.120,13948,464.9333,40.10425,-88.22172,231,-1,-1,10,165,1415935777,-0.6174774,-0.2386475,0.9383087,-19.01686,-25.36165,8.623566,229.9355,233.0186,10,1.36492,-3.5637,1.796564,0.06638102,-2.05052,0.5132421,1.070317,-3.363502,1.858235,0.2395742,0.2472908,0.3738559,172.17.160.76,0.0.0.0,1,running,0,2014-11-13 21:43:36.882,669,2014-11-13 21:42:44.967,0
2014-11-13 21:43:38.153,13949,464.9667,40.10425,-88.22172,231,-1,-1,10,165,1415935777,-0.6358643,-0.109314,1.134048,-19.70602,-22.67467,12.44107,228.7099,231.793,10,1.842402,-3.030296,1.261537,0.08005077,-2.195065,0.4224407,1.689357,-3.393301,1.608435,0.09858297,0.1961206,0.4399477,172.17.160.76,0.0.0.0,1,running,0,2014-11-13 21:43:36.882,669,2014-11-13 21:42:44.967,0
2014-11-13 21:43:38.187,13950,465,40.10425,-88.22172,231,-1,-1,10,165,1415935777,-0.5701752,-0.05891418,1.263657,-19.05132,-21.46899,14.6178,226.6535,229.7367,10,2.435447,-2.336201,0.6250204,0.1124049,-2.322047,0.3347373,2.274524,-2.420841,0.8269292,0.06553174,0.2639611,0.5409237,172.17.160.76,0.0.0.0,1,running,0,2014-11-13 21:43:36.882,669,2014-11-13 21:42:44.967,0
2014-11-13 21:43:38.220,13951,465.0334,40.10425,-88.22172,231,-1,-1,10,165,1415935777,-0.4304352,-0.1474609,1.428848,-17.98311,-18.33418,19.13855,220.584,223.6672,10,3.083593,-2.053824,0.3480951,0.1755509,-2.423648,0.2407314,3.041567,-1.911047,0.4201938,0.1365186,0.1135504,0.6267436,172.17.160.76,0.0.0.0,1,running,0,2014-11-13 21:43:36.882,669,2014-11-13 21:42:44.967,0
2014-11-13 21:43:38.253,13952,465.0667,40.10425,-88.22172,231,-1,-1,10,165,1415935777,-0.2323151,-0.09519958,1.591965,-15.98454,-15.09602,23.7598,171.4761,174.5593,10,3.411898,-2.910885,0.1427939,0.2300864,-2.499505,0.1600953,3.32101,-2.502377,0.2239051,0.2056362,0.01292789,0.6556373,172.17.160.76,0.0.0.0,1,running,0,2014-11-13 21:43:36.882,669,2014-11-13 21:42:44.967,0
2014-11-13 21:43:38.287,13953,465.1,40.10425,-88.22172,231,-1,-1,10,165,1415935777,-0.1229706,-0.04260254,1.698593,-15.05416,-13.47695,25.93649,167.6315,170.7147,10,3.933043,-4.061575,-0.09874309,0.2686034,-2.563117,0.1007335,3.669519,-3.190046,0.07886316,0.3116613,0.005363604,0.758912,172.17.160.76,0.0.0.0,1,running,0,2014-11-13 21:43:36.882,669,2014-11-13 21:42:44.967,0
2014-11-13 21:43:38.320,13954,465.1334,40.10425,-88.22172,231,-1,-1,10,165,1415935777,-0.1324463,-0.07870483,1.85054,-11.4705,-9.274246,29.95499,161.1113,164.1945,10,4.323434,-4.899076,-0.3837849,0.3292921,-2.682739,-0.001265531,4.125619,-4.371544,-0.165777,0.3199492,-0.04386807,0.8020328,172.17.160.76,0.0.0.0,1,running,0,2014-11-13 21:43:36.882,669,2014-11-13 21:42:44.967,0
2014-11-13 21:43:38.353,13955,465.1667,40.10425,-88.22172,231,-1,-1,10,165,1415935777,-0.1420288,-0.3234253,1.77977,-5.750431,-3.693619,32.56702,155.32,158.4032,10,4.367533,-5.160369,-0.9330508,0.4075877,-2.870341,-0.1597537,4.551841,-5.080808,-0.6339143,0.1320795,-0.2377799,0.8993718,172.17.160.76,0.0.0.0,1,running,0,2014-11-13 21:43:36.882,669,2014-11-13 21:42:44.967,0
2014-11-13 21:43:38.387,13956,465.2,40.10425,-88.22172,231,-1,-1,10,165,1415935777,0.1261444,-0.2639923,1.599182,-2.166767,-0.6621552,33.77258,152.4778,155.561,10,4.097623,-4.599243,-1.78464,0.4797485,-3.053836,-0.3256018,4.186343,-4.82234,-1.327517,0.0962992,-0.6672453,0.7193193,172.17.160.76,0.0.0.0,1,running,0,2014-11-13 21:43:36.882,669,2014-11-13 21:42:44.967,0
2014-11-13 21:43:38.420,13957,465.2334,40.10425,-88.22172,231,-1,-1,10,165,1415935777,0.3152161,-0.284256,1.454758,4.621513,5.504112,33.80603,148.1548,151.238,10,4.051097,-4.361172,-2.203559,0.5182861,-3.132849,-0.4071643,4.16018,-4.530255,-1.768519,0.1341731,-0.6599994,0.6809698,172.17.160.76,0.0.0.0,1,running,0,2014-11-13 21:43:36.882,669,2014-11-13 21:42:44.967,0
2014-11-13 21:43:38.453,13958,465.2667,40.10425,-88.22172,231,-1,-1,10,165,1415935777,0.7611542,-0.2112427,1.472382,9.928089,11.36034,32.46652,144.8624,147.9456,10,3.506406,-4.305716,-2.916666,0.6086239,3.022216,-0.5756356,3.946454,-4.105699,-2.549918,0.2923263,-0.8234971,0.6433961,172.17.160.76,0.0.0.0,1,running,0,2014-11-13 21:43:36.882,669,2014-11-13 21:42:44.967,0
2014-11-13 21:43:38.487,13959,465.3,40.10425,-88.22172,231,-1,-1,10,165,1415935777,1.19281,-0.2023926,1.551178,11.8233,14.21955,30.75864,142.9499,146.0331,10,3.08683,-5.205697,-3.64801,0.726935,2.920965,-0.7352204,3.227757,-4.769233,-3.367001,0.750546,-0.8481493,0.7493023,172.17.160.76,0.0.0.0,1,running,0,2014-11-13 21:43:36.882,669,2014-11-13 21:42:44.967,0
2014-11-13 21:43:38.520,13960,465.3333,40.10425,-88.22172,231,-1,-1,10,165,1415935777,1.229156,-0.3601837,1.730118,15.09683,19.49017,26.90759,137.8486,140.9317,10,3.234841,-6.712818,-4.681892,0.8987602,2.821371,-0.90095,3.306351,-6.289855,-4.363543,1.091645,-1.062924,1.096166,172.17.160.76,0.0.0.0,1,running,0,2014-11-13 21:43:36.882,669,2014-11-13 21:42:44.967,0
2014-11-13 21:43:38.553,13961,465.3667,40.10425,-88.22172,231,-1,-1,10,165,1415935777,1.175354,-0.7183685,1.571503,16.64745,24.76077,21.2482,270.7349,273.8181,10,2.806598,-6.933239,-5.901093,1.089449,2.775599,-1.041786,2.99773,-6.967072,-5.420005,1.052373,-1.333491,1.238158,172.17.160.76,0.0.0.0,1,running,0,2014-11-13 21:43:36.882,669,2014-11-13 21:42:44.967,0
2014-11-13 21:43:38.587,13962,465.4,40.10425,-88.22172,231,-1,-1,10,165,1415935777,1.025589,-1.403824,0.9476318,16.47517,26.86213,18.26785,268.481,271.5642,10,1.419629,-6.219227,-7.121336,1.292592,2.819669,-1.135555,2.621329,-6.671175,-6.353307,1.041954,-1.625137,1.171533,172.17.160.76,0.0.0.0,1,running,0,2014-11-13 21:43:36.882,669,2014-11-13 21:42:44.967,0
2014-11-13 21:43:38.620,13963,465.4333,40.10425,-88.22172,231,-1,-1,10,165,1415935777,0.3624115,-2.129456,0.2265015,12.30571,30.75479,13.07727,264.5354,267.6186,10,-0.1286043,-4.851283,-8.432003,2.054363,-2.992015,-1.223981,0.4196142,-5.225766,-8.000793,1.055352,-2.579544,0.4172024,172.17.160.76,0.0.0.0,1,running,0,2014-11-13 21:43:36.882,669,2014-11-13 21:42:44.967,0
2014-11-13 21:43:38.653,13964,465.4667,40.10425,-88.22172,231,-1,-1,10,165,1415935777,-0.8515015,-2.740372,0.119812,8.377468,31.65045,11.73776,265.2209,268.304,10,-1.980034,-3.715243,-8.949828,2.66631,-2.559674,-1.112915,-1.306877,-3.96842,-8.911197,0.6053739,-3.026446,-0.1427906,172.17.160.76,0.0.0.0,1,running,0,2014-11-13 21:43:36.882,669,2014-11-13 21:42:44.967,0
2014-11-13 21:43:38.687,13965,465.5,40.10425,-88.22172,231,-1,-1,10,165,1415935777,-3.22583,-1.863907,1.316727,-0.7195206,31.09927,13.01028,274.8773,277.9605,10,-3.378184,-1.18848,-6.355071,3.032192,-2.3826,-0.8191514,-3.093528,-2.496426,-7.846949,-1.617386,-3.852591,0.1494299,172.17.160.76,0.0.0.0,1,running,0,2014-11-13 21:43:36.882,669,2014-11-13 21:42:44.967,0
2014-11-13 21:43:38.720,13966,465.5334,40.10425,-88.22172,231,-1,-1,10,165,1415935777,-3.143707,-0.1564331,1.70163,-9.471924,27.79221,17.29663,289.2583,292.3415,10,-2.663269,1.195838,-4.906883,3.128989,-2.357545,-0.6118812,-3.209697,-0.4987124,-5.581407,-2.874649,-1.79621,0.8590934,172.17.160.76,0.0.0.0,1,running,0,2014-11-13 21:43:36.882,669,2014-11-13 21:42:44.967,0
2014-11-13 21:43:38.753,13967,465.5667,40.10425,-88.22172,231,-1,-1,10,165,1415935777,-1.355316,0.6934814,1.592804,-16.53587,22.03933,20.47797,306.6103,309.6935,10,-2.160918,4.641087,-6.230212,-3.101353,-2.297626,-0.448056,-2.188058,2.62556,-4.906415,-1.904925,-0.2169209,1.120144,172.17.160.76,0.0.0.0,1,running,0,2014-11-13 21:43:36.882,669,2014-11-13 21:42:44.967,0
2014-11-13 21:43:38.787,13968,465.6,40.10425,-88.22172,231,-1,-1,10,165,1415935777,-1.786819,0.1783295,1.651962,-19.67158,19.11122,20.24356,314.5966,317.6798,10,0.4132949,2.785061,-3.068364,-3.009729,-2.09858,-0.2166113,-0.5019184,3.972353,-5.859909,-0.4821454,0.3624407,1.378297,172.17.160.76,0.0.0.0,1,running,0,2014-11-13 21:43:36.882,669,2014-11-13 21:42:44.967,0
2014-11-13 21:43:38.820,13969,465.6334,40.10425,-88.22172,231,-1,-1,10,165,1415935777,-1.408249,1.638962,0.3527985,-24.66802,13.42723,19.00449,348.2105,351.2937,10,-0.898957,1.221653,-2.071767,-2.966604,-2.027447,-0.1448045,0.4759179,2.853955,-3.052287,-0.8986786,0.03403048,1.215633,172.17.160.76,0.0.0.0,1,running,0,2014-11-13 21:43:36.882,669,2014-11-13 21:42:44.967,0
2014-11-13 21:43:38.854,13970,465.6667,40.10425,-88.22172,231,-1,-1,10,165,1415935777,3.727646,0.247818,2.242615,-27.45914,4.918472,10.73312,0.5650332,3.648224,10,1.980604,32.16228,-15.45351,-2.937294,-1.670633,0.1472531,0.6318987,24.9167,-13.80626,3.650192,1.269753,3.888377,172.17.160.76,0.0.0.0,1,running,0,2014-11-13 21:43:36.882,669,2014-11-13 21:42:44.967,0
2014-11-13 21:43:38.887,13971,465.7,40.10425,-88.22172,231,-1,-1,10,165,1415935777,1.515564,-0.2082672,-0.2926788,-24.84031,-0.1798935,2.562164,79.41549,82.49868,10,2.645662,20.66002,-4.545095,-2.963837,-1.026593,0.4410128,1.793985,31.60638,-13.90064,4.501328,0.6746736,2.710814,172.17.160.76,0.0.0.0,1,running,0,2014-11-13 21:43:36.882,669,2014-11-13 21:42:44.967,0
2014-11-13 21:43:38.920,13972,465.7334,40.10425,-88.22172,231,-1,-1,10,165,1415935777,2.407166,-0.770752,-0.5934448,-14.05487,-10.68665,-14.28201,45.54866,48.63186,10,5.882132,11.02145,1.858577,-3.0405,-0.1673485,0.6788694,5.386435,14.01379,1.461177,1.645201,0.4196463,0.4747316,172.17.160.76,0.0.0.0,1,running,0,2014-11-13 21:43:36.882,669,2014-11-13 21:42:44.967,0
2014-11-13 21:43:38.953,13973,465.7667,40.10425,-88.22172,231,-1,-1,10,165,1415935777,1.783417,-2.757385,-0.6756592,-1.649895,-17.36964,-23.12265,0.3600218,3.443213,10,4.474871,-3.495615,0.3076944,-2.964388,0.0306908,0.8516812,5.659704,3.579183,1.160003,2.386952,-0.01836305,0.06496414,172.17.160.76,0.0.0.0,1,running,0,2014-11-13 21:43:36.882,669,2014-11-13 21:42:44.967,0
2014-11-13 21:43:38.987,13974,465.8,40.10425,-88.22172,231,-1,-1,10,165,1415935777,0.1947327,-1.474808,-0.4554901,0.4865189,-19.50544,-22.45285,359.3004,2.383595,10,1.958305,-7.740993,-0.1924584,-2.944543,-0.05642272,0.9908415,3.564782,-5.507442,-0.04975556,1.306736,-1.531524,0.1562603,172.17.160.76,0.0.0.0,1,running,0,2014-11-13 21:43:36.882,669,2014-11-13 21:42:44.967,0
2014-11-13 21:43:39.020,13975,465.8333,40.10425,-88.22172,231,-1,-1,10,165,1415935777,-0.969696,-1.331604,-0.2251282,-2.339058,-22.26131,-19.439,2.217307,5.300498,10,1.624948,-9.165521,0.3999642,-2.932967,-0.2884415,1.058543,1.861117,-8.448895,-0.05355839,0.334158,-0.6031657,0.01440423,172.17.160.76,0.0.0.0,1,running,0,2014-11-13 21:43:36.882,669,2014-11-13 21:42:44.967,0
2014-11-13 21:43:39.054,13976,465.8667,40.10425,-88.22172,231,-1,-1,10,165,1415935777,-1.98616,-0.8009949,0.1597137,-5.750431,-23.467,-17.73111,9.600554,12.68374,10,1.670434,-5.622214,0.3590098,-2.83246,-0.7218053,1.108084,1.601762,-7.358395,0.6781474,-1.112089,-0.2409734,0.2540631,172.17.160.76,0.0.0.0,1,running,0,2014-11-13 21:43:36.882,669,2014-11-13 21:42:44.967,0
2014-11-13 21:43:39.087,13977,465.9,40.10425,-88.22172,231,-1,-1,10,165,1415935777,-1.294601,-0.8166351,0.4320374,-10.23,-24.29376,-13.98056,14.81729,17.90048,10,3.491976,5.802482,-0.5079538,-2.619316,-0.9851522,1.197962,3.343968,3.966313,-0.7728609,-1.209628,0.1433194,0.5445081,172.17.160.76,0.0.0.0,1,running,0,2014-11-13 21:43:36.882,669,2014-11-13 21:42:44.967,0
2014-11-13 21:43:39.120,13978,465.9333,40.10425,-88.22172,231,-1,-1,10,165,1415935777,-0.5811768,-2.031845,0.5015411,-10.54012,-25.98174,-11.33505,12.42766,15.51085,10,3.591977,8.34788,0.5623118,-2.454991,-1.015304,1.242736,3.643949,7.352673,-0.05026626,-0.8025635,0.05084072,0.6778699,172.17.160.76,0.0.0.0,1,running,0,2014-11-13 21:43:36.882,669,2014-11-13 21:42:44.967,0
2014-11-13 21:43:39.154,13979,465.9667,40.10425,-88.22172,231,-1,-1,10,165,1415935777,0.11203,-2.173523,0.2706757,-7.680084,-26.84294,-10.89969,356.383,359.4662,10,2.728993,7.052984,1.12131,-1.979692,-1.120983,1.268663,3.138804,8.371334,1.568319,-0.0939638,-1.349373,0.5680218,172.17.160.76,0.0.0.0,1,running,0,2014-11-13 21:43:36.882,669,2014-11-13 21:42:44.967,0
2014-11-13 21:43:39.187,13980,466,40.10425,-88.22172,231,-1,-1,10,165,1415935777,0.468811,-1.398819,-0.06907654,-6.680798,-27.63525,-10.73227,351.656,354.7392,10,1.504668,3.080129,0.6283681,-1.71545,-1.192101,1.2739,1.898853,4.308678,0.5781892,0.5797483,-1.048695,0.2410942,172.17.160.76,0.0.0.0,1,running,0,2014-11-13 21:43:36.882,669,2014-11-13 21:42:44.967,0
2014-11-13 21:43:39.220,13981,466.0334,40.10425,-88.22172,231,-1,-1,10,165,1415935777,0.1683044,-1.676407,0.009872437,-5.784878,-28.18644,-10.33047,334.3337,337.4169,10,0.9650324,-0.636112,1.520509,-1.549298,-1.280232,1.265751,1.276511,1.051794,1.085618,0.7565579,-0.4449856,0.01696772,172.17.160.76,0.0.0.0,1,running,0,2014-11-13 21:43:36.882,669,2014-11-13 21:42:44.967,0
2014-11-13 21:43:39.253,13982,466.0667,40.10425,-88.22172,231,-1,-1,10,165,1415935777,-0.250351,-1.276382,0.0655365,-6.232838,-28.84096,-9.359283,330.1683,333.2515,10,0.2198996,-1.9847,1.164847,-1.421702,-1.411773,1.23048,0.7936779,-1.173733,1.550189,0.4978785,-0.7337579,0.06272858,172.17.160.76,0.0.0.0,1,running,0,2014-11-13 21:43:36.882,669,2014-11-13 21:42:44.967,0
2014-11-13 21:43:39.287,13983,466.1,40.10425,-88.22172,231,-1,-1,10,165,1415935777,-0.3050995,-1.046951,0.06399536,-7.059834,-28.70316,-8.622589,328.2269,331.3101,10,0.2221446,-1.477176,0.5497289,-1.377535,-1.506762,1.195231,0.2033194,-1.96025,0.9187987,0.115696,-0.3460821,0.08900815,172.17.160.76,0.0.0.0,1,running,0,2014-11-13 21:43:36.882,669,2014-11-13 21:42:44.967,0
2014-11-13 21:43:39.320,13984,466.1334,40.10425,-88.22172,231,-1,-1,10,165,1415935777,-0.4188385,-1.12767,0.0562439,-8.541542,-28.46203,-7.919403,327.8553,330.9385,10,0.4882613,0.0226374,0.3560103,-1.342208,-1.590362,1.172781,0.4777648,-0.5765201,0.4081158,0.04079002,-0.1251345,0.05812151,172.17.160.76,0.0.0.0,1,running,0,2014-11-13 21:43:36.882,669,2014-11-13 21:42:44.967,0
2014-11-13 21:43:39.353,13985,466.1667,40.10425,-88.22172,231,-1,-1,10,165,1415935777,-0.3500519,-1.064224,0.05007935,-8.955048,-28.59983,-7.249603,327.53,330.6132,10,0.2690195,0.6430192,0.03953063,-1.302638,-1.626744,1.161129,0.4947636,0.372702,0.3153943,-0.02491143,-0.2280102,0.02637258,172.17.160.76,0.0.0.0,1,running,0,2014-11-13 21:43:36.882,669,2014-11-13 21:42:44.967,0
2014-11-13 21:43:39.387,13986,466.2,40.10425,-88.22172,231,-1,-1,10,165,1415935777,-0.3433075,-0.9760132,0.1248322,-8.955048,-28.80653,-7.31662,326.5972,329.6804,10,0.2055215,0.5045534,-0.1499045,-1.276446,-1.631114,1.157741,0.2702423,0.7502297,-0.07983273,0.05062803,-0.1483257,0.02588191,172.17.160.76,0.0.0.0,1,running,0,2014-11-13 21:43:36.882,669,2014-11-13 21:42:44.967,0
