time,timestamp,recordtime,lat,long,alt,speed,course,verticalAccuracy,horizontalAccuracy,locTimeStamp,accelerationX,accelerationY,accelerationZ,HeadingX,HeadingY,HeadingZ,TrueHeading,MagneticHeading,HeadingAccuracy,RotationX,RotationY,RotationZ,motionYaw,motionRoll,motionPitch,motionRotationRateX,motionRotationRateY,motionRotationRateZ,motionUserAccelerationX,motionUserAccelerationY,motionUserAccelerationZ,en0,pdp_ip0,DeviceOrientation,Activity,Activity Confidence,Activity Start,Steps,Last Step Date,State
2014-11-13 21:43:57.520,14530,484.3333,40.10425,-88.22172,231,-1,-1,10,165,1415935777,-0.6381836,-0.7601929,0.1877441,-27.49361,-16.74948,8.22049,62.06554,65.14873,10,-0.03276913,-0.05071671,-0.1052311,3.106184,-1.855342,0.8164774,0.04966851,0.02450381,-0.07249224,0.01188601,-0.02690765,0.002176217,172.17.160.76,0.0.0.0,1,walking,0,2014-11-13 21:43:51.730,669,2014-11-13 21:42:44.967,0
2014-11-13 21:43:57.553,14531,484.3667,40.10425,-88.22172,231,-1,-1,10,165,1415935777,-0.6343384,-0.7358856,0.1819153,-27.4247,-17.02508,8.22049,62.0128,65.09599,10,-0.04662156,-0.08053453,-0.1148896,3.108052,-1.856391,0.8196583,0.02838572,0.01483079,-0.08839376,0.01664343,-0.02928017,-0.004527011,172.17.160.76,0.0.0.0,1,walking,0,2014-11-13 21:43:51.730,669,2014-11-13 21:42:44.967,0
2014-11-13 21:43:57.587,14532,484.4,40.10425,-88.22172,231,-1,-1,10,165,1415935777,-0.649292,-0.7527161,0.2033539,-27.52808,-16.99062,8.253998,61.89177,64.97496,10,-0.01144866,-0.1582498,-0.1324142,3.112244,-1.862173,0.8275307,0.03693075,-0.09807283,-0.1240578,0.01066041,-0.004887228,-0.001173268,172.17.160.76,0.0.0.0,1,walking,0,2014-11-13 21:43:51.730,669,2014-11-13 21:42:44.967,0
2014-11-13 21:43:57.620,14533,484.4333,40.10425,-88.22172,231,-1,-1,10,165,1415935777,-0.6793213,-0.7674408,0.2055664,-27.56254,-17.30066,8.086517,61.82137,64.90456,10,-0.01040657,-0.1390277,-0.1195791,3.112244,-1.862173,0.8275307,0.03693075,-0.09807283,-0.1240578,0.01066041,-0.004887228,-0.001173268,172.17.160.76,0.0.0.0,1,walking,0,2014-11-13 21:43:51.730,669,2014-11-13 21:42:44.967,0
2014-11-13 21:43:57.653,14534,484.4667,40.10425,-88.22172,231,-1,-1,10,165,1415935777,-0.6470795,-0.759552,0.1917572,-27.21796,-17.23177,8.756287,61.80114,64.88433,10,-0.05945507,-0.03677772,-0.090197,3.116845,-1.86829,0.83227,0.001706817,0.007445819,-0.08303252,-0.02354719,-0.01842739,-0.005055449,172.17.160.76,0.0.0.0,1,walking,0,2014-11-13 21:43:51.730,669,2014-11-13 21:42:44.967,0
2014-11-13 21:43:57.687,14535,484.5,40.10425,-88.22172,231,-1,-1,10,165,1415935777,-0.6366119,-0.7688751,0.1934662,-26.63216,-17.6107,8.85675,61.89784,64.98103,10,-0.05847769,-0.04826713,-0.06372412,3.1176,-1.867727,0.8346854,0.008030801,0.03316922,-0.05320143,0.0007480623,-0.02290696,-0.003574899,172.17.160.76,0.0.0.0,1,walking,0,2014-11-13 21:43:51.730,669,2014-11-13 21:42:44.967,0
2014-11-13 21:43:57.720,14536,484.5334,40.10425,-88.22172,231,-1,-1,10,165,1415935777,-0.6270447,-0.7238464,0.1896057,-26.45987,-17.85184,9.02417,61.97726,65.06045,10,-0.09046119,-0.1142523,-0.07987406,3.117889,-1.867934,0.8372297,-0.01973449,-0.02738524,-0.05342121,0.008729224,-0.01898858,-0.00231535,172.17.160.76,0.0.0.0,1,walking,0,2014-11-13 21:43:51.730,669,2014-11-13 21:42:44.967,0
2014-11-13 21:43:57.753,14537,484.5667,40.10425,-88.22172,231,-1,-1,10,165,1415935777,-0.6366425,-0.7232819,0.2103729,-26.56324,-18.09298,9.124603,62.13981,65.223,10,-0.05543689,-0.05319824,-0.01281034,3.11722,-1.868863,0.839949,-0.0155574,-0.02001437,-0.04375389,0.007101745,0.03061984,-0.00196576,172.17.160.76,0.0.0.0,1,walking,0,2014-11-13 21:43:51.730,669,2014-11-13 21:42:44.967,0
2014-11-13 21:43:57.787,14538,484.6,40.10425,-88.22172,231,-1,-1,10,165,1415935777,-0.6234894,-0.7577972,0.2225494,-26.83891,-18.57526,9.325562,62.34457,65.42776,10,-0.05124455,-0.02534104,0.01810364,3.117776,-1.869279,0.8398122,0.009867232,0.02828388,0.02221743,0.0002969709,0.01018849,0.0230382,172.17.160.76,0.0.0.0,1,walking,0,2014-11-13 21:43:51.730,669,2014-11-13 21:42:44.967,0
2014-11-13 21:43:57.820,14539,484.6334,40.10425,-88.22172,231,-1,-1,10,165,1415935777,-0.6075745,-0.7500763,0.2049103,-26.83891,-18.43746,9.057648,62.40253,65.48573,10,-0.06615984,-0.04239113,0.01063933,3.117629,-1.867866,0.838687,0.004499799,0.0475408,0.03932255,0.01567173,-0.01403114,0.02688375,172.17.160.76,0.0.0.0,1,walking,0,2014-11-13 21:43:51.730,669,2014-11-13 21:42:44.967,0
2014-11-13 21:43:57.853,14540,484.6667,40.10425,-88.22172,231,-1,-1,10,165,1415935777,-0.6026001,-0.7546234,0.1947021,-26.73553,-18.40302,8.890167,62.50627,65.58946,10,-0.04911082,-0.1041264,-0.002487392,3.117844,-1.867622,0.8384111,-0.005077007,0.02301637,0.02755078,0.03183072,-0.006494647,0.00934099,172.17.160.76,0.0.0.0,1,walking,0,2014-11-13 21:43:51.730,669,2014-11-13 21:42:44.967,0
2014-11-13 21:43:57.887,14541,484.7,40.10425,-88.22172,231,-1,-1,10,165,1415935777,-0.6319733,-0.7550964,0.1904907,-26.5977,-17.92075,9.024109,62.57491,65.6581,10,-0.04584073,-0.1788297,-0.0453523,3.119085,-1.872758,0.8392923,0.01839957,-0.1175873,-0.01680532,0.0138651,-0.008957509,-0.009278995,172.17.160.76,0.0.0.0,1,walking,0,2014-11-13 21:43:51.730,669,2014-11-13 21:42:44.967,0
2014-11-13 21:43:57.919,14542,484.7334,40.10425,-88.22172,231,-1,-1,10,165,1415935777,-0.646698,-0.7543793,0.1976776,-26.80444,-17.78295,9.49292,62.65664,65.73983,10,-0.05005225,-0.1342462,-0.05147065,3.119274,-1.873958,0.8397477,0.0152388,-0.113423,-0.02844883,0.005230809,-0.01062171,-0.008828991,172.17.160.76,0.0.0.0,1,walking,0,2014-11-13 21:43:51.730,669,2014-11-13 21:42:44.967,0
2014-11-13 21:43:57.953,14543,484.7667,40.10425,-88.22172,231,-1,-1,10,165,1415935777,-0.6375122,-0.759964,0.2041016,-27.14903,-17.64516,9.626831,62.7958,65.87899,10,-0.03506264,-0.06521656,-0.0554092,3.120668,-1.87731,0.841208,0.02599612,-0.002957279,-0.03321509,-0.01143168,-0.01657506,0.005035065,172.17.160.76,0.0.0.0,1,walking,0,2014-11-13 21:43:51.730,669,2014-11-13 21:42:44.967,0
2014-11-13 21:43:57.987,14544,484.8,40.10425,-88.22172,231,-1,-1,10,165,1415935777,-0.6336823,-0.7404938,0.2002869,-27.32133,-17.95519,9.258484,62.86059,65.94378,10,-0.03611673,-0.09611934,-0.06724428,3.122225,-1.878573,0.8425762,0.01963484,-0.01901319,-0.04919963,-0.001245152,-0.008095411,-0.006734256,172.17.160.76,0.0.0.0,1,walking,0,2014-11-13 21:43:51.730,669,2014-11-13 21:42:44.967,0
2014-11-13 21:43:58.020,14545,484.8333,40.10425,-88.22172,231,-1,-1,10,165,1415935777,-0.6382446,-0.7611542,0.2048035,-26.80445,-18.19634,8.82312,62.85996,65.94315,10,-0.01264256,-0.04721145,-0.06176723,3.124,-1.880555,0.8435761,0.04305444,-0.02000752,-0.03867752,-0.002616667,0.005097181,-0.002209655,172.17.160.76,0.0.0.0,1,walking,0,2014-11-13 21:43:51.730,669,2014-11-13 21:42:44.967,0
2014-11-13 21:43:58.053,14546,484.8667,40.10425,-88.22172,231,-1,-1,10,165,1415935777,-0.6230621,-0.759079,0.1948547,-26.83892,-18.09299,8.655701,62.83275,65.91594,10,-0.03928855,-0.01420956,-0.05512477,3.127044,-1.881857,0.8449939,0.03034643,0.05217588,-0.04886558,-0.002547143,-0.0108067,-0.004112961,172.17.160.76,0.0.0.0,1,walking,0,2014-11-13 21:43:51.730,669,2014-11-13 21:42:44.967,0
2014-11-13 21:43:58.086,14547,484.9,40.10425,-88.22172,231,-1,-1,10,165,1415935777,-0.6051788,-0.7730865,0.203598,-27.08012,-17.50737,8.689178,62.78333,65.86652,10,-0.03618623,-0.08210579,-0.04063318,3.127886,-1.881288,0.8461388,0.02178355,0.05119773,-0.03822578,0.008120312,-0.01035249,-0.007672715,172.17.160.76,0.0.0.0,1,walking,0,2014-11-13 21:43:51.730,669,2014-11-13 21:42:44.967,0
2014-11-13 21:43:58.120,14548,484.9333,40.10425,-88.22172,231,-1,-1,10,165,1415935777,-0.6258545,-0.7578125,0.2015533,-27.08012,-17.09398,8.890106,62.77452,65.85771,10,-0.0671524,-0.136259,-0.03761795,3.129854,-1.883554,0.8486179,0.01200131,-0.06757001,-0.006979372,0.008012641,-0.02529774,0.007719851,172.17.160.76,0.0.0.0,1,walking,0,2014-11-13 21:43:51.730,669,2014-11-13 21:42:44.967,0
2014-11-13 21:43:58.153,14549,484.9667,40.10425,-88.22172,231,-1,-1,10,165,1415935777,-0.6225891,-0.7588654,0.2161865,-26.66662,-17.02509,9.024078,62.77394,65.85713,10,-0.05959888,-0.09603572,-0.05760258,3.129952,-1.88517,0.8494634,-0.006083967,-0.07085276,-0.02073096,0.002166393,-0.006886332,-0.002651596,172.17.160.76,0.0.0.0,1,walking,0,2014-11-13 21:43:51.730,669,2014-11-13 21:42:44.967,0
2014-11-13 21:43:58.187,14550,485,40.10425,-88.22172,231,-1,-1,10,165,1415935777,-0.6289215,-0.7710114,0.2252502,-26.73553,-17.16288,9.15802,62.79118,65.87437,10,-0.04579119,-0.06610605,-0.03308259,3.13249,-1.888781,0.8513207,0.02481105,-0.001946962,-0.02038741,-0.007057259,-0.02386487,0.01997821,172.17.160.76,0.0.0.0,1,walking,0,2014-11-13 21:43:51.730,669,2014-11-13 21:42:44.967,0
2014-11-13 21:43:58.220,14551,485.0334,40.10425,-88.22172,231,-1,-1,10,165,1415935777,-0.6104126,-0.7653961,0.2118073,-26.66662,-17.36958,9.024078,62.79929,65.88248,10,-0.0607001,-0.05336336,-0.03508262,3.134272,-1.890534,0.8524474,-0.00182971,0.01401058,-0.01914592,0.008499237,-0.01465422,0.005765526,172.17.160.76,0.0.0.0,1,walking,0,2014-11-13 21:43:51.730,669,2014-11-13 21:42:44.967,0
2014-11-13 21:43:58.253,14552,485.0667,40.10425,-88.22172,231,-1,-1,10,165,1415935777,-0.616394,-0.7622528,0.2113953,-26.97673,-17.33512,9.258423,62.83413,65.91732,10,-0.05757302,-0.07554376,-0.01716594,3.13484,-1.890988,0.8533863,0.003467827,0.004507344,-0.01072729,0.01756063,-0.01322788,0.005170394,172.17.160.76,0.0.0.0,1,walking,0,2014-11-13 21:43:51.730,669,2014-11-13 21:42:44.967,0
2014-11-13 21:43:58.287,14553,485.1,40.10425,-88.22172,231,-1,-1,10,165,1415935777,-0.6174927,-0.7438812,0.2100372,-26.49432,-17.7485,9.258392,62.88513,65.96832,10,-0.0693868,-0.1317439,-0.002556901,3.135339,-1.893068,0.8539459,-0.005187735,-0.06224216,0.01442469,0.007222716,-0.002255297,0.004296525,172.17.160.76,0.0.0.0,1,walking,0,2014-11-13 21:43:51.730,669,2014-11-13 21:42:44.967,0
2014-11-13 21:43:58.320,14554,485.1334,40.10425,-88.22172,231,-1,-1,10,165,1415935777,-0.6281586,-0.7523651,0.2160645,-26.66662,-17.71406,9.358826,62.91166,65.99485,10,-0.0673082,-0.1007378,0.02307416,3.134849,-1.894711,0.8533242,-0.01173083,-0.05589295,0.02840007,0.001251204,0.01387664,0.001216581,172.17.160.76,0.0.0.0,1,walking,0,2014-11-13 21:43:51.730,669,2014-11-13 21:42:44.967,0
2014-11-13 21:43:58.353,14555,485.1667,40.10425,-88.22172,231,-1,-1,10,165,1415935777,-0.6286926,-0.7546844,0.2213135,-26.73553,-18.12744,9.358826,62.95529,66.03848,10,-0.06729063,-0.1071693,0.01560985,3.13385,-1.895647,0.8515056,-0.01068144,-0.03668773,0.03911366,-0.006299211,-0.001510937,0.004911081,172.17.160.76,0.0.0.0,1,walking,0,2014-11-13 21:43:51.730,669,2014-11-13 21:42:44.967,0
2014-11-13 21:43:58.387,14556,485.2,40.10425,-88.22172,231,-1,-1,10,165,1415935777,-0.6390381,-0.7599182,0.2128906,-26.32204,-17.78295,9.492798,63.02433,66.10752,10,-0.0715341,-0.1050899,0.0092678,3.133545,-1.896374,0.8507522,-0.006401249,-0.04205162,0.03270073,-0.003916582,-0.002907827,0.01039452,172.17.160.76,0.0.0.0,1,walking,0,2014-11-13 21:43:51.730,669,2014-11-13 21:42:44.967,0
2014-11-13 21:43:58.420,14557,485.2334,40.10425,-88.22172,231,-1,-1,10,165,1415935777,-0.633728,-0.7519836,0.2027588,-26.35649,-17.67961,9.593231,63.06252,66.14571,10,-0.06508739,-0.1062836,-0.007746337,3.132464,-1.897118,0.8495688,-0.008479934,-0.03899107,0.01574226,-0.01028087,-0.004848366,-0.006437722,172.17.160.76,0.0.0.0,1,walking,0,2014-11-13 21:43:51.730,669,2014-11-13 21:42:44.967,0
2014-11-13 21:43:58.453,14558,485.2667,40.10425,-88.22172,231,-1,-1,10,165,1415935777,-0.651123,-0.7420349,0.2091217,-26.08082,-17.47292,9.526306,63.14072,66.22391,10,-0.05657087,-0.08815969,0.0008090683,3.131796,-1.897501,0.8489965,0.006462635,-0.03478723,0.01040288,-0.01048912,0.006187181,-0.007044161,172.17.160.76,0.0.0.0,1,walking,0,2014-11-13 21:43:51.730,669,2014-11-13 21:42:44.967,0
2014-11-13 21:43:58.487,14559,485.3,40.10425,-88.22172,231,-1,-1,10,165,1415935777,-0.637085,-0.7486267,0.2122192,-26.83891,-17.8174,9.325348,63.16409,66.24728,10,-0.05536339,-0.02357324,-0.02963832,3.130498,-1.896338,0.8473266,-0.0008896269,0.02349304,-0.01154695,-0.01071955,0.002000543,0.001873567,172.17.160.76,0.0.0.0,1,walking,0,2014-11-13 21:43:51.730,669,2014-11-13 21:42:44.967,0
2014-11-13 21:43:58.520,14560,485.3333,40.10425,-88.22172,231,-1,-1,10,165,1415935777,-0.6304169,-0.7468872,0.2167969,-26.76998,-17.8174,8.789581,63.13831,66.2215,10,-0.04789855,-0.01187237,-0.02748169,3.130744,-1.895639,0.8472992,0.01085849,0.04791897,-0.01252278,-0.008568545,-0.0009625777,0.001191663,172.17.160.76,0.0.0.0,1,walking,0,2014-11-13 21:43:51.730,669,2014-11-13 21:42:44.967,0
2014-11-13 21:43:58.553,14561,485.3667,40.10425,-88.22172,231,-1,-1,10,165,1415935777,-0.6232452,-0.7598877,0.2187653,-27.01118,-17.78295,8.957031,63.07762,66.16081,10,-0.03194914,0.00525708,-0.009406019,3.132493,-1.894829,0.8470487,0.02789121,0.06926467,0.001325642,0.003254931,-0.001158971,0.007865581,172.17.160.76,0.0.0.0,1,walking,0,2014-11-13 21:43:51.730,669,2014-11-13 21:42:44.967,0
2014-11-13 21:43:58.587,14562,485.4,40.10425,-88.22172,231,-1,-1,10,165,1415935777,-0.6184082,-0.7611237,0.205368,-26.83889,-17.54182,8.856537,63.03759,66.12078,10,-0.04053358,-0.01376162,0.00432524,3.133039,-1.894623,0.8469729,0.02893919,0.07037421,0.007695953,0.003977967,-0.005008582,0.007351784,172.17.160.76,0.0.0.0,1,walking,0,2014-11-13 21:43:51.730,669,2014-11-13 21:42:44.967,0
2014-11-13 21:43:58.619,14563,485.4333,40.10425,-88.22172,231,-1,-1,10,165,1415935777,-0.6300049,-0.7636719,0.2050018,-27.28685,-17.71406,9.157928,63.02788,66.11107,10,-0.04696591,-0.08286745,-0.001321993,3.13402,-1.893745,0.8470486,0.007386226,-0.0009944258,0.009702869,0.009846248,-0.009520857,-0.00639177,172.17.160.76,0.0.0.0,1,walking,0,2014-11-13 21:43:51.730,669,2014-11-13 21:42:44.967,0
2014-11-13 21:43:58.653,14564,485.4667,40.10425,-88.22172,231,-1,-1,10,165,1415935777,-0.6483154,-0.7648163,0.2130585,-27.04564,-17.61072,8.454681,62.96888,66.05207,10,-0.05547445,-0.06055655,-0.002234126,3.134089,-1.894029,0.8471693,0.01375089,-0.0147632,0.01597298,-0.002185811,-0.01426271,-0.005305379,172.17.160.76,0.0.0.0,1,walking,0,2014-11-13 21:43:51.730,669,2014-11-13 21:42:44.967,0
2014-11-13 21:43:58.687,14565,485.5,40.10425,-88.22172,231,-1,-1,10,165,1415935777,-0.6313934,-0.7529755,0.2104187,-26.87334,-17.71406,8.421204,62.89221,65.9754,10,-0.08210526,-0.04569079,-0.005240568,3.13372,-1.893379,0.8465599,-0.01072724,0.01601654,0.009858249,-0.0168294,-0.01370498,0.005562573,172.17.160.76,0.0.0.0,1,walking,0,2014-11-13 21:43:51.730,669,2014-11-13 21:42:44.967,0
2014-11-13 21:43:58.720,14566,485.5334,40.10425,-88.22172,231,-1,-1,10,165,1415935777,-0.6305389,-0.7408905,0.214386,-26.42538,-17.61072,8.655609,62.87105,65.95424,10,-0.08000109,-0.05733253,0.001059139,3.133123,-1.892571,0.846427,-0.02139196,0.01922531,0.0120381,-0.006570892,-0.00860513,0.00393312,172.17.160.76,0.0.0.0,1,walking,0,2014-11-13 21:43:51.730,669,2014-11-13 21:42:44.967,0
2014-11-13 21:43:58.753,14567,485.5667,40.10425,-88.22172,231,-1,-1,10,165,1415935777,-0.6339111,-0.746582,0.2186737,-26.73551,-17.85185,8.756104,62.83814,65.92133,10,-0.07362629,-0.07325078,0.004135889,3.131938,-1.891613,0.8455386,-0.02037765,-0.004065885,0.02358933,-0.0008868487,0.01026084,0.007103288,172.17.160.76,0.0.0.0,1,walking,0,2014-11-13 21:43:51.730,669,2014-11-13 21:42:44.967,0
2014-11-13 21:43:58.787,14568,485.6,40.10425,-88.22172,231,-1,-1,10,165,1415935777,-0.6333923,-0.7462158,0.2148438,-26.73551,-17.57627,9.023987,62.80393,65.88712,10,-0.07682288,-0.05834879,0.007410778,3.131322,-1.891687,0.8446412,-0.01197237,4.441771e-05,0.02160462,-0.00202024,-0.002267082,0.008507769,172.17.160.76,0.0.0.0,1,walking,0,2014-11-13 21:43:51.730,669,2014-11-13 21:42:44.967,0
2014-11-13 21:43:58.820,14569,485.6334,40.10425,-88.22172,231,-1,-1,10,165,1415935777,-0.6345062,-0.7520599,0.2149963,-26.97672,-17.40403,8.655609,62.77425,65.85744,10,-0.07577998,-0.06787279,0.01266413,3.130181,-1.89077,0.8436676,-0.01519006,0.003288636,0.02906451,-0.001900613,-0.001235436,0.001029145,172.17.160.76,0.0.0.0,1,walking,0,2014-11-13 21:43:51.730,669,2014-11-13 21:42:44.967,0
2014-11-13 21:43:58.853,14570,485.6667,40.10425,-88.22172,231,-1,-1,10,165,1415935777,-0.6391602,-0.7455902,0.2118378,-27.08009,-17.30068,8.890015,62.73985,65.82304,10,-0.07899415,-0.08486483,0.01364817,3.129587,-1.890508,0.8431576,-0.01520666,-0.0105098,0.03111476,-0.003101744,-0.005312905,0.005957462,172.17.160.76,0.0.0.0,1,walking,0,2014-11-13 21:43:51.730,669,2014-11-13 21:42:44.967,0
2014-11-13 21:43:58.886,14571,485.7,40.10425,-88.22172,231,-1,-1,10,165,1415935777,-0.6448517,-0.745575,0.2142029,-27.149,-16.95619,8.756104,62.70766,65.79085,10,-0.08751307,-0.08914293,0.009411612,3.127805,-1.890334,0.842124,-0.02479712,-0.03074287,0.02467637,-0.008817917,-0.0003855507,0.004421145,172.17.160.76,0.0.0.0,1,walking,0,2014-11-13 21:43:51.730,669,2014-11-13 21:42:44.967,0
2014-11-13 21:43:58.920,14572,485.7334,40.10425,-88.22172,231,-1,-1,10,165,1415935777,-0.64328,-0.7428894,0.2141876,-27.11455,-17.26624,8.990509,62.69702,65.78021,10,-0.08215479,-0.06047133,0.007419567,3.126285,-1.889754,0.8411924,-0.0301062,-0.007371425,0.02375977,-0.01229409,0.001221579,0.005745274,172.17.160.76,0.0.0.0,1,walking,0,2014-11-13 21:43:51.730,669,2014-11-13 21:42:44.967,0
2014-11-13 21:43:58.953,14573,485.7667,40.10425,-88.22172,231,-1,-1,10,165,1415935777,-0.6376953,-0.7343445,0.2150421,-26.73551,-16.95619,8.890015,62.67757,65.76076,10,-0.08111749,-0.04762478,0.02022112,3.124703,-1.88847,0.839787,-0.02067883,0.01383029,0.03250694,-0.0092464,0.004937951,0.006612396,172.17.160.76,0.0.0.0,1,walking,0,2014-11-13 21:43:51.730,669,2014-11-13 21:42:44.967,0
2014-11-13 21:43:58.987,14574,485.8,40.10425,-88.22172,231,-1,-1,10,165,1415935777,-0.6277008,-0.7344513,0.2120361,-26.63213,-16.92174,8.789581,62.66051,65.74371,10,-0.08434124,-0.06033445,0.02547367,3.123909,-1.887633,0.8388747,-0.02069164,0.01705736,0.03783268,-0.002659082,0.009547063,0.006825029,172.17.160.76,0.0.0.0,1,walking,0,2014-11-13 21:43:51.730,669,2014-11-13 21:42:44.967,0
2014-11-13 21:43:59.020,14575,485.8333,40.10425,-88.22172,231,-1,-1,10,165,1415935777,-0.6377106,-0.7442627,0.2109375,-26.63213,-16.85284,8.454712,62.62888,65.71207,10,-0.08332632,-0.1027911,0.03161518,3.122276,-1.886727,0.8373981,-0.02713771,-0.01262262,0.04725368,0.006522366,0.00628591,0.004877072,172.17.160.76,0.0.0.0,1,walking,0,2014-11-13 21:43:51.730,669,2014-11-13 21:42:44.967,0
2014-11-13 21:43:59.054,14576,485.8667,40.10425,-88.22172,231,-1,-1,10,165,1415935777,-0.647583,-0.7292328,0.213623,-26.94228,-16.95619,8.622131,62.53744,65.62063,10,-0.09183405,-0.104968,0.0242052,3.12121,-1.886539,0.8365982,-0.02289906,-0.03811163,0.04922649,-0.0008388642,-0.001894499,0.002889693,172.17.160.76,0.0.0.0,1,walking,0,2014-11-13 21:43:51.730,669,2014-11-13 21:42:44.967,0
2014-11-13 21:43:59.087,14577,485.9,40.10425,-88.22172,231,-1,-1,10,165,1415935777,-0.6530762,-0.7431793,0.2189484,-26.97673,-17.47292,8.454712,62.42102,65.50421,10,-0.06294008,-0.06054484,-0.001144627,3.118373,-1.886636,0.834033,-0.01120875,-0.009752641,0.01762481,-0.01469129,-0.0007164042,0.007806604,172.17.160.76,0.0.0.0,1,walking,0,2014-11-13 21:43:51.730,669,2014-11-13 21:42:44.967,0
2014-11-13 21:43:59.120,14578,485.9333,40.10425,-88.22172,231,-1,-1,10,165,1415935777,-0.6531219,-0.7459259,0.2166748,-27.08011,-17.23177,8.555176,62.37103,65.45422,10,-0.06398457,-0.04037086,-0.003157444,3.11833,-1.886647,0.8337154,-0.002666248,0.004048554,0.01660466,-0.01419547,-0.002745588,0.01016778,172.17.160.76,0.0.0.0,1,walking,0,2014-11-13 21:43:51.730,669,2014-11-13 21:42:44.967,0
2014-11-13 21:43:59.153,14579,485.9667,40.10425,-88.22172,231,-1,-1,10,165,1415935777,-0.6387787,-0.7409515,0.2048187,-26.70107,-17.40401,8.856537,62.29975,65.38294,10,-0.06074883,-0.03727254,-0.01482955,3.118041,-1.885339,0.8328689,-0.00472623,0.0304855,-0.0002303477,-0.0004333656,-0.003894653,0.0002509389,172.17.160.76,0.0.0.0,1,walking,0,2014-11-13 21:43:51.730,669,2014-11-13 21:42:44.967,0
2014-11-13 21:43:59.187,14580,486,40.10425,-88.22172,231,-1,-1,10,165,1415935777,-0.6437225,-0.731308,0.207016,-27.0801,-17.23177,9.023987,62.26283,65.34602,10,-0.06719235,-0.07015406,-0.007548198,3.117761,-1.884489,0.8328949,-0.005837864,0.005047359,0.008131057,0.002074889,0.001142955,-0.006004735,172.17.160.76,0.0.0.0,1,walking,0,2014-11-13 21:43:51.730,669,2014-11-13 21:42:44.967,0
2014-11-13 21:43:59.220,14581,486.0334,40.10425,-88.22172,231,-1,-1,10,165,1415935777,-0.6458282,-0.7338104,0.2071228,-26.76998,-17.33512,8.990509,62.24921,65.3324,10,-0.06610312,-0.05637273,-0.01172563,3.117172,-1.884097,0.8323047,-0.004787311,-0.002367288,0.01127406,-0.0019603,0.009366959,-0.002745117,172.17.160.76,0.0.0.0,1,walking,0,2014-11-13 21:43:51.730,669,2014-11-13 21:42:44.967,0
2014-11-13 21:43:59.252,14582,486.0667,40.10425,-88.22172,231,-1,-1,10,165,1415935777,-0.6476898,-0.7347717,0.2088318,-27.04564,-17.05953,8.856537,62.19806,65.28125,10,-0.06505623,-0.04780854,-0.003192598,3.11681,-1.883048,0.8318328,-0.002786385,0.02726049,0.005155393,-0.004401762,0.003739187,0.002717682,172.17.160.76,0.0.0.0,1,walking,0,2014-11-13 21:43:51.730,669,2014-11-13 21:42:44.967,0
2014-11-13 21:43:59.286,14583,486.1,40.10425,-88.22172,231,-1,-1,10,165,1415935777,-0.6468964,-0.7400208,0.2146912,-26.73551,-17.30067,9.024017,62.16953,65.25272,10,-0.06509059,-0.05943323,0.005238172,3.116503,-1.882341,0.8311183,-0.003913543,0.009316051,0.02098879,-0.007232042,0.002082845,0.006060991,172.17.160.76,0.0.0.0,1,walking,0,2014-11-13 21:43:51.730,669,2014-11-13 21:42:44.967,0
2014-11-13 21:43:59.320,14584,486.1334,40.10425,-88.22172,231,-1,-1,10,165,1415935777,-0.6489258,-0.7452393,0.2111816,-26.90781,-17.33511,9.124481,62.16373,65.24692,10,-0.06187482,-0.07438315,-0.004405934,3.116513,-1.882585,0.8301994,0.000346431,-0.006642755,0.0187668,-0.003142482,-0.005006596,0.0108383,172.17.160.76,0.0.0.0,1,walking,0,2014-11-13 21:43:51.730,669,2014-11-13 21:42:44.967,0
2014-11-13 21:43:59.353,14585,486.1667,40.10425,-88.22172,231,-1,-1,10,165,1415935777,-0.6539154,-0.7322235,0.2102356,-26.94228,-17.71405,8.890106,62.12465,65.20784,10,-0.06183807,-0.05531226,-0.01173602,3.116405,-1.88284,0.8297294,-0.00389848,-0.01094776,0.01132977,-0.008602423,-0.003126534,0.002649062,172.17.160.76,0.0.0.0,1,walking,0,2014-11-13 21:43:51.730,669,2014-11-13 21:42:44.967,0
2014-11-13 21:43:59.387,14586,486.2,40.10425,-88.22172,231,-1,-1,10,165,1415935777,-0.6408691,-0.7377625,0.20961,-26.94227,-17.78294,8.287323,62.02696,65.11015,10,-0.05434207,-0.01494513,-0.012613,3.116118,-1.882363,0.8289739,0.002542886,0.0230043,0.005118109,-0.01081155,0.005014956,0.003119999,172.17.160.76,0.0.0.0,1,walking,0,2014-11-13 21:43:51.730,669,2014-11-13 21:42:44.967,0
2014-11-13 21:43:59.420,14587,486.2334,40.10425,-88.22172,231,-1,-1,10,165,1415935777,-0.6305389,-0.7317505,0.202652,-27.11456,-17.7485,8.588715,61.98385,65.06704,10,-0.05860233,-0.03518036,-0.01907249,3.116629,-1.880597,0.8287109,0.001329416,0.04308772,0.001161154,0.01261083,0.004623665,0.001832153,172.17.160.76,0.0.0.0,1,walking,0,2014-11-13 21:43:51.730,669,2014-11-13 21:42:44.967,0
2014-11-13 21:43:59.453,14588,486.2667,40.10425,-88.22172,231,-1,-1,10,165,1415935777,-0.6347809,-0.7236633,0.204422,-27.11456,-17.47291,8.789612,61.91933,65.00252,10,-0.06394223,-0.06922089,-0.02453917,3.116667,-1.880089,0.8290268,-0.005084131,0.003742036,-0.003269358,0.01293613,0.008636502,-0.001142266,172.17.160.76,0.0.0.0,1,walking,0,2014-11-13 21:43:51.730,669,2014-11-13 21:42:44.967,0
2014-11-13 21:43:59.487,14589,486.3,40.10425,-88.22172,231,-1,-1,10,165,1415935777,-0.6348572,-0.7215729,0.201767,-27.14902,-16.81839,9.091003,61.89386,64.97705,10,-0.05960847,-0.09175336,-0.05333406,3.116933,-1.880639,0.829342,0.0002934743,-0.01873581,-0.02463735,0.009473545,0.01402217,-0.001394617,172.17.160.76,0.0.0.0,1,walking,0,2014-11-13 21:43:51.730,669,2014-11-13 21:42:44.967,0
2014-11-13 21:43:59.520,14590,486.3333,40.10425,-88.22172,231,-1,-1,10,165,1415935777,-0.6219177,-0.6908264,0.1896057,-26.90781,-16.78394,8.990509,61.88316,64.96635,10,-0.07433601,-0.127371,-0.1277702,3.117522,-1.881959,0.830409,0.001465527,-0.03922947,-0.06508496,0.009031435,0.02185301,-0.005908765,172.17.160.76,0.0.0.0,1,walking,0,2014-11-13 21:43:51.730,669,2014-11-13 21:42:44.967,0
2014-11-13 21:43:59.553,14591,486.3667,40.10425,-88.22172,231,-1,-1,10,165,1415935777,-0.610199,-0.6639099,0.1928864,-26.80444,-17.02509,9.358826,61.9097,64.99289,10,-0.06984247,-0.1673365,-0.2139775,3.118109,-1.884743,0.8341368,-0.02601036,-0.09943871,-0.1608278,0.02023649,0.06072422,-0.02022637,172.17.160.76,0.0.0.0,1,walking,0,2014-11-13 21:43:51.730,669,2014-11-13 21:42:44.967,0
2014-11-13 21:43:59.587,14592,486.4,40.10425,-88.22172,231,-1,-1,10,165,1415935777,-0.5864258,-0.6825867,0.1831512,-26.45985,-17.85185,9.693665,65.19834,68.28153,10,-0.03238804,-0.1315144,-0.2521425,3.120039,-1.889069,0.8392139,0.0123585,-0.0860318,-0.2042754,0.03023359,0.08013199,-0.007908392,172.17.160.76,0.0.0.0,1,walking,0,2014-11-13 21:43:51.730,669,2014-11-13 21:42:44.967,0
2014-11-13 21:43:59.620,14593,486.4333,40.10425,-88.22172,231,-1,-1,10,165,1415935777,-0.5922394,-0.7179718,0.1473389,-26.42539,-17.7485,9.459259,64.46509,67.54828,10,-0.07820559,-0.1602935,-0.2669832,3.123144,-1.892866,0.8429803,0.02738784,-0.06713698,-0.2339527,0.04460967,0.06404239,-0.02741778,172.17.160.76,0.0.0.0,1,walking,0,2014-11-13 21:43:51.730,669,2014-11-13 21:42:44.967,0
2014-11-13 21:43:59.653,14594,486.4667,40.10425,-88.22172,231,-1,-1,10,165,1415935777,-0.5096893,-0.6246185,0.3075714,-26.08081,-18.16188,9.191406,63.54095,66.62414,10,-0.01115891,-0.1179903,-0.5716568,3.125475,-1.901391,0.8596484,-0.02210003,-0.1655404,-0.4646283,0.04843571,0.09702963,0.01408097,172.17.160.76,0.0.0.0,1,walking,0,2014-11-13 21:43:51.730,669,2014-11-13 21:42:44.967,0
2014-11-13 21:43:59.687,14595,486.5,40.10425,-88.22172,231,-1,-1,10,165,1415935777,-0.4227905,-0.7306519,0.2346649,-25.80515,-18.36856,9.727203,66.71333,69.79652,10,0.09137332,-0.2739482,-0.6747643,-3.139398,-1.913738,0.8815966,0.1470861,0.02945416,-0.6637937,0.160047,0.08680342,0.03926355,172.17.160.76,0.0.0.0,1,walking,0,2014-11-13 21:43:51.730,669,2014-11-13 21:42:44.967,0
2014-11-13 21:43:59.720,14596,486.5334,40.10425,-88.22172,231,-1,-1,10,165,1415935777,-0.4257507,-0.7996216,0.2360992,-25.46056,-18.85085,10.39694,70.62624,73.70943,10,0.08601185,-0.6262498,-0.7540876,-3.127609,-1.928125,0.8930582,0.1595934,-0.4265522,-0.6853486,0.1657187,0.01976144,0.04806086,172.17.160.76,0.0.0.0,1,walking,0,2014-11-13 21:43:51.730,669,2014-11-13 21:42:44.967,0
2014-11-13 21:43:59.753,14597,486.5667,40.10425,-88.22172,231,-1,-1,10,165,1415935777,-0.4550171,-0.8494873,0.169342,-25.11597,-19.33313,11.53546,75.22747,78.31066,10,-0.2727934,-1.209015,-0.6995544,-3.105877,-1.975335,0.9198858,-0.08180945,-1.017541,-0.7214106,0.1154609,-0.01783736,-0.02785093,172.17.160.76,0.0.0.0,1,walking,0,2014-11-13 21:43:51.730,669,2014-11-13 21:42:44.967,0
2014-11-13 21:43:59.787,14598,486.6,40.10425,-88.22172,231,-1,-1,10,165,1415935777,-0.3442078,-1.073471,-0.03956604,-24.35789,-19.88432,12.27219,78.75567,81.83886,10,-0.696059,-1.302393,-0.709076,-3.106245,-2.010453,0.942207,-0.4787116,-1.229447,-0.6658437,0.07918788,-0.1062423,-0.130383,172.17.160.76,0.0.0.0,1,walking,0,2014-11-13 21:43:51.730,669,2014-11-13 21:42:44.967,0
2014-11-13 21:43:59.820,14599,486.6334,40.10425,-88.22172,231,-1,-1,10,165,1415935777,-0.1492157,-1.106461,-0.04083252,-23.01402,-20.60773,13.44424,85.27467,88.35786,10,-1.241626,-1.777574,-0.9133399,-3.123992,-2.03422,0.9715866,-0.9016211,-1.351395,-0.800772,0.1602967,-0.2476895,-0.2916772,172.17.160.76,0.0.0.0,1,walking,0,2014-11-13 21:43:51.730,669,2014-11-13 21:42:44.967,0
2014-11-13 21:43:59.854,14600,486.6667,40.10425,-88.22172,231,-1,-1,10,165,1415935777,0.07641602,-1.181152,0.04522705,-20.98098,-21.40003,14.48236,95.24409,98.32729,10,-2.050137,-2.947142,-1.064017,3.108052,-2.063004,1.026488,-1.562761,-2.22891,-0.9621397,0.3797264,-0.2921124,-0.2552999,172.17.160.76,0.0.0.0,1,walking,0,2014-11-13 21:43:51.730,669,2014-11-13 21:42:44.967,0
2014-11-13 21:43:59.887,14601,486.7,40.10425,-88.22172,231,-1,-1,10,165,1415935777,0.2207489,-1.332123,0.1352539,-20.29182,-22.089,14.68329,98.72205,101.8052,10,-2.432268,-3.710131,-1.097387,3.035208,-2.083727,1.081673,-2.19107,-3.243229,-1.086137,0.5325254,-0.2949282,-0.1825218,172.17.160.76,0.0.0.0,1,walking,0,2014-11-13 21:43:51.730,669,2014-11-13 21:42:44.967,0
2014-11-13 21:43:59.920,14602,486.7334,40.10425,-88.22172,231,-1,-1,10,165,1415935777,0.3018494,-1.433487,0.176712,-18.25877,-23.77696,15.05161,107.7729,110.8561,10,-3.417505,-5.210233,-0.7046032,2.918262,-2.096039,1.146117,-2.869456,-4.342228,-0.8877031,0.5988741,-0.5015031,-0.04545246,172.17.160.76,0.0.0.0,1,walking,0,2014-11-13 21:43:51.730,669,2014-11-13 21:42:44.967,0
2014-11-13 21:43:59.953,14603,486.7667,40.10425,-88.22172,231,-1,-1,10,165,1415935777,0.2279358,-1.549118,0.4959259,-14.91631,-26.29169,14.48236,121.5543,124.6375,10,-3.97139,-6.674406,-0.1699451,2.627667,-2.037946,1.233939,-3.752932,-6.181599,-0.3888156,0.5670813,-0.50922,0.1118939,172.17.160.76,0.0.0.0,1,walking,0,2014-11-13 21:43:51.730,669,2014-11-13 21:42:44.967,0
2014-11-13 21:43:59.987,14604,486.8,40.10425,-88.22172,231,-1,-1,10,165,1415935777,0.2806854,-1.525742,0.7124329,-12.74545,-27.70407,14.18097,131.3123,134.3955,10,-4.528766,-7.054085,0.7377098,2.112558,-1.818786,1.286255,-4.338642,-6.979179,0.6165238,0.5341988,-0.6292596,0.598455,172.17.160.76,0.0.0.0,1,walking,0,2014-11-13 21:43:51.730,669,2014-11-13 21:42:44.967,0
2014-11-13 21:44:00.020,14605,486.8333,40.10425,-88.22172,231,-1,-1,10,165,1415935777,0.2603302,-1.366302,0.6277008,-9.368538,-30.25326,12.10477,149.4309,152.5141,10,-4.626058,-7.118807,1.167633,1.626737,-1.562767,1.277342,-4.566864,-7.024094,0.987599,0.5654203,-0.4323676,0.6946444,172.17.160.76,0.0.0.0,1,walking,0,2014-11-13 21:43:51.730,669,2014-11-13 21:42:44.967,0
2014-11-13 21:44:00.053,14606,486.8667,40.10425,-88.22172,231,-1,-1,10,165,1415935777,0.1753235,-1.272308,0.6114807,-7.611164,-32.07903,9.258331,164.7332,167.8164,10,-4.428606,-7.693823,2.00456,1.208422,-1.379904,1.221329,-4.469075,-7.347056,1.70734,0.5933038,-0.3774156,0.6764914,172.17.160.76,0.0.0.0,1,walking,0,2014-11-13 21:43:51.730,669,2014-11-13 21:42:44.967,0
2014-11-13 21:44:00.086,14607,486.9,40.10425,-88.22172,231,-1,-1,10,165,1415935777,-0.0433197,-1.055862,0.749115,-7.266579,-32.28572,7.583954,171.3399,174.4231,10,-3.948498,-8.458315,3.096308,0.9197808,-1.349399,1.126088,-4.092405,-8.247692,2.774345,0.5256057,-0.3237959,0.744538,172.17.160.76,0.0.0.0,1,walking,0,2014-11-13 21:43:51.730,669,2014-11-13 21:42:44.967,0
2014-11-13 21:44:00.119,14608,486.9333,40.10425,-88.22172,231,-1,-1,10,165,1415935777,-0.2093201,-0.9222107,0.7812195,-8.196953,-32.32016,5.005432,183.0899,186.1731,10,-2.771374,-7.860539,3.534502,0.7285322,-1.432231,1.009041,-3.41016,-8.260715,3.48716,0.4305519,-0.1561507,0.8409081,172.17.160.76,0.0.0.0,1,walking,0,2014-11-13 21:43:51.730,669,2014-11-13 21:42:44.967,0
2014-11-13 21:44:00.153,14609,486.9667,40.10425,-88.22172,231,-1,-1,10,165,1415935777,-0.408905,-0.8149109,0.6979065,-10.81578,-31.21782,4.268768,192.1653,195.2485,10,-1.62743,-6.234554,3.218213,0.5634233,-1.606547,0.8614677,-2.050109,-7.110486,3.502985,0.3245685,-0.1178333,0.7348375,172.17.160.76,0.0.0.0,1,walking,0,2014-11-13 21:43:51.730,669,2014-11-13 21:42:44.967,0
2014-11-13 21:44:00.187,14610,487,40.10425,-88.22172,231,-1,-1,10,165,1415935777,-0.4037476,-0.5639191,0.6812286,-12.46978,-30.45995,4.737579,195.9863,199.0695,10,-0.7918361,-4.776514,2.592242,0.4786866,-1.733431,0.7687471,-1.305575,-5.647031,3.025991,0.3171617,0.002928718,0.5585579,172.17.160.76,0.0.0.0,1,walking,0,2014-11-13 21:43:51.730,669,2014-11-13 21:42:44.967,0
2014-11-13 21:44:00.220,14611,487.0334,40.10425,-88.22172,231,-1,-1,10,165,1415935777,-0.5385132,-0.5776825,0.629303,-14.95078,-29.15092,6.545868,201.97,205.0532,10,-0.3771201,-4.106603,2.402089,0.4385978,-1.807225,0.7184495,-0.7322009,-4.712188,2.610543,0.3281365,0.09429917,0.5048926,172.17.160.76,0.0.0.0,1,walking,0,2014-11-13 21:43:51.730,669,2014-11-13 21:42:44.967,0
2014-11-13 21:44:00.254,14612,487.0667,40.10425,-88.22172,231,-1,-1,10,165,1415935777,-0.6104279,-0.4987793,0.6373749,-16.22574,-27.53185,8.722595,205.543,208.6262,10,-0.3510755,-3.649457,2.012712,0.3836075,-1.934389,0.6301764,-0.3233792,-3.710311,2.338302,0.1768741,-2.242688e-05,0.3123454,172.17.160.76,0.0.0.0,1,walking,0,2014-11-13 21:43:51.730,669,2014-11-13 21:42:44.967,0
2014-11-13 21:44:00.287,14613,487.1,40.10425,-88.22172,231,-1,-1,10,165,1415935777,-0.5731964,-0.2755737,0.8224792,-16.32912,-26.67063,9.492798,207.0104,210.0936,10,0.3335873,-2.759897,1.093466,0.3356552,-2.04836,0.562711,-0.00074279,-3.267191,1.515717,0.1627249,0.1812015,0.3313888,172.17.160.76,0.0.0.0,1,walking,0,2014-11-13 21:43:51.730,669,2014-11-13 21:42:44.967,0
2014-11-13 21:44:00.320,14614,487.1334,40.10425,-88.22172,231,-1,-1,10,165,1415935777,-0.4934692,-0.1506805,0.994339,-16.2602,-25.15491,11.90387,209.2598,212.343,10,0.755219,-2.084899,0.7324148,0.3259258,-2.126155,0.5272303,0.5997384,-2.352662,0.9440228,0.1733497,0.2689345,0.423775,172.17.160.76,0.0.0.0,1,walking,0,2014-11-13 21:43:51.730,669,2014-11-13 21:42:44.967,0
2014-11-13 21:44:00.353,14615,487.1667,40.10425,-88.22172,231,-1,-1,10,165,1415935777,-0.381485,-0.1469574,1.205872,-15.81225,-23.53584,14.54938,207.3715,210.4547,10,1.433602,-1.585264,0.3822166,0.3420961,-2.189614,0.4948311,1.278712,-1.607518,0.4603069,0.2514026,0.3264303,0.5143489,172.17.160.76,0.0.0.0,1,walking,0,2014-11-13 21:43:51.730,669,2014-11-13 21:42:44.967,0
2014-11-13 21:44:00.386,14616,487.2,40.10425,-88.22172,231,-1,-1,10,165,1415935777,-0.3505707,-0.03878784,1.454346,-15.60549,-22.91576,16.08978,207.5821,210.6653,10,2.262287,-1.554095,-0.08352845,0.3958132,-2.271894,0.4425424,2.113643,-1.37477,0.09537907,0.3408516,0.3301091,0.7366334,172.17.160.76,0.0.0.0,1,walking,0,2014-11-13 21:43:51.730,669,2014-11-13 21:42:44.967,0
2014-11-13 21:44:00.420,14617,487.2334,40.10425,-88.22172,231,-1,-1,10,165,1415935777,-0.3229065,-0.1729279,1.568024,-14.39945,-21.0211,19.13718,202.5267,205.6099,10,2.793238,-2.635585,-0.02433836,0.4360451,-2.319904,0.412219,2.533031,-1.759298,-0.1449268,0.3203846,0.3618556,0.8304034,172.17.160.76,0.0.0.0,1,walking,0,2014-11-13 21:43:51.730,669,2014-11-13 21:42:44.967,0
2014-11-13 21:44:00.454,14618,487.2667,40.10425,-88.22172,231,-1,-1,10,165,1415935777,-0.3422394,-0.1324463,1.80954,-11.98738,-18.7475,23.22266,193.8389,196.9221,10,3.477012,-5.213312,0.5889858,0.531295,-2.50453,0.2974406,3.17569,-4.217323,0.699523,0.2178565,0.1001726,0.9441732,172.17.160.76,0.0.0.0,1,walking,0,2014-11-13 21:43:51.730,669,2014-11-13 21:42:44.967,0
2014-11-13 21:44:00.487,14619,487.3,40.10425,-88.22172,231,-1,-1,10,165,1415935777,-0.2605133,-0.2863159,2.051804,-9.919888,-17.23177,25.63373,148.3419,151.425,10,3.959522,-5.465892,-0.04573287,0.5722979,-2.664981,0.1988815,3.695848,-5.436347,0.414109,0.1666166,0.008623384,1.018533,172.17.160.76,0.0.0.0,1,walking,0,2014-11-13 21:43:51.730,669,2014-11-13 21:42:44.967,0
2014-11-13 21:44:00.520,14620,487.3333,40.10425,-88.22172,231,-1,-1,10,165,1415935777,-0.3389435,-0.4754791,2.095047,-4.682232,-12.89128,29.78619,137.7757,140.8589,10,4.105511,-4.61148,-0.8686747,0.6172673,-2.833055,0.08844641,4.089339,-5.139813,-0.2566596,0.03490048,-0.2526112,1.176846,172.17.160.76,0.0.0.0,1,walking,0,2014-11-13 21:43:51.730,669,2014-11-13 21:42:44.967,0
2014-11-13 21:44:00.553,14621,487.3667,40.10425,-88.22172,231,-1,-1,10,165,1415935777,-0.009887695,-0.486496,1.860321,1.45134,-7.792908,32.66611,129.907,132.9902,10,4.237837,-3.411556,-1.668516,0.6691853,-2.973136,-0.02786302,4.249453,-4.22965,-1.153665,-0.1303019,-0.5278441,1.013927,172.17.160.76,0.0.0.0,1,walking,0,2014-11-13 21:43:51.730,669,2014-11-13 21:42:44.967,0
2014-11-13 21:44:00.586,14622,487.4,40.10425,-88.22172,231,-1,-1,10,165,1415935777,0.1260223,-0.5279846,1.658203,4.207996,-4.899246,33.46982,131.5377,134.6208,10,4.23721,-2.508815,-2.291096,0.7320259,-3.071352,-0.1503156,4.301885,-2.837148,-1.924595,0.05950353,-0.6362462,0.8740352,172.17.160.76,0.0.0.0,1,walking,0,2014-11-13 21:43:51.730,669,2014-11-13 21:42:44.967,0
2014-11-13 21:44:00.620,14623,487.4333,40.10425,-88.22172,231,-1,-1,10,165,1415935777,0.4648438,-0.4927368,1.567459,8.790951,1.680397,33.97214,126.4986,129.5818,10,4.109001,-3.164376,-2.717599,0.8321664,3.132871,-0.3186603,4.217485,-2.757882,-2.551197,0.2417326,-0.8214428,0.7264513,172.17.160.76,0.0.0.0,1,walking,0,2014-11-13 21:43:51.730,669,2014-11-13 21:42:44.967,0
2014-11-13 21:44:00.654,14624,487.4667,40.10425,-88.22172,231,-1,-1,10,165,1415935777,0.582077,-0.3980255,1.665253,12.58136,8.156693,33.23541,117.9278,121.011,10,4.057381,-4.294366,-3.209515,0.9174433,3.062957,-0.4469801,4.145505,-3.878019,-3.005833,0.4784488,-0.8927088,0.6546037,172.17.160.76,0.0.0.0,1,walking,0,2014-11-13 21:43:51.730,669,2014-11-13 21:42:44.967,0
2014-11-13 21:44:00.687,14625,487.5,40.10425,-88.22172,231,-1,-1,10,165,1415935777,0.8732758,-0.4593964,1.640121,14.09753,11.53264,31.76199,117.8264,120.9096,10,3.532731,-4.881402,-4.015245,1.050524,2.951188,-0.6240655,3.795272,-4.781351,-3.754439,0.4914512,-0.9913827,0.8956765,172.17.160.76,0.0.0.0,1,walking,0,2014-11-13 21:43:51.730,669,2014-11-13 21:42:44.967,0
2014-11-13 21:44:00.720,14626,487.5334,40.10425,-88.22172,231,-1,-1,10,165,1415935777,1.449417,-0.6213531,1.508026,17.06094,17.31997,27.81049,110.1277,113.2109,10,2.705407,-5.240154,-5.144515,1.181445,2.889633,-0.7523466,3.120768,-4.853134,-4.581309,0.8313086,-1.171193,0.8847005,172.17.160.76,0.0.0.0,1,walking,0,2014-11-13 21:43:51.730,669,2014-11-13 21:42:44.967,0
2014-11-13 21:44:00.753,14627,487.5667,40.10425,-88.22172,231,-1,-1,10,165,1415935777,1.348816,-1.16452,1.241379,17.57782,22.86616,22.55295,229.8387,232.9219,10,2.040633,-6.009591,-6.19376,1.363218,2.866868,-0.8729085,2.57059,-5.630866,-5.454821,1.275091,-1.387554,0.8895229,172.17.160.76,0.0.0.0,1,walking,0,2014-11-13 21:43:51.730,669,2014-11-13 21:42:44.967,0
2014-11-13 21:44:00.787,14628,487.6,40.10425,-88.22172,231,-1,-1,10,165,1415935777,0.5635223,-1.29213,0.5656891,16.78527,25.44978,20.04138,242.8088,245.892,10,0.7052141,-3.718823,-7.845346,1.751031,2.95217,-1.011979,1.398598,-5.298164,-7.056685,0.8874143,-2.08029,0.4775755,172.17.160.76,0.0.0.0,1,walking,0,2014-11-13 21:43:51.730,669,2014-11-13 21:42:44.967,0
2014-11-13 21:44:00.819,14629,487.6334,40.10425,-88.22172,231,-1,-1,10,165,1415935777,0.1300201,-1.568939,0.3572998,11.44424,29.27355,16.7261,242.3397,245.4229,10,0.1457138,-1.874593,-8.494843,2.039239,3.112093,-1.048767,0.7646837,-3.654569,-7.826907,0.5488148,-2.158938,0.06726547,172.17.160.76,0.0.0.0,1,walking,0,2014-11-13 21:43:51.730,669,2014-11-13 21:42:44.967,0
2014-11-13 21:44:00.853,14630,487.6667,40.10425,-88.22172,231,-1,-1,10,165,1415935777,-1.090942,-2.584976,0.7805939,2.829674,30.65149,15.25272,250.6457,253.7289,10,-0.3033634,-0.3742301,-9.083936,2.825021,-2.576889,-0.9374767,-0.2405243,-0.4818075,-9.166194,0.04348463,-2.864981,0.06966907,172.17.160.76,0.0.0.0,1,walking,0,2014-11-13 21:43:51.730,669,2014-11-13 21:42:44.967,0
2014-11-13 21:44:00.887,14631,487.7,40.10425,-88.22172,231,-1,-1,10,165,1415935777,-2.650787,-1.55246,0.5966949,-2.201237,29.89363,15.65457,260.6717,263.7549,10,-0.4470087,-2.099453,-5.371989,-3.097714,-2.336495,-0.7219177,-0.245478,-1.57553,-6.38873,-1.782271,-2.587263,0.1423512,172.17.160.76,0.0.0.0,1,walking,0,2014-11-13 21:43:51.730,669,2014-11-13 21:42:44.967,0
2014-11-13 21:44:00.920,14632,487.7334,40.10425,-88.22172,231,-1,-1,10,165,1415935777,-2.968353,-0.08598328,0.4273071,-10.54014,27.27555,17.46289,281.5239,284.6071,10,-0.9954241,-1.84891,-4.447249,-2.982928,-2.32936,-0.6017842,-0.8252922,-2.174903,-4.45994,-2.274257,-1.355467,-0.2974302,172.17.160.76,0.0.0.0,1,walking,0,2014-11-13 21:43:51.730,669,2014-11-13 21:42:44.967,0
2014-11-13 21:44:00.953,14633,487.7667,40.10425,-88.22172,231,-1,-1,10,165,1415935777,-2.630707,0.9134064,1.971466,-15.84671,23.69291,19.94098,290.0078,293.091,10,-1.179196,0.09881819,-4.168811,-2.904614,-2.326725,-0.4854817,-1.301458,-0.59997,-4.178124,-2.261991,-0.3552911,-0.1897398,172.17.160.76,0.0.0.0,1,walking,0,2014-11-13 21:43:51.730,669,2014-11-13 21:42:44.967,0
2014-11-13 21:44:00.987,14634,487.8,40.10425,-88.22172,231,-1,-1,10,165,1415935777,-1.837265,1.192337,2.031754,-18.22433,21.93604,20.57724,293.5381,296.6212,10,0.1687658,7.855791,-3.057729,-2.833341,-2.237981,-0.3858276,0.09201723,5.207449,-3.455367,-1.735699,0.7870651,2.116912,172.17.160.76,0.0.0.0,1,walking,0,2014-11-13 21:43:51.730,669,2014-11-13 21:42:44.967,0
2014-11-13 21:44:01.020,14635,487.8334,40.10425,-88.22172,231,-1,-1,10,165,1415935777,3.640259,1.638702,3.752594,-23.35861,16.80323,16.25735,303.6304,306.7136,10,-1.902031,20.59379,-9.537549,-2.796462,-1.951891,-0.2920222,-2.459386,11.25481,-4.276953,-0.4707823,0.9850445,0.569545,172.17.160.76,0.0.0.0,1,walking,0,2014-11-13 21:43:51.730,669,2014-11-13 21:42:44.967,0
2014-11-13 21:44:01.053,14636,487.8667,40.10425,-88.22172,231,-1,-1,10,165,1415935777,2.524521,0.2111511,0.8975067,-23.90995,8.260033,-0.2853699,320.3453,323.4285,10,3.30679,28.11885,-10.48019,-2.820812,-1.371904,-0.01835311,2.523826,27.65447,-11.57381,4.62038,1.62035,3.950144,172.17.160.76,0.0.0.0,1,walking,0,2014-11-13 21:43:51.730,669,2014-11-13 21:42:44.967,0
2014-11-13 21:44:01.087,14637,487.9,40.10425,-88.22172,231,-1,-1,10,165,1415935777,1.388382,-0.1855011,-1.080002,-19.77496,3.781746,-9.862762,340.4257,343.5089,10,3.971324,8.392859,3.456851,-2.934637,-0.3393775,0.3307163,3.219679,16.37392,-2.689653,1.404826,-0.3470629,0.3682119,172.17.160.76,0.0.0.0,1,walking,0,2014-11-13 21:43:51.730,669,2014-11-13 21:42:44.967,0
2014-11-13 21:44:01.120,14638,487.9333,40.10425,-88.22172,231,-1,-1,10,165,1415935777,1.007309,0.1329803,0.01577759,-8.02467,-4.795906,-25.30045,357.7311,0.8143005,10,4.864008,-0.6539121,2.0822,-2.834271,-0.09397772,0.4366686,4.080025,4.763513,3.883431,1.354626,0.3866834,0.0002199836,172.17.160.76,0.0.0.0,1,walking,0,2014-11-13 21:43:51.730,669,2014-11-13 21:42:44.967,0
2014-11-13 21:44:01.153,14639,487.9667,40.10425,-88.22172,231,-1,-1,10,165,1415935777,1.191071,-1.638229,0.2770081,-0.7884293,-10.65214,-28.18033,333.0555,336.1387,10,5.335535,-3.095036,-0.06281465,-2.738702,-0.1335587,0.5719166,5.091191,-2.098087,0.894715,1.180453,0.4139558,1.154788,172.17.160.76,0.0.0.0,1,walking,0,2014-11-13 21:43:51.730,669,2014-11-13 21:42:44.967,0
2014-11-13 21:44:01.186,14640,488,40.10425,-88.22172,231,-1,-1,10,165,1415935777,-0.4869232,-1.102371,-0.22789,-1.649879,-13.30466,-27.41019,333.5278,336.611,10,3.622817,-6.502522,1.402176,-2.652684,-0.3481617,0.7833573,4.939986,-5.405085,1.408607,0.7524627,-1.865749,0.5740871,172.17.160.76,0.0.0.0,1,walking,0,2014-11-13 21:43:51.730,669,2014-11-13 21:42:44.967,0
2014-11-13 21:44:01.220,14641,488.0334,40.10425,-88.22172,231,-1,-1,10,165,1415935777,-1.259399,-0.9384308,-0.02857971,-3.820755,-15.68159,-25.70236,335.709,338.7922,10,2.986366,-8.045309,1.368837,-2.572633,-0.5392318,0.8360589,3.02733,-7.320591,1.327133,-0.1426922,-0.3603645,0.347376,172.17.160.76,0.0.0.0,1,walking,0,2014-11-13 21:43:51.730,669,2014-11-13 21:42:44.967,0
2014-11-13 21:44:01.253,14642,488.0667,40.10425,-88.22172,231,-1,-1,10,165,1415935777,-2.0009,-2.006851,0.4065704,-12.98666,-20.57327,-18.20108,334.958,338.0412,10,3.78755,-2.438867,-1.637294,-2.298945,-1.105243,0.9175766,3.924644,-4.546473,-0.3408834,-1.54632,-1.33003,0.652329,172.17.160.76,0.0.0.0,1,walking,0,2014-11-13 21:43:51.730,669,2014-11-13 21:42:44.967,0
2014-11-13 21:44:01.286,14643,488.1,40.10425,-88.22172,231,-1,-1,10,165,1415935777,-1.212036,-2.204498,0.310318,-14.50282,-21.88232,-15.65604,333.735,336.8182,10,4.648885,4.242215,-2.045852,-2.13337,-1.259086,1.015467,4.487781,2.323495,-2.213237,-1.251876,-1.172307,0.4992017,172.17.160.76,0.0.0.0,1,walking,0,2014-11-13 21:43:51.730,669,2014-11-13 21:42:44.967,0
2014-11-13 21:44:01.320,14644,488.1334,40.10425,-88.22172,231,-1,-1,10,165,1415935777,-0.298172,-2.590393,-0.001724243,-13.50352,-24.05257,-11.73801,336.3732,339.4564,10,3.716784,6.720906,-1.291579,-1.803601,-1.323346,1.132024,4.143495,7.006168,-1.391177,-0.3550794,-1.492859,0.3706103,172.17.160.76,0.0.0.0,1,walking,0,2014-11-13 21:43:51.730,669,2014-11-13 21:42:44.967,0
2014-11-13 21:44:01.354,14645,488.1667,40.10425,-88.22172,231,-1,-1,10,165,1415935777,0.3181915,-2.30043,-0.5531921,-10.02323,-26.91179,-9.293427,327.2053,330.2885,10,2.061971,1.751841,-1.042994,-1.57084,-1.355056,1.193504,2.96879,4.77299,-1.280714,0.3321698,-1.629752,-0.1102528,172.17.160.76,0.0.0.0,1,walking,0,2014-11-13 21:43:51.730,669,2014-11-13 21:42:44.967,0
2014-11-13 21:44:01.387,14646,488.2,40.10425,-88.22172,231,-1,-1,10,165,1415935777,0.1776428,-1.558762,-0.4561157,-8.40369,-27.97968,-8.188446,321.31,324.3932,10,0.6163124,-0.9545078,-0.2875655,-1.398408,-1.449268,1.236235,1.590892,0.6018227,-0.7434263,0.660345,-0.8982344,-0.4957926,172.17.160.76,0.0.0.0,1,walking,0,2014-11-13 21:43:51.730,669,2014-11-13 21:42:44.967,0
2014-11-13 21:44:01.420,14647,488.2334,40.10425,-88.22172,231,-1,-1,10,165,1415935777,-0.1735687,-1.177048,0.007278442,-6.921986,-29.52985,-6.614471,317.6048,320.688,10,0.06793351,-1.95443,-0.04663675,-1.326846,-1.53763,1.248423,0.3477248,-1.341695,-0.1280389,0.3826537,-0.5312349,-0.379463,172.17.160.76,0.0.0.0,1,walking,0,2014-11-13 21:43:51.730,669,2014-11-13 21:42:44.967,0
2014-11-13 21:44:01.454,14648,488.2667,40.10425,-88.22172,231,-1,-1,10,165,1415935777,-0.2189026,-0.960495,0.02052307,-6.818611,-29.83989,-6.045135,318.0402,321.1234,10,-0.5191239,-1.795306,-0.1179043,-1.315292,-1.583005,1.249564,0.1273956,-1.890183,-0.02819999,0.1421436,-0.2282006,0.003423929,172.17.160.76,0.0.0.0,1,walking,0,2014-11-13 21:43:51.730,669,2014-11-13 21:42:44.967,0
2014-11-13 21:44:01.487,14649,488.3,40.10425,-88.22172,231,-1,-1,10,165,1415935777,-0.09484863,-0.8024902,-0.04376221,-6.577408,-29.80544,-6.011688,320.6596,323.7428,10,-1.186237,-1.451712,-0.1082895,-1.408006,-1.574831,1.257256,-1.011302,-1.354303,-0.1941359,0.2072445,0.09451243,-0.06021973,172.17.160.76,0.0.0.0,1,walking,0,2014-11-13 21:43:51.730,669,2014-11-13 21:42:44.967,0
2014-11-13 21:44:01.520,14650,488.3334,40.10425,-88.22172,231,-1,-1,10,165,1415935777,-0.2177734,-0.8312683,0.1252594,-7.404408,-29.52986,-6.61441,326.7991,329.8823,10,-1.455734,-1.34885,0.5535032,-1.564086,-1.481905,1.249895,-1.343721,-1.361002,0.4482086,0.1486337,0.1468276,0.04156634,172.17.160.76,0.0.0.0,1,walking,0,2014-11-13 21:43:51.730,669,2014-11-13 21:42:44.967,0
2014-11-13 21:44:01.553,14651,488.3667,40.10425,-88.22172,231,-1,-1,10,165,1415935777,-0.2463837,-0.7661591,0.3700104,-8.265869,-28.53086,-8.188385,331.282,334.3652,10,-1.442577,-1.034646,0.5126492,-1.685487,-1.403534,1.226933,-1.427143,-1.087752,0.6070591,0.1066374,0.1253735,0.2386059,172.17.160.76,0.0.0.0,1,walking,0,2014-11-13 21:43:51.730,669,2014-11-13 21:42:44.967,0
2014-11-13 21:44:01.587,14652,488.4,40.10425,-88.22172,231,-1,-1,10,165,1415935777,-0.2598572,-0.7510071,0.4460144,-8.782742,-28.22083,-9.025543,332.4431,335.5263,10,-1.262646,-0.8398635,0.285844,-1.757096,-1.355194,1.211933,-1.27823,-0.8650238,0.4208535,0.09669554,0.1701375,0.445147,172.17.160.76,0.0.0.0,1,walking,0,2014-11-13 21:43:51.730,669,2014-11-13 21:42:44.967,0
2014-11-13 21:44:01.620,14653,488.4333,40.10425,-88.22172,231,-1,-1,10,165,1415935777,-0.2776642,-0.8129883,0.4510345,-9.058411,-27.87634,-9.628265,332.9017,335.9849,10,-0.8932618,-0.5698915,0.1786728,-1.869264,-1.278671,1.192637,-0.9232656,-0.5963071,0.1460154,0.08800472,0.1748291,0.5684561,172.17.160.76,0.0.0.0,1,walking,0,2014-11-13 21:43:51.730,669,2014-11-13 21:42:44.967,0
2014-11-13 21:44:01.653,14654,488.4667,40.10425,-88.22172,231,-1,-1,10,165,1415935777,-0.2271881,-0.9695282,0.3965759,-9.988785,-27.84189,-11.13522,335.0079,338.0911,10,-0.7212669,-0.4974167,0.07756963,-1.925103,-1.23983,1.178524,-0.7720839,-0.3329299,0.2784599,0.0869753,0.03486731,0.5454006,172.17.160.76,0.0.0.0,1,walking,0,2014-11-13 21:43:51.730,669,2014-11-13 21:42:44.967,0
2014-11-13 21:44:01.687,14655,488.5,40.10425,-88.22172,231,-1,-1,10,165,1415935777,-0.1540222,-0.7979584,0.3010254,-10.23,-27.80745,-11.16867,335.0941,338.1772,10,-0.3872465,-1.153703,-0.5576574,-1.985259,-1.204454,1.169169,-0.4689623,-0.757163,-0.303417,0.1840989,0.07583699,0.51164,172.17.160.76,0.0.0.0,1,walking,0,2014-11-13 21:43:51.730,669,2014-11-13 21:42:44.967,0
2014-11-13 21:44:01.720,14656,488.5334,40.10425,-88.22172,231,-1,-1,10,165,1415935777,-0.178833,-0.8135223,0.2049408,-10.29891,-27.32516,-11.16861,337.4365,340.5197,10,-0.3298916,-1.402317,-0.5506895,-2.011966,-1.199211,1.175225,-0.3277876,-1.08946,-0.5392216,0.2050154,0.1248181,0.4409379,172.17.160.76,0.0.0.0,1,walking,0,2014-11-13 21:43:51.730,669,2014-11-13 21:42:44.967,0
2014-11-13 21:44:01.753,14657,488.5667,40.10425,-88.22172,231,-1,-1,10,165,1415935777,-0.2198792,-0.8347321,0.138443,-10.33337,-27.01513,-10.73331,339.7825,342.8657,10,-0.4555918,-1.799052,-0.3293968,-2.071342,-1.214783,1.192066,-0.3501018,-1.646948,-0.3520687,0.1360302,0.09629504,0.2791532,172.17.160.76,0.0.0.0,1,walking,0,2014-11-13 21:43:51.730,669,2014-11-13 21:42:44.967,0
2014-11-13 21:44:01.787,14658,488.6,40.10425,-88.22172,231,-1,-1,10,165,1415935777,-0.2695618,-0.8407288,0.1841125,-11.26374,-27.04958,-10.83383,345.671,348.7542,10,-0.6214069,-1.852891,-0.1517919,-2.12798,-1.233452,1.19565,-0.5372921,-1.814555,-0.1855979,0.07910927,0.09672911,0.2939127,172.17.160.76,0.0.0.0,1,walking,0,2014-11-13 21:43:51.730,669,2014-11-13 21:42:44.967,0
2014-11-13 21:44:01.820,14659,488.6334,40.10425,-88.22172,231,-1,-1,10,165,1415935777,-0.2246857,-0.9681549,0.2035065,-11.91845,-26.87734,-10.06369,350.962,354.0452,10,-0.6651762,-1.575921,-0.06100503,-2.174622,-1.242009,1.192911,-0.5845781,-1.626574,-0.05268953,0.08684789,0.0196723,0.3153315,172.17.160.76,0.0.0.0,1,walking,0,2014-11-13 21:43:51.730,669,2014-11-13 21:42:44.967,0
2014-11-13 21:44:01.853,14660,488.6667,40.10425,-88.22172,231,-1,-1,10,165,1415935777,-0.149704,-1.000748,0.1378479,-11.84953,-27.01513,-9.72879,352.4005,355.4836,10,-0.8011537,-1.399262,-0.1742056,-2.224767,-1.23881,1.188488,-0.6876255,-1.35063,-0.1018018,0.1517957,-0.03535943,0.3129653,172.17.160.76,0.0.0.0,1,walking,0,2014-11-13 21:43:51.730,669,2014-11-13 21:42:44.967,0
2014-11-13 21:44:01.887,14661,488.7,40.10425,-88.22172,231,-1,-1,10,165,1415935777,-0.06260681,-1.098221,0.084198,-11.53941,-26.91179,-9.025543,354.5631,357.6463,10,-0.975913,-1.478142,-0.2185488,-2.288249,-1.220358,1.185395,-0.8515487,-1.36608,-0.188311,0.2292272,-0.1274447,0.2390154,172.17.160.76,0.0.0.0,1,walking,0,2014-11-13 21:43:51.730,669,2014-11-13 21:42:44.967,0
2014-11-13 21:44:01.920,14662,488.7334,40.10425,-88.22172,231,-1,-1,10,165,1415935777,-0.07397461,-1.122238,-0.03839111,-12.02182,-26.774,-9.092438,358.6257,1.708923,10,-1.411428,-2.274972,-0.2338519,-2.400335,-1.178644,1.178464,-1.253581,-1.775437,-0.2494658,0.3206511,-0.1987524,0.1740933,172.17.160.76,0.0.0.0,1,walking,0,2014-11-13 21:43:51.730,669,2014-11-13 21:42:44.967,0
2014-11-13 21:44:01.953,14663,488.7667,40.10425,-88.22172,231,-1,-1,10,165,1415935777,-0.1342621,-1.203461,0.02818298,-12.57315,-26.2917,-9.159454,4.109269,7.19246,10,-1.330824,-2.48476,-0.1492784,-2.468807,-1.156318,1.172295,-1.352095,-2.210783,-0.2152991,0.2812067,-0.2005947,0.1178766,172.17.160.76,0.0.0.0,1,walking,0,2014-11-13 21:43:51.730,669,2014-11-13 21:42:44.967,0
2014-11-13 21:44:01.987,14664,488.8,40.10425,-88.22172,231,-1,-1,10,165,1415935777,-0.2420044,-1.16037,0.04240417,-13.15894,-26.25726,-9.259979,7.535208,10.6184,10,-1.241327,-2.818957,-0.2171853,-2.591545,-1.140152,1.155963,-1.231194,-2.499903,-0.08034334,0.1790133,-0.3566059,0.2064127,172.17.160.76,0.0.0.0,1,walking,0,2014-11-13 21:43:51.730,669,2014-11-13 21:42:44.967,0
2014-11-13 21:44:02.020,14665,488.8334,40.10425,-88.22172,231,-1,-1,10,165,1415935777,-0.2808685,-1.019806,0.02954102,-13.46906,-26.15392,-9.025543,10.78977,13.87296,10,-1.056576,-3.024259,-0.3771191,-2.648412,-1.141236,1.14846,-1.181995,-2.754769,-0.1986328,0.1306493,-0.2482363,0.2131129,172.17.160.76,0.0.0.0,1,walking,0,2014-11-13 21:43:51.730,669,2014-11-13 21:42:44.967,0
2014-11-13 21:44:02.053,14666,488.8667,40.10425,-88.22172,231,-1,-1,10,165,1415935777,-0.4629669,-1.154953,0.03582764,-14.50282,-25.39605,-8.958466,17.52528,20.60847,10,-0.4104637,-3.164238,-0.44078,-2.762038,-1.186774,1.147846,-0.505697,-3.085105,-0.4226317,0.01892424,-0.1105639,0.1699824,172.17.160.76,0.0.0.0,1,walking,0,2014-11-13 21:43:51.730,669,2014-11-13 21:42:44.967,0
2014-11-13 21:44:02.087,14667,488.9,40.10425,-88.22172,231,-1,-1,10,165,1415935777,-0.6316528,-1.135437,0.0436554,-15.12306,-24.91377,-7.686005,26.12789,29.21108,10,-0.272439,-3.066556,-0.5830211,-2.802974,-1.273713,1.161414,-0.2218098,-3.092421,-0.5298817,-0.2026607,-0.2580025,0.1616557,172.17.160.76,0.0.0.0,1,walking,0,2014-11-13 21:43:51.730,669,2014-11-13 21:42:44.967,0
2014-11-13 21:44:02.120,14668,488.9333,40.10425,-88.22172,231,-1,-1,10,165,1415935777,-0.697525,-0.9877777,-0.004714966,-15.53656,-25.12047,-6.145599,33.28718,36.37037,10,-0.09639711,-2.43569,-0.4699641,-2.820582,-1.316624,1.171127,-0.1767373,-2.832362,-0.5626484,-0.2905021,-0.1664415,0.1329357,172.17.160.76,0.0.0.0,1,walking,0,2014-11-13 21:43:51.730,669,2014-11-13 21:42:44.967,0
2014-11-13 21:44:02.153,14669,488.9667,40.10425,-88.22172,231,-1,-1,10,165,1415935777,-0.6788483,-0.9168091,-0.07319641,-15.60548,-25.25826,-5.14093,38.44326,41.52645,10,-0.005891978,-2.028783,-0.3301675,-2.831274,-1.357738,1.180419,-0.0370665,-2.371503,-0.451412,-0.3259124,-0.09388075,0.09500643,172.17.160.76,0.0.0.0,1,walking,0,2014-11-13 21:43:51.730,669,2014-11-13 21:42:44.967,0
2014-11-13 21:44:02.186,14670,489,40.10425,-88.22172,231,-1,-1,10,165,1415935777,-0.6487427,-0.874115,-0.07791138,-15.6744,-25.39606,-4.270264,42.1034,45.18659,10,-0.05266907,-1.570771,0.0970123,-2.831744,-1.450925,1.19242,0.03367046,-1.579885,-0.02185412,-0.3057393,0.03494804,-0.03413234,172.17.160.76,0.0.0.0,1,walking,0,2014-11-13 21:43:51.730,669,2014-11-13 21:42:44.967,0
2014-11-13 21:44:02.220,14671,489.0334,40.10425,-88.22172,231,-1,-1,10,165,1415935777,-0.5398102,-0.8530426,-0.0745697,-15.84669,-25.2238,-3.165161,46.42309,49.50628,10,-0.3740213,-1.391119,0.6521938,-2.833295,-1.493552,1.185246,-0.1296147,-1.406361,0.4350468,-0.2535462,0.05786285,-0.04867748,172.17.160.76,0.0.0.0,1,walking,0,2014-11-13 21:43:51.730,669,2014-11-13 21:42:44.967,0
2014-11-13 21:44:02.253,14672,489.0667,40.10425,-88.22172,231,-1,-1,10,165,1415935777,-0.4411926,-0.8324738,-0.04585266,-16.08789,-25.12047,-2.729797,47.6578,50.74099,10,-0.512201,-1.388342,0.8713911,-2.862509,-1.519879,1.157188,-0.436568,-1.307914,0.7901886,-0.1016722,0.07215554,-0.05022306,172.17.160.76,0.0.0.0,1,walking,0,2014-11-13 21:43:51.730,669,2014-11-13 21:42:44.967,0
2014-11-13 21:44:02.286,14673,489.1,40.10425,-88.22172,231,-1,-1,10,165,1415935777,-0.404007,-0.7669067,0.02508545,-16.94935,-24.94822,-2.160553,49.23263,52.31582,10,-0.5029612,-1.438561,0.9761788,-2.892341,-1.532401,1.130318,-0.4466344,-1.338669,0.9386717,0.01021055,0.09639639,0.009973302,172.17.160.76,0.0.0.0,1,walking,0,2014-11-13 21:43:51.730,669,2014-11-13 21:42:44.967,0
2014-11-13 21:44:02.320,14674,489.1334,40.10425,-88.22172,231,-1,-1,10,165,1415935777,-0.3718719,-0.724823,0.04069519,-18.49997,-24.5693,-2.127075,49.03676,52.11995,10,-0.4664833,-1.483871,0.8877006,-2.920498,-1.548177,1.100393,-0.4361595,-1.380795,0.9893617,0.06189443,0.1389137,0.04694884,172.17.160.76,0.0.0.0,1,walking,0,2014-11-13 21:43:51.730,669,2014-11-13 21:42:44.967,0
2014-11-13 21:44:02.353,14675,489.1667,40.10425,-88.22172,231,-1,-1,10,165,1415935777,-0.3531799,-0.6721344,0.06799316,-19.15466,-24.53484,-1.691742,49.83022,52.91341,10,-0.4085939,-1.558162,0.7618377,-2.946162,-1.567925,1.072765,-0.385677,-1.457352,0.8444079,0.1134978,0.1687471,0.04899424,172.17.160.76,0.0.0.0,1,walking,0,2014-11-13 21:43:51.730,669,2014-11-13 21:42:44.967,0
