time,timestamp,recordtime,lat,long,alt,speed,course,verticalAccuracy,horizontalAccuracy,locTimeStamp,accelerationX,accelerationY,accelerationZ,HeadingX,HeadingY,HeadingZ,TrueHeading,MagneticHeading,HeadingAccuracy,RotationX,RotationY,RotationZ,motionYaw,motionRoll,motionPitch,motionRotationRateX,motionRotationRateY,motionRotationRateZ,motionUserAccelerationX,motionUserAccelerationY,motionUserAccelerationZ,en0,pdp_ip0,DeviceOrientation,Activity,Activity Confidence,Activity Start,Steps,Last Step Date,State
2014-11-13 21:43:42.853,14090,469.6667,40.10425,-88.22172,231,-1,-1,10,165,1415935777,-0.5825043,-0.7856598,0.1939697,-26.08084,-19.40209,9.058563,68.23789,71.32108,10,-0.04386679,-0.1294637,0.01965067,-3.078874,-1.875173,0.9023943,0.005156247,-0.05148547,0.01649167,0.0217575,0.008384746,-0.001650936,172.17.160.76,0.0.0.0,1,running,2,2014-11-13 21:43:41.832,669,2014-11-13 21:42:44.967,0
2014-11-13 21:43:42.887,14091,469.7,40.10425,-88.22172,231,-1,-1,10,165,1415935777,-0.5809784,-0.78302,0.1765442,-26.1153,-19.36764,8.824097,68.18726,71.27045,10,-0.06830715,-0.1562642,-0.01330489,-3.077811,-1.878711,0.9014064,0.01895268,-0.06304617,0.03442192,0.00767509,-0.006922079,0.00217283,172.17.160.76,0.0.0.0,1,running,2,2014-11-13 21:43:41.832,669,2014-11-13 21:42:44.967,0
2014-11-13 21:43:42.920,14092,469.7334,40.10425,-88.22172,231,-1,-1,10,165,1415935777,-0.5745392,-0.7586212,0.1750488,-26.21867,-19.33319,9.058502,68.17345,71.25665,10,-0.07467637,-0.201042,-0.03368499,-3.078584,-1.880389,0.901701,-0.009736844,-0.1090509,-0.009234977,0.012708,0.01125081,-0.01667805,172.17.160.76,0.0.0.0,1,running,2,2014-11-13 21:43:41.832,669,2014-11-13 21:42:44.967,0
2014-11-13 21:43:42.953,14093,469.7667,40.10425,-88.22172,231,-1,-1,10,165,1415935777,-0.5711823,-0.7690277,0.200882,-25.87409,-19.26429,9.058472,68.16853,71.25172,10,-0.06393264,-0.2182887,-0.06566051,-3.079842,-1.884243,0.9027894,-0.007559282,-0.1464342,-0.03491513,0.01479439,0.02448343,-0.007734461,172.17.160.76,0.0.0.0,1,running,2,2014-11-13 21:43:41.832,669,2014-11-13 21:42:44.967,0
2014-11-13 21:43:42.987,14094,469.8,40.10425,-88.22172,231,-1,-1,10,165,1415935777,-0.5830688,-0.7539062,0.2021027,-25.52951,-19.26429,9.259399,68.99774,72.08093,10,-0.06275153,-0.2781943,-0.1190545,-3.077919,-1.890976,0.9046012,0.005370331,-0.179782,-0.08821412,0.01025203,0.01235977,0.009365357,172.17.160.76,0.0.0.0,1,running,2,2014-11-13 21:43:41.832,669,2014-11-13 21:42:44.967,0
2014-11-13 21:43:43.020,14095,469.8333,40.10425,-88.22172,231,-1,-1,10,165,1415935777,-0.5940552,-0.7538452,0.2394104,-25.52951,-18.85091,9.192413,68.58592,71.66911,10,-0.04889191,-0.3708234,-0.1429468,-3.074982,-1.903573,0.9075332,0.006459384,-0.2937463,-0.1238431,-0.002177306,0.04119173,0.01393025,172.17.160.76,0.0.0.0,1,running,2,2014-11-13 21:43:41.832,669,2014-11-13 21:42:44.967,0
2014-11-13 21:43:43.053,14096,469.8667,40.10425,-88.22172,231,-1,-1,10,165,1415935777,-0.5851135,-0.743515,0.2141418,-25.97747,-19.02316,9.694702,69.16833,72.25153,10,-0.08296838,-0.4017735,-0.1631503,-3.071997,-1.912655,0.9085231,0.002223896,-0.3129691,-0.1366622,-0.01472708,0.03475126,0.03326831,172.17.160.76,0.0.0.0,1,running,2,2014-11-13 21:43:41.832,669,2014-11-13 21:42:44.967,0
2014-11-13 21:43:43.087,14097,469.9,40.10425,-88.22172,231,-1,-1,10,165,1415935777,-0.632019,-0.7730255,0.2352753,-25.73627,-18.91982,10.06308,70.17979,73.26298,10,-0.07553311,-0.4336473,-0.1622845,-3.070753,-1.927602,0.9143304,-0.03611859,-0.3715931,-0.163362,-0.01173666,0.04433611,-0.004754846,172.17.160.76,0.0.0.0,1,running,2,2014-11-13 21:43:41.832,669,2014-11-13 21:42:44.967,0
2014-11-13 21:43:43.119,14098,469.9333,40.10425,-88.22172,231,-1,-1,10,165,1415935777,-0.646759,-0.7737427,0.2159271,-25.4606,-19.40208,10.13004,70.73537,73.81856,10,-0.1458014,-0.3156714,-0.1624616,-3.069243,-1.939029,0.9167737,-0.01489274,-0.3117468,-0.1164154,-0.08288134,0.02136512,0.01554478,172.17.160.76,0.0.0.0,1,running,2,2014-11-13 21:43:41.832,669,2014-11-13 21:42:44.967,0
2014-11-13 21:43:43.153,14099,469.9667,40.10425,-88.22172,231,-1,-1,10,165,1415935777,-0.6242065,-0.8049316,0.2166443,-25.21939,-19.71211,10.63239,72.69451,75.7777,10,-0.147701,-0.2491819,-0.2226088,-3.070334,-1.947661,0.9228113,-0.08169551,-0.1955063,-0.2057752,-0.04723588,0.01869139,0.002273704,172.17.160.76,0.0.0.0,1,running,2,2014-11-13 21:43:41.832,669,2014-11-13 21:42:44.967,0
2014-11-13 21:43:43.187,14100,470,40.10425,-88.22172,231,-1,-1,10,165,1415935777,-0.6329498,-0.7941742,0.213913,-25.25385,-19.95325,11.00073,74.22704,77.31023,10,-0.2043254,-0.3105928,-0.1972446,-3.070105,-1.951399,0.9273157,-0.08487958,-0.1806365,-0.2067465,-0.06715718,-0.004919367,-0.006237669,172.17.160.76,0.0.0.0,1,running,2,2014-11-13 21:43:41.832,669,2014-11-13 21:42:44.967,0
2014-11-13 21:43:43.220,14101,470.0334,40.10425,-88.22172,231,-1,-1,10,165,1415935777,-0.6282501,-0.8182831,0.2528076,-25.0471,-20.09105,11.3356,76.02303,79.10622,10,-0.1839696,-0.2491078,-0.2150423,-3.074011,-1.95459,0.9328409,-0.1521562,-0.2452604,-0.1855994,-0.08072167,0.009140935,-0.009086718,172.17.160.76,0.0.0.0,1,running,2,2014-11-13 21:43:41.832,669,2014-11-13 21:42:44.967,0
2014-11-13 21:43:43.253,14102,470.0667,40.10425,-88.22172,231,-1,-1,10,165,1415935777,-0.615036,-0.788559,0.1995239,-24.25455,-20.26329,11.23514,77.81985,80.90304,10,-0.2905504,-0.2661521,-0.2274707,-3.079715,-1.959478,0.9457473,-0.1829244,-0.1519287,-0.2104634,-0.07975506,0.01402889,0.0001443994,172.17.160.76,0.0.0.0,1,running,2,2014-11-13 21:43:41.832,669,2014-11-13 21:42:44.967,0
2014-11-13 21:43:43.286,14103,470.1,40.10425,-88.22172,231,-1,-1,10,165,1415935777,-0.6142883,-0.7821503,0.1987305,-23.80659,-20.50443,11.20163,77.83699,80.92018,10,-0.4121455,-0.3553578,-0.2285466,-3.086173,-1.958102,0.9501872,-0.2907058,-0.2857448,-0.208635,-0.08056182,0.01489464,-0.05493815,172.17.160.76,0.0.0.0,1,running,2,2014-11-13 21:43:41.832,669,2014-11-13 21:42:44.967,0
2014-11-13 21:43:43.320,14104,470.1334,40.10425,-88.22172,231,-1,-1,10,165,1415935777,-0.6150513,-0.8058167,0.184494,-23.80658,-20.43553,11.3356,79.72919,82.81238,10,-0.2333419,0.1887649,-0.3462983,-3.100162,-1.952037,0.9621349,-0.1963339,0.09287138,-0.2982748,-0.08027352,0.06266264,-0.01332249,172.17.160.76,0.0.0.0,1,running,2,2014-11-13 21:43:41.832,669,2014-11-13 21:42:44.967,0
2014-11-13 21:43:43.353,14105,470.1667,40.10425,-88.22172,231,-1,-1,10,165,1415935777,-0.4119873,-0.7493896,0.22229,-24.11671,-20.81447,11.43604,81.26685,84.35004,10,-0.08389197,1.133016,-0.5265834,-3.099555,-1.938928,0.9721066,-0.05251271,0.8282286,-0.4095955,-0.08610528,0.04509941,0.05773345,172.17.160.76,0.0.0.0,1,running,2,2014-11-13 21:43:41.832,669,2014-11-13 21:42:44.967,0
2014-11-13 21:43:43.387,14106,470.2,40.10425,-88.22172,231,-1,-1,10,165,1415935777,-0.2684631,-0.8155212,0.2151794,-24.18562,-21.50344,11.30206,82.87527,85.95847,10,-0.2860382,1.21727,-0.6389613,-3.093309,-1.904771,0.9888508,-0.1857146,1.431246,-0.627771,0.1731651,0.05940919,-0.009460635,172.17.160.76,0.0.0.0,1,running,2,2014-11-13 21:43:41.832,669,2014-11-13 21:42:44.967,0
2014-11-13 21:43:43.420,14107,470.2334,40.10425,-88.22172,231,-1,-1,10,165,1415935777,-0.3200073,-1.020172,0.2247009,-23.8755,-21.81348,10.59885,82.90833,85.99152,10,-0.2850994,-0.4250815,-0.3079392,-3.092862,-1.87181,1.01182,-0.141565,0.1281214,-0.3991497,0.1939887,-0.1357221,0.1150443,172.17.160.76,0.0.0.0,1,running,2,2014-11-13 21:43:41.832,669,2014-11-13 21:42:44.967,0
2014-11-13 21:43:43.453,14108,470.2667,40.10425,-88.22172,231,-1,-1,10,165,1415935777,-0.3269348,-0.9246216,0.2025452,-23.42754,-22.468,10.09653,85.28163,88.36482,10,-0.5214528,-1.605849,-0.3578543,-3.098951,-1.876103,1.018856,-0.3538018,-0.8259574,-0.2579562,0.1800846,-0.1686632,0.0670919,172.17.160.76,0.0.0.0,1,running,2,2014-11-13 21:43:41.832,669,2014-11-13 21:42:44.967,0
2014-11-13 21:43:43.487,14109,470.3,40.10425,-88.22172,231,-1,-1,10,165,1415935777,-0.5407104,-0.9927063,0.2187958,-22.73837,-22.95028,10.76624,89.42674,92.50993,10,-0.4292981,-1.845013,-0.2225276,-3.117338,-1.903082,1.032104,-0.4128224,-1.685158,-0.3482398,0.158017,-0.06624141,0.03519752,172.17.160.76,0.0.0.0,1,running,2,2014-11-13 21:43:41.832,669,2014-11-13 21:42:44.967,0
2014-11-13 21:43:43.520,14110,470.3333,40.10425,-88.22172,231,-1,-1,10,165,1415935777,-0.8607635,-1.06073,0.08952332,-22.42825,-23.19142,11.40247,91.64928,94.73248,10,-0.4091587,-1.594553,-0.1204433,-3.139792,-1.954978,1.044566,-0.374303,-1.824458,-0.07737837,-0.1380045,-0.1411373,0.01207914,172.17.160.76,0.0.0.0,1,running,2,2014-11-13 21:43:41.832,669,2014-11-13 21:42:44.967,0
2014-11-13 21:43:43.554,14111,470.3667,40.10425,-88.22172,231,-1,-1,10,165,1415935777,-0.8900909,-0.7955475,0.4445648,-21.60124,-23.26031,13.34479,98.28317,101.3664,10,0.07581221,0.2466386,-0.6847025,3.126613,-1.9871,1.051428,-0.3246052,-1.224633,-0.1434022,-0.4068237,-0.192597,-0.1111846,172.17.160.76,0.0.0.0,1,running,2,2014-11-13 21:43:41.832,669,2014-11-13 21:42:44.967,0
2014-11-13 21:43:43.587,14112,470.4,40.10425,-88.22172,231,-1,-1,10,165,1415935777,-0.377243,-0.6171875,0.09863281,-20.77424,-23.6048,14.61731,103.6444,106.7276,10,-0.2278558,2.494816,-0.8712851,-3.120203,-1.97323,1.087379,-0.09411697,2.451279,-1.048397,-0.241561,0.1813408,0.1419594,172.17.160.76,0.0.0.0,1,running,2,2014-11-13 21:43:41.832,669,2014-11-13 21:42:44.967,0
2014-11-13 21:43:43.620,14113,470.4333,40.10425,-88.22172,231,-1,-1,10,165,1415935777,-0.1240997,-0.6931305,0.02206421,-20.70531,-23.94929,14.81824,104.8534,107.9366,10,-0.2231774,2.389984,-0.6818494,-3.120203,-1.97323,1.087379,-0.09411697,2.451279,-1.048397,-0.241561,0.1813408,0.1419594,172.17.160.76,0.0.0.0,1,running,2,2014-11-13 21:43:41.832,669,2014-11-13 21:42:44.967,0
2014-11-13 21:43:43.653,14114,470.4667,40.10425,-88.22172,231,-1,-1,10,165,1415935777,0.1412354,-0.9941559,-0.03912354,-20.67086,-24.8105,13.51224,104.7546,107.8378,10,-0.5839322,0.4110797,-0.3363844,-3.118079,-1.857211,1.123027,-0.3606778,0.9179725,-0.3495991,0.4182481,0.04625159,-0.09388918,172.17.160.76,0.0.0.0,1,running,2,2014-11-13 21:43:41.832,669,2014-11-13 21:42:44.967,0
2014-11-13 21:43:43.687,14115,470.5,40.10425,-88.22172,231,-1,-1,10,165,1415935777,0.1529541,-0.9670563,-0.003845215,-20.70531,-25.32722,11.80435,102.478,105.5612,10,-0.8183156,-0.9598469,-0.3809394,3.13046,-1.821977,1.137369,-0.7167072,-0.4472853,-0.3543939,0.5715235,-0.071564,-0.1497352,172.17.160.76,0.0.0.0,1,running,2,2014-11-13 21:43:41.832,669,2014-11-13 21:42:44.967,0
2014-11-13 21:43:43.720,14116,470.5334,40.10425,-88.22172,231,-1,-1,10,165,1415935777,0.2142792,-1.166718,0.1355743,-20.32627,-25.56837,11.43597,107.3298,110.413,10,-0.991554,-2.251908,-0.5314562,3.082011,-1.813076,1.153741,-0.822004,-1.613043,-0.3781838,0.549138,-0.07814579,-0.05776933,172.17.160.76,0.0.0.0,1,running,2,2014-11-13 21:43:41.832,669,2014-11-13 21:42:44.967,0
2014-11-13 21:43:43.754,14117,470.5667,40.10425,-88.22172,231,-1,-1,10,165,1415935777,0.2555084,-1.279434,0.242157,-19.43037,-25.91286,11.16806,110.416,113.4992,10,-1.352679,-3.539504,-0.9476779,3.001724,-1.829474,1.184833,-1.077596,-2.778246,-0.7612503,0.5927933,-0.2886821,0.07872114,172.17.160.76,0.0.0.0,1,running,2,2014-11-13 21:43:41.832,669,2014-11-13 21:42:44.967,0
2014-11-13 21:43:43.787,14118,470.6,40.10425,-88.22172,231,-1,-1,10,165,1415935777,0.3543396,-1.306976,0.3208618,-17.53516,-26.56738,11.46951,117.5566,120.6398,10,-1.717705,-4.622001,-1.078328,2.920557,-1.855207,1.221213,-1.408232,-3.824192,-0.9746322,0.5998039,-0.3559404,0.1832686,172.17.160.76,0.0.0.0,1,running,2,2014-11-13 21:43:41.832,669,2014-11-13 21:42:44.967,0
2014-11-13 21:43:43.820,14119,470.6334,40.10425,-88.22172,231,-1,-1,10,165,1415935777,0.4036407,-1.264511,0.4174652,-16.39803,-26.73961,11.77087,121.976,125.0591,10,-2.043863,-5.941549,-1.078748,2.804431,-1.879448,1.26545,-1.766966,-4.985213,-1.090859,0.6808724,-0.3762437,0.2475608,172.17.160.76,0.0.0.0,1,running,2,2014-11-13 21:43:41.832,669,2014-11-13 21:42:44.967,0
2014-11-13 21:43:43.853,14120,470.6667,40.10425,-88.22172,231,-1,-1,10,165,1415935777,0.3718262,-1.212265,0.4720612,-13.12449,-28.35867,12.74197,136.2748,139.358,10,-2.463162,-6.771416,-0.8236076,2.638097,-1.892019,1.314108,-2.127438,-6.255274,-1.01234,0.6445338,-0.2972751,0.3373088,172.17.160.76,0.0.0.0,1,running,2,2014-11-13 21:43:41.832,669,2014-11-13 21:42:44.967,0
2014-11-13 21:43:43.887,14121,470.7,40.10425,-88.22172,231,-1,-1,10,165,1415935777,0.3846283,-1.272034,0.4880066,-8.955048,-30.46003,13.11032,154.8217,157.9049,10,-3.060497,-7.149796,-0.4518447,2.253333,-1.784512,1.371271,-2.731551,-6.869037,-0.5738564,0.5848696,-0.274127,0.45105,172.17.160.76,0.0.0.0,1,running,2,2014-11-13 21:43:41.832,669,2014-11-13 21:42:44.967,0
2014-11-13 21:43:43.920,14122,470.7334,40.10425,-88.22172,231,-1,-1,10,165,1415935777,0.2394562,-1.228195,0.5384064,-7.128761,-31.66572,12.8089,164.0047,167.0879,10,-3.2791,-7.234168,-0.0990584,1.606113,-1.431344,1.392544,-3.157212,-7.183723,-0.1992166,0.5182092,-0.2970644,0.5194734,172.17.160.76,0.0.0.0,1,running,2,2014-11-13 21:43:41.832,669,2014-11-13 21:42:44.967,0
2014-11-13 21:43:43.954,14123,470.7667,40.10425,-88.22172,231,-1,-1,10,165,1415935777,0.23526,-1.249741,0.5915833,-3.545105,-33.18144,10.33084,182.4764,185.5596,10,-3.259617,-7.140693,0.1805306,1.112752,-1.160723,1.366026,-3.212402,-7.082637,0.09873728,0.412817,-0.2231475,0.6409281,172.17.160.76,0.0.0.0,1,running,2,2014-11-13 21:43:41.832,669,2014-11-13 21:42:44.967,0
2014-11-13 21:43:43.987,14124,470.8,40.10425,-88.22172,231,-1,-1,10,165,1415935777,0.07402039,-1.129517,0.4997864,-2.028942,-33.93931,6.11142,198.5167,201.5999,10,-3.364746,-7.517465,0.6555457,0.7545674,-1.02609,1.313035,-3.257375,-7.272151,0.4694263,0.4213937,-0.2556473,0.6922392,172.17.160.76,0.0.0.0,1,running,2,2014-11-13 21:43:41.832,669,2014-11-13 21:42:44.967,0
2014-11-13 21:43:44.020,14125,470.8333,40.10425,-88.22172,231,-1,-1,10,165,1415935777,0.007232666,-1.020172,0.5188141,-1.787739,-34.24934,3.733826,206.4741,209.5573,10,-3.12657,-7.846049,1.484064,0.580408,-1.008609,1.265563,-3.294231,-7.632035,0.9336597,0.3282843,-0.1757398,0.6599727,172.17.160.76,0.0.0.0,1,running,2,2014-11-13 21:43:41.832,669,2014-11-13 21:42:44.967,0
2014-11-13 21:43:44.052,14126,470.8667,40.10425,-88.22172,231,-1,-1,10,165,1415935777,-0.1522675,-0.8950348,0.5449524,-2.787025,-33.93931,0.2176819,220.282,223.3652,10,-2.255482,-7.545482,2.226484,0.3260749,-1.157362,1.126406,-2.558167,-7.617097,1.835365,0.3866823,0.01786322,0.6935771,172.17.160.76,0.0.0.0,1,running,2,2014-11-13 21:43:41.832,669,2014-11-13 21:42:44.967,0
2014-11-13 21:43:44.086,14127,470.9,40.10425,-88.22172,231,-1,-1,10,165,1415935777,-0.3272858,-0.7841187,0.667572,-5.09573,-33.2159,-2.092987,232.1076,235.1908,10,-1.804412,-7.247396,2.612744,0.2626075,-1.251418,1.070951,-2.192565,-7.477138,2.242342,0.3027847,-0.01737792,0.695438,172.17.160.76,0.0.0.0,1,running,2,2014-11-13 21:43:41.832,669,2014-11-13 21:42:44.967,0
2014-11-13 21:43:44.120,14128,470.9333,40.10425,-88.22172,231,-1,-1,10,165,1415935777,-0.5691681,-0.6237946,0.7348938,-6.336235,-32.66472,-2.092987,236.5434,239.6266,10,-0.942522,-5.806579,2.100162,0.1775496,-1.461663,0.9568232,-1.333279,-6.552529,2.461597,0.1970055,0.09988195,0.7572068,172.17.160.76,0.0.0.0,1,running,2,2014-11-13 21:43:41.832,669,2014-11-13 21:42:44.967,0
2014-11-13 21:43:44.154,14129,470.9667,40.10425,-88.22172,231,-1,-1,10,165,1415935777,-0.6972198,-0.5865479,0.7311401,-9.954353,-32.148,-1.255798,243.6242,246.7074,10,-0.3712659,-4.525774,1.768278,0.1352938,-1.603198,0.8906515,-0.6295223,-5.341762,2.0089,0.05940747,0.1536871,0.7145197,172.17.160.76,0.0.0.0,1,running,2,2014-11-13 21:43:41.832,669,2014-11-13 21:42:44.967,0
2014-11-13 21:43:44.187,14130,471,40.10425,-88.22172,231,-1,-1,10,165,1415935777,-0.6524048,-0.589447,0.7097626,-12.33197,-30.87341,1.05481,248.5149,251.5981,10,0.07391417,-3.698788,1.414308,0.1006104,-1.792076,0.8072407,-0.003078003,-3.741525,1.486363,-0.02746872,0.1175998,0.5240747,172.17.160.76,0.0.0.0,1,running,2,2014-11-13 21:43:41.832,669,2014-11-13 21:42:44.967,0
2014-11-13 21:43:44.220,14131,471.0334,40.10425,-88.22172,231,-1,-1,10,165,1415935777,-0.6591797,-0.4788513,0.7668915,-13.53801,-30.35668,2.293823,250.2644,253.3475,10,0.3793532,-3.425636,1.302085,0.09444438,-1.8945,0.7644643,0.403671,-3.444024,1.368582,0.04765622,0.1297878,0.5133294,172.17.160.76,0.0.0.0,1,running,2,2014-11-13 21:43:41.832,669,2014-11-13 21:42:44.967,0
2014-11-13 21:43:44.253,14132,471.0667,40.10425,-88.22172,231,-1,-1,10,165,1415935777,-0.6895599,-0.3589935,0.7642975,-14.15826,-28.97874,4.771851,253.1645,256.2477,10,0.6139303,-3.542967,1.257068,0.09296909,-1.995009,0.7227121,0.5467572,-3.439358,1.291644,-0.0149506,0.213118,0.4354627,172.17.160.76,0.0.0.0,1,running,2,2014-11-13 21:43:41.832,669,2014-11-13 21:42:44.967,0
2014-11-13 21:43:44.287,14133,471.1,40.10425,-88.22172,231,-1,-1,10,165,1415935777,-0.8083038,-0.3221283,0.9335632,-14.8819,-28.32423,7.819183,255.5732,258.6563,10,1.210099,-3.366074,1.220738,0.09895166,-2.102534,0.6777339,1.077851,-3.407107,1.233566,-0.05216479,0.3118286,0.4588145,172.17.160.76,0.0.0.0,1,running,2,2014-11-13 21:43:41.832,669,2014-11-13 21:42:44.967,0
2014-11-13 21:43:44.320,14134,471.1334,40.10425,-88.22172,231,-1,-1,10,165,1415935777,-0.8117676,-0.3398132,1.015198,-14.60623,-27.56638,9.292633,256.8343,259.9175,10,1.728798,-2.838179,0.8033521,0.1173026,-2.210033,0.6245756,1.576262,-3.070216,1.131572,-0.183617,0.2614803,0.4910205,172.17.160.76,0.0.0.0,1,running,2,2014-11-13 21:43:41.832,669,2014-11-13 21:42:44.967,0
2014-11-13 21:43:44.353,14135,471.1667,40.10425,-88.22172,231,-1,-1,10,165,1415935777,-0.7053528,-0.3392181,1.156708,-14.33056,-26.05064,12.9762,257.7676,260.8508,10,2.291611,-1.79286,0.383218,0.1597824,-2.342988,0.5527146,2.0636,-2.440592,0.5343863,-0.161296,0.1745205,0.4581053,172.17.160.76,0.0.0.0,1,running,2,2014-11-13 21:43:41.832,669,2014-11-13 21:42:44.967,0
2014-11-13 21:43:44.387,14136,471.2,40.10425,-88.22172,231,-1,-1,10,165,1415935777,-0.6202698,-0.3791809,1.239456,-13.09007,-24.05262,16.45889,196.9182,200.0014,10,2.389149,-1.331124,0.3258412,0.1888794,-2.397893,0.5139795,2.354524,-1.72452,0.399075,-0.1158113,0.1524283,0.5158297,172.17.160.76,0.0.0.0,1,running,2,2014-11-13 21:43:41.832,669,2014-11-13 21:42:44.967,0
2014-11-13 21:43:44.420,14137,471.2334,40.10425,-88.22172,231,-1,-1,10,165,1415935777,-0.5275116,-0.3080902,1.325516,-12.60764,-23.01917,18.26721,186.8123,189.8955,10,2.675831,-0.8461214,0.1245787,0.249006,-2.474265,0.4297512,2.57293,-0.914663,0.2963735,-0.05765638,0.03746377,0.525402,172.17.160.76,0.0.0.0,1,walking,0,2014-11-13 21:43:44.306,669,2014-11-13 21:42:44.967,0
2014-11-13 21:43:44.454,14138,471.2667,40.10425,-88.22172,231,-1,-1,10,165,1415935777,-0.3376312,-0.3519592,1.41597,-11.91848,-20.33219,21.61594,180.9048,183.988,10,3.071175,-1.406949,0.03522643,0.3157454,-2.533477,0.3372588,2.98724,-1.038995,0.03835012,0.08509625,0.03478953,0.6329191,172.17.160.76,0.0.0.0,1,walking,0,2014-11-13 21:43:44.306,669,2014-11-13 21:42:44.967,0
2014-11-13 21:43:44.487,14139,471.3,40.10425,-88.22172,231,-1,-1,10,165,1415935777,-0.1290894,-0.3115692,1.575684,-11.12594,-17.33519,25.13208,175.3479,178.4311,10,3.471817,-2.734738,0.1148371,0.3842761,-2.626093,0.2246263,3.43025,-2.437449,0.1906722,0.2932831,-0.1692409,0.5772415,172.17.160.76,0.0.0.0,1,walking,0,2014-11-13 21:43:44.306,669,2014-11-13 21:42:44.967,0
2014-11-13 21:43:44.520,14140,471.3333,40.10425,-88.22172,231,-1,-1,10,165,1415935777,-0.09620667,-0.299942,1.708252,-10.26449,-15.23384,26.90698,172.4452,175.5284,10,3.771999,-3.321963,-0.2407298,0.4167268,-2.686976,0.1606112,3.677854,-2.924787,-0.02617927,0.3043769,-0.1516476,0.6888171,172.17.160.76,0.0.0.0,1,walking,0,2014-11-13 21:43:44.306,669,2014-11-13 21:42:44.967,0
2014-11-13 21:43:44.553,14141,471.3667,40.10425,-88.22172,231,-1,-1,10,165,1415935777,-0.1541138,-0.3909149,1.811859,-6.301781,-10.72111,29.8873,166.5813,169.6645,10,4.116846,-4.009007,-0.5853133,0.4895498,-2.839288,0.01692204,4.184775,-4.005898,-0.4827776,0.2317912,-0.3238991,0.7955602,172.17.160.76,0.0.0.0,1,walking,0,2014-11-13 21:43:44.306,669,2014-11-13 21:42:44.967,0
2014-11-13 21:43:44.587,14142,471.4,40.10425,-88.22172,231,-1,-1,10,165,1415935777,0.01931763,-0.2515564,1.828888,-1.443165,-5.588287,32.46585,161.9543,165.0375,10,4.161553,-3.694282,-1.543403,0.5400409,-2.953187,-0.09890615,4.11491,-3.76065,-0.9376618,0.03581969,-0.4665276,0.8084312,172.17.160.76,0.0.0.0,1,walking,0,2014-11-13 21:43:44.306,669,2014-11-13 21:42:44.967,0
2014-11-13 21:43:44.620,14143,471.4333,40.10425,-88.22172,231,-1,-1,10,165,1415935777,0.2239227,-0.2572021,1.554642,1.416874,-3.142456,33.50397,159.9597,163.0429,10,4.375,-3.426165,-1.906879,0.6008502,-3.052701,-0.2180927,4.279577,-3.5597,-1.757746,0.1668562,-0.4272291,0.8083808,172.17.160.76,0.0.0.0,1,walking,0,2014-11-13 21:43:44.306,669,2014-11-13 21:42:44.967,0
2014-11-13 21:43:44.653,14144,471.4667,40.10425,-88.22172,231,-1,-1,10,165,1415935777,0.3739929,-0.4409332,1.49025,6.172119,2.713776,34.50858,155.9645,159.0477,10,4.420501,-3.680845,-1.859562,0.6846151,3.119347,-0.3931847,4.5368,-3.422179,-1.810007,0.2438274,-0.7108908,0.5761992,172.17.160.76,0.0.0.0,1,walking,0,2014-11-13 21:43:44.306,669,2014-11-13 21:42:44.967,0
2014-11-13 21:43:44.687,14145,471.5,40.10425,-88.22172,231,-1,-1,10,165,1415935777,0.6123047,-0.4766693,1.341873,8.205158,6.261955,34.60901,153.8164,156.8996,10,4.141188,-3.683357,-2.210941,0.7194842,3.062906,-0.4852549,4.483453,-3.612606,-1.843716,0.3044621,-0.9073671,0.6084305,172.17.160.76,0.0.0.0,1,walking,0,2014-11-13 21:43:44.306,669,2014-11-13 21:42:44.967,0
2014-11-13 21:43:44.720,14146,471.5334,40.10425,-88.22172,231,-1,-1,10,165,1415935777,1.083496,-0.273407,1.209183,12.16786,12.42822,32.36536,151.326,154.4091,10,3.364295,-4.191459,-3.133136,0.7999165,2.959956,-0.6611162,3.774352,-3.844985,-2.551354,0.4697243,-1.090668,0.5655504,172.17.160.76,0.0.0.0,1,walking,0,2014-11-13 21:43:44.306,669,2014-11-13 21:42:44.967,0
2014-11-13 21:43:44.754,14147,471.5667,40.10425,-88.22172,231,-1,-1,10,165,1415935777,1.32988,-0.5312653,1.598618,15.40693,17.93995,28.54782,148.6958,151.7789,10,2.838253,-5.188082,-4.288122,0.9333056,2.884761,-0.8237228,3.162074,-4.465524,-4.002314,1.150761,-1.019554,0.6329083,172.17.160.76,0.0.0.0,1,walking,0,2014-11-13 21:43:44.306,669,2014-11-13 21:42:44.967,0
2014-11-13 21:43:44.787,14148,471.6,40.10425,-88.22172,231,-1,-1,10,165,1415935777,0.4824677,-0.4372101,1.551147,17.12985,22.41824,23.25674,267.5266,270.6097,10,2.272561,-6.438602,-4.026157,1.142117,2.816904,-0.9691471,2.278812,-6.317678,-3.931272,0.706217,-1.36049,1.059808,172.17.160.76,0.0.0.0,1,walking,0,2014-11-13 21:43:44.306,669,2014-11-13 21:42:44.967,0
2014-11-13 21:43:44.820,14149,471.6334,40.10425,-88.22172,231,-1,-1,10,165,1415935777,0.6991882,-0.4320831,1.596069,17.30214,24.58849,20.27637,278.8794,281.9626,10,2.28283,-6.048527,-4.857405,1.196445,2.798664,-1.004093,2.335511,-6.370365,-4.010311,0.446682,-1.332567,1.048726,172.17.160.76,0.0.0.0,1,walking,0,2014-11-13 21:43:44.306,669,2014-11-13 21:42:44.967,0
2014-11-13 21:43:44.853,14150,471.6667,40.10425,-88.22172,231,-1,-1,10,165,1415935777,0.3077393,-0.967865,0.5602722,14.37319,28.48116,15.55469,272.2676,275.3508,10,0.6063719,-3.666292,-7.224794,1.706708,2.983582,-1.181526,1.23787,-4.190026,-6.766249,0.7193503,-1.498932,0.9361126,172.17.160.76,0.0.0.0,1,walking,0,2014-11-13 21:43:44.306,669,2014-11-13 21:42:44.967,0
2014-11-13 21:43:44.887,14151,471.7,40.10425,-88.22172,231,-1,-1,10,165,1415935777,-0.005157471,-1.430817,0.3334503,11.89219,30.27248,13.81335,271.8907,274.9738,10,0.1723491,-1.457237,-7.676465,2.299748,-2.839737,-1.182172,0.2772881,-2.095348,-7.62416,0.3306817,-2.021852,0.04127768,172.17.160.76,0.0.0.0,1,walking,0,2014-11-13 21:43:44.306,669,2014-11-13 21:42:44.967,0
2014-11-13 21:43:44.920,14152,471.7334,40.10425,-88.22172,231,-1,-1,10,165,1415935777,-1.245773,-1.681183,0.5387421,3.380993,31.96045,12.9762,280.3729,283.4561,10,-0.4121029,-0.9325394,-7.458156,2.776576,-2.440011,-1.072833,-0.120482,-0.7497128,-7.591171,0.1172248,-2.478609,-0.006919991,172.17.160.76,0.0.0.0,1,walking,0,2014-11-13 21:43:44.306,669,2014-11-13 21:42:44.967,0
2014-11-13 21:43:44.954,14153,471.7667,40.10425,-88.22172,231,-1,-1,10,165,1415935777,-2.642197,-1.252151,1.081268,-5.440323,30.51362,13.77994,297.6516,300.7348,10,0.203462,-1.151657,-5.89699,3.112309,-2.197721,-0.8479678,-0.02032472,-0.9806445,-6.926151,-1.217323,-2.390517,0.3813762,172.17.160.76,0.0.0.0,1,walking,0,2014-11-13 21:43:44.306,669,2014-11-13 21:42:44.967,0
2014-11-13 21:43:44.987,14154,471.8,40.10425,-88.22172,231,-1,-1,10,165,1415935777,-2.369827,-0.1388702,0.760025,-9.747608,28.96343,14.14828,309.9064,312.9896,10,0.2508663,-0.119193,-5.092435,-3.021205,-2.123414,-0.7009469,0.3613642,-0.7797105,-5.475477,-2.054447,-1.475645,0.6879838,172.17.160.76,0.0.0.0,1,walking,0,2014-11-13 21:43:44.306,669,2014-11-13 21:42:44.967,0
2014-11-13 21:43:45.020,14155,471.8333,40.10425,-88.22172,231,-1,-1,10,165,1415935777,-2.474442,0.3292084,0.1166992,-15.98457,25.34635,15.52127,320.7517,323.8349,10,-1.011323,-1.624495,-3.713586,-2.918175,-2.066685,-0.572629,-0.2639059,0.2562535,-4.671568,-1.51253,-0.645527,-0.06769732,172.17.160.76,0.0.0.0,1,walking,0,2014-11-13 21:43:44.306,669,2014-11-13 21:42:44.967,0
2014-11-13 21:43:45.054,14156,471.8667,40.10425,-88.22172,231,-1,-1,10,165,1415935777,-2.83075,1.089279,1.168625,-19.60268,22.07375,17.3631,335.4777,338.5609,10,-0.3463989,0.5248286,-1.302624,-2.880936,-2.080581,-0.4619568,-0.4282794,-1.843065,-2.665192,-1.693082,-0.1164923,-0.3201402,172.17.160.76,0.0.0.0,1,walking,0,2014-11-13 21:43:44.306,669,2014-11-13 21:42:44.967,0
2014-11-13 21:43:45.087,14157,471.9,40.10425,-88.22172,231,-1,-1,10,165,1415935777,4.118607,0.4067841,3.870499,-22.01476,19.73125,17.69797,339.2935,342.3767,10,-0.763854,26.79914,-11.72445,-2.873916,-1.804613,-0.2859916,-3.086399,19.30322,-8.442538,0.08909964,1.244655,1.177713,172.17.160.76,0.0.0.0,1,walking,0,2014-11-13 21:43:44.306,669,2014-11-13 21:42:44.967,0
2014-11-13 21:43:45.120,14158,471.9333,40.10425,-88.22172,231,-1,-1,10,165,1415935777,1.150681,-0.3103638,-0.8685303,-23.49646,12.32487,5.675934,315.6926,318.7758,10,-0.5850531,26.08122,-8.274834,-2.952173,-0.9540631,0.05094983,-0.5499153,29.73577,-11.20366,4.521806,0.4322602,2.852663,172.17.160.76,0.0.0.0,1,walking,0,2014-11-13 21:43:44.306,669,2014-11-13 21:42:44.967,0
2014-11-13 21:43:45.152,14159,471.9667,40.10425,-88.22172,231,-1,-1,10,165,1415935777,1.346542,1.674103,-0.8603363,-16.22576,4.022804,-13.37839,355.9817,359.0648,10,3.991576,12.62354,0.2935464,-3.072217,-0.2559076,0.1890648,3.600021,17.41808,-1.548149,0.8089768,0.2696512,0.2149194,172.17.160.76,0.0.0.0,1,walking,0,2014-11-13 21:43:44.306,669,2014-11-13 21:42:44.967,0
2014-11-13 21:43:45.186,14160,472,40.10425,-88.22172,231,-1,-1,10,165,1415935777,-0.08070374,0.516983,1.297333,-10.09219,-0.1110077,-22.62094,4.887482,7.970673,10,5.750873,0.7665989,2.120327,-3.028214,0.01276472,0.3215303,5.189386,4.045262,2.155416,0.7529807,1.985925,0.8843751,172.17.160.76,0.0.0.0,1,walking,0,2014-11-13 21:43:44.306,669,2014-11-13 21:42:44.967,0
2014-11-13 21:43:45.220,14161,472.0334,40.10425,-88.22172,231,-1,-1,10,165,1415935777,0.9618988,-2.419388,0.9613037,-0.8229179,-6.208374,-29.15091,21.00538,24.08857,10,6.99998,-3.852522,1.045766,-2.987003,0.001035093,0.4420509,6.503765,-1.907897,1.721089,-0.08163933,0.9447772,2.201209,172.17.160.76,0.0.0.0,1,walking,0,2014-11-13 21:43:44.306,669,2014-11-13 21:42:44.967,0
2014-11-13 21:43:45.253,14162,472.0667,40.10425,-88.22172,231,-1,-1,10,165,1415935777,-0.5388794,-0.8614349,-0.2614288,-2.752579,-12.82246,-26.73984,17.73751,20.8207,10,4.624594,-5.386537,-0.3312211,-2.929512,-0.204573,0.7164406,6.111093,-4.326101,0.8733773,0.8451448,-3.335346,1.591404,172.17.160.76,0.0.0.0,1,walking,0,2014-11-13 21:43:44.306,669,2014-11-13 21:42:44.967,0
2014-11-13 21:43:45.287,14163,472.1,40.10425,-88.22172,231,-1,-1,10,165,1415935777,-0.821579,-1.714981,-0.0688324,-4.92345,-15.81947,-24.2283,16.67304,19.75623,10,6.117266,-2.48725,-0.7195987,-2.842666,-0.4590907,0.9168457,5.931339,-3.936882,-0.9305424,-0.5296856,-0.3644707,0.3118023,172.17.160.76,0.0.0.0,1,walking,0,2014-11-13 21:43:44.306,669,2014-11-13 21:42:44.967,0
2014-11-13 21:43:45.320,14164,472.1334,40.10425,-88.22172,231,-1,-1,10,165,1415935777,-0.6965485,-1.994781,-0.1463776,-7.88686,-21.7446,-17.9996,14.32739,17.41058,10,6.002558,3.313789,-0.7979537,-2.694717,-0.6228008,1.085003,6.153602,0.5734633,-0.6634826,-0.5492246,-0.8306763,0.3104144,172.17.160.76,0.0.0.0,1,walking,0,2014-11-13 21:43:44.306,669,2014-11-13 21:42:44.967,0
2014-11-13 21:43:45.353,14165,472.1667,40.10425,-88.22172,231,-1,-1,10,165,1415935777,-0.1323853,-1.999008,-0.4335785,-6.887566,-25.77506,-13.21097,6.004837,9.088028,10,5.52161,5.272212,-0.2466069,-2.314687,-0.8369166,1.282665,5.728885,5.158353,-0.4148372,-0.2829905,-1.044168,-0.06630375,172.17.160.76,0.0.0.0,1,walking,0,2014-11-13 21:43:44.306,669,2014-11-13 21:42:44.967,0
2014-11-13 21:43:45.387,14166,472.2,40.10425,-88.22172,231,-1,-1,10,165,1415935777,0.2872772,-2.324356,-0.04240417,-6.060566,-27.49749,-10.73288,4.686485,7.769676,10,4.71823,2.416291,0.2997018,-1.439798,-1.506293,1.383543,5.188632,3.190117,0.06616419,0.3427871,-1.035761,-0.4608854,172.17.160.76,0.0.0.0,1,walking,0,2014-11-13 21:43:44.306,669,2014-11-13 21:42:44.967,0
2014-11-13 21:43:45.420,14167,472.2334,40.10425,-88.22172,231,-1,-1,10,165,1415935777,0.005264282,-2.758881,0.5944672,-4.096443,-28.97876,-5.6763,355.4598,358.543,10,3.157025,1.823181,0.3162237,-0.8062696,-2.058095,1.341937,3.899848,2.00778,0.4479589,0.4273729,-1.471097,0.05823096,172.17.160.76,0.0.0.0,1,walking,0,2014-11-13 21:43:44.306,669,2014-11-13 21:42:44.967,0
2014-11-13 21:43:45.453,14168,472.2667,40.10425,-88.22172,231,-1,-1,10,165,1415935777,-0.2851562,-2.906769,0.6394653,-3.4762,-30.08111,-1.791809,345.8871,348.9702,10,0.9264751,0.5598801,-0.2361699,-0.5574074,-2.249912,1.292319,1.68951,1.164029,0.01658471,0.007114416,-2.184353,0.5588145,172.17.160.76,0.0.0.0,1,walking,0,2014-11-13 21:43:44.306,669,2014-11-13 21:42:44.967,0
2014-11-13 21:43:45.487,14169,472.3,40.10425,-88.22172,231,-1,-1,10,165,1415935777,-0.1327362,-1.55748,-0.1347351,-3.062702,-30.15,-0.6532288,342.625,345.7082,10,-0.2929219,-1.627703,-0.1412213,-0.4850318,-2.314208,1.287212,0.07005949,-0.5904363,-0.3910148,-0.06019663,-1.204248,-0.01914171,172.17.160.76,0.0.0.0,1,walking,0,2014-11-13 21:43:44.306,669,2014-11-13 21:42:44.967,0
2014-11-13 21:43:45.520,14170,472.3333,40.10425,-88.22172,231,-1,-1,10,165,1415935777,-0.4126892,-1.16568,-0.02377319,-2.821495,-30.94232,-0.1508789,343.1588,346.242,10,-0.3683804,-1.36156,0.2033214,-0.4872982,-2.35372,1.294655,-0.2613758,-1.686014,0.001451108,0.05204551,-0.4054237,-0.3738605,172.17.160.76,0.0.0.0,1,walking,0,2014-11-13 21:43:44.306,669,2014-11-13 21:42:44.967,0
2014-11-13 21:43:45.553,14171,472.3667,40.10425,-88.22172,231,-1,-1,10,165,1415935777,-0.4849091,-1.198364,0.3392487,-3.062702,-30.83897,-0.3852844,346.3551,349.4383,10,-0.6973897,0.3856646,0.5152152,-0.5267612,-2.355421,1.297256,-0.4195243,-0.8546216,0.3365422,-0.2215227,-0.2028593,-0.2146442,172.17.160.76,0.0.0.0,1,walking,0,2014-11-13 21:43:44.306,669,2014-11-13 21:42:44.967,0
2014-11-13 21:43:45.587,14172,472.4,40.10425,-88.22172,231,-1,-1,10,165,1415935777,-0.004928589,-1.008911,0.3195343,-3.303913,-30.94232,-0.7536926,348.5706,351.6538,10,-1.397743,2.322387,0.28708,-0.6512789,-2.209974,1.301262,-0.9698904,1.830192,0.4068767,-0.1807703,-0.1875944,0.2197997,172.17.160.76,0.0.0.0,1,walking,0,2014-11-13 21:43:44.306,669,2014-11-13 21:42:44.967,0
2014-11-13 21:43:45.620,14173,472.4333,40.10425,-88.22172,231,-1,-1,10,165,1415935777,0.1124725,-0.9744415,0.243576,-3.545116,-30.49448,-2.193634,347.1989,350.2821,10,-1.681597,1.587064,0.5475182,-0.7975834,-2.000036,1.31246,-1.468237,2.330439,0.3466266,0.227368,-0.04209477,0.213212,172.17.160.76,0.0.0.0,1,walking,0,2014-11-13 21:43:44.306,669,2014-11-13 21:42:44.967,0
2014-11-13 21:43:45.653,14174,472.4667,40.10425,-88.22172,231,-1,-1,10,165,1415935777,0.04298401,-0.8607025,0.2371521,-3.786327,-30.11556,-4.571198,341.9301,345.0133,10,-1.713799,-0.1827914,0.8769315,-1.061898,-1.686359,1.30635,-1.643663,0.487084,0.7961283,0.3738285,0.03057546,0.1622448,172.17.160.76,0.0.0.0,1,walking,0,2014-11-13 21:43:44.306,669,2014-11-13 21:42:44.967,0
2014-11-13 21:43:45.687,14175,472.5,40.10425,-88.22172,231,-1,-1,10,165,1415935777,-0.06632996,-0.8186798,0.2819519,-4.234283,-30.01221,-5.743256,341.1132,344.1964,10,-1.743797,-1.521135,0.9389925,-1.299369,-1.484529,1.268957,-1.65091,-1.290262,0.9789241,0.3016492,0.1148866,0.2908724,172.17.160.76,0.0.0.0,1,walking,0,2014-11-13 21:43:44.306,669,2014-11-13 21:42:44.967,0
2014-11-13 21:43:45.720,14176,472.5334,40.10425,-88.22172,231,-1,-1,10,165,1415935777,-0.1701813,-0.8109131,0.2279205,-6.232868,-29.11655,-7.417633,341.8982,344.9814,10,-1.787603,-1.774244,0.9070407,-1.448689,-1.388469,1.234069,-1.736277,-1.637076,0.9179744,0.2211331,0.1351099,0.3213212,172.17.160.76,0.0.0.0,1,walking,0,2014-11-13 21:43:44.306,669,2014-11-13 21:42:44.967,0
2014-11-13 21:43:45.754,14177,472.5667,40.10425,-88.22172,231,-1,-1,10,165,1415935777,-0.2351532,-0.8981323,0.2291565,-7.955788,-28.56537,-8.623138,343.7368,346.8199,10,-1.621556,-1.863106,0.9696399,-1.572795,-1.324266,1.195605,-1.608641,-1.786519,0.9761523,0.1613247,0.09092955,0.314206,172.17.160.76,0.0.0.0,1,walking,0,2014-11-13 21:43:44.306,669,2014-11-13 21:42:44.967,0
2014-11-13 21:43:45.787,14178,472.6,40.10425,-88.22172,231,-1,-1,10,165,1415935777,-0.2545624,-0.8445129,0.1991272,-9.127365,-27.66972,-9.225922,346.3692,349.4524,10,-1.588173,-1.54618,0.5858659,-1.669128,-1.288484,1.155954,-1.510213,-1.716118,0.8774366,0.1405545,0.01481972,0.3413441,172.17.160.76,0.0.0.0,1,walking,0,2014-11-13 21:43:44.306,669,2014-11-13 21:42:44.967,0
2014-11-13 21:43:45.820,14179,472.6334,40.10425,-88.22172,231,-1,-1,10,165,1415935777,-0.2271576,-0.7684937,0.1095734,-11.02256,-27.0152,-10.39798,348.768,351.8512,10,-1.452606,-1.2172,0.2569697,-1.759604,-1.251615,1.124163,-1.506539,-1.343106,0.4611631,0.1547444,0.0873924,0.3087073,172.17.160.76,0.0.0.0,1,walking,0,2014-11-13 21:43:44.306,669,2014-11-13 21:42:44.967,0
2014-11-13 21:43:45.853,14180,472.6667,40.10425,-88.22172,231,-1,-1,10,165,1415935777,-0.1707153,-0.7382355,0.09356689,-12.50427,-26.15399,-11.03415,352.046,355.1292,10,-1.26781,-1.257599,0.1244413,-1.842712,-1.212473,1.101667,-1.314822,-1.118673,0.221732,0.1962374,0.1234684,0.2681303,172.17.160.76,0.0.0.0,1,walking,0,2014-11-13 21:43:44.306,669,2014-11-13 21:42:44.967,0
2014-11-13 21:43:45.887,14181,472.7,40.10425,-88.22172,231,-1,-1,10,165,1415935777,-0.2017517,-0.8306274,0.0887146,-12.71103,-26.22289,-11.30203,352.2935,355.3766,10,-1.253225,-1.917873,0.06889705,-1.9359,-1.179425,1.079085,-1.165335,-1.440852,0.06025327,0.2771796,0.1431075,0.2663265,172.17.160.76,0.0.0.0,1,walking,0,2014-11-13 21:43:44.306,669,2014-11-13 21:42:44.967,0
2014-11-13 21:43:45.919,14182,472.7334,40.10425,-88.22172,231,-1,-1,10,165,1415935777,-0.2567139,-0.8124237,0.1040344,-13.4691,-25.7406,-11.23508,355.3161,358.3993,10,-1.309089,-2.279801,0.1192129,-1.980515,-1.174013,1.068774,-1.190242,-1.849742,0.08473033,0.2659731,0.07012324,0.2604088,172.17.160.76,0.0.0.0,1,walking,0,2014-11-13 21:43:44.306,669,2014-11-13 21:42:44.967,0
2014-11-13 21:43:45.953,14183,472.7667,40.10425,-88.22172,231,-1,-1,10,165,1415935777,-0.3300629,-0.8570251,0.1782837,-14.74406,-25.01719,-11.06766,0.6846154,3.767806,10,-1.445581,-2.748069,0.01217145,-2.097189,-1.187934,1.039508,-1.381521,-2.60864,0.04217526,0.2064743,0.07017813,0.304444,172.17.160.76,0.0.0.0,1,walking,0,2014-11-13 21:43:44.306,669,2014-11-13 21:42:44.967,0
2014-11-13 21:43:45.987,14184,472.8,40.10425,-88.22172,231,-1,-1,10,165,1415935777,-0.4086151,-0.7880859,0.1729279,-15.74335,-24.43156,-10.96719,4.55379,7.636981,10,-1.455667,-2.891619,0.1388311,-2.194122,-1.213934,1.017179,-1.362734,-2.793951,0.1281705,0.1292549,-0.009814808,0.3724358,172.17.160.76,0.0.0.0,1,walking,0,2014-11-13 21:43:44.306,669,2014-11-13 21:42:44.967,0
2014-11-13 21:43:46.020,14185,472.8333,40.10425,-88.22172,231,-1,-1,10,165,1415935777,-0.4059448,-0.6898804,0.1505585,-16.50144,-23.6737,-10.69931,8.969327,12.05252,10,-1.499366,-2.895879,0.1347264,-2.217733,-1.222049,1.010988,-1.392686,-2.823489,0.1546641,0.1128418,0.01418128,0.3705333,172.17.160.76,0.0.0.0,1,walking,0,2014-11-13 21:43:44.306,669,2014-11-13 21:42:44.967,0
