time,timestamp,recordtime,lat,long,alt,speed,course,verticalAccuracy,horizontalAccuracy,locTimeStamp,accelerationX,accelerationY,accelerationZ,HeadingX,HeadingY,HeadingZ,TrueHeading,MagneticHeading,HeadingAccuracy,RotationX,RotationY,RotationZ,motionYaw,motionRoll,motionPitch,motionRotationRateX,motionRotationRateY,motionRotationRateZ,motionUserAccelerationX,motionUserAccelerationY,motionUserAccelerationZ,en0,pdp_ip0,DeviceOrientation,Activity,Activity Confidence,Activity Start,Steps,Last Step Date,State
2014-11-13 21:43:50.253,14312,477.0667,40.10425,-88.22172,231,-1,-1,10,165,1415935777,-0.5699615,-0.7885437,0.200943,-23.80658,-19.95323,10.59836,80.69672,83.77991,10,-0.00513777,-0.04625645,-0.07558957,3.038127,-1.912201,0.9192453,0.04172834,-0.003152844,-0.05673554,0.003916247,0.005196658,-0.001101253,172.17.160.76,0.0.0.0,1,stationary,1,2014-11-13 21:43:49.874,669,2014-11-13 21:42:44.967,0
2014-11-13 21:43:50.287,14313,477.1,40.10425,-88.22172,231,-1,-1,10,165,1415935777,-0.5602112,-0.8039551,0.2007599,-24.35791,-20.15993,10.73233,80.39251,83.4757,10,0.02150263,-0.01430384,-0.06384476,3.044424,-1.915708,0.9209037,0.07799463,0.04255278,-0.05238465,0.002721817,-0.004815566,-0.006838693,172.17.160.76,0.0.0.0,1,stationary,1,2014-11-13 21:43:49.874,669,2014-11-13 21:42:44.967,0
2014-11-13 21:43:50.320,14314,477.1334,40.10425,-88.22172,231,-1,-1,10,165,1415935777,-0.5669556,-0.8318939,0.2033691,-24.42683,-20.22881,10.5314,80.36463,83.44782,10,0.04058391,-0.03427115,-0.03323838,3.049036,-1.917761,0.9221154,0.08969155,0.05645672,-0.03962053,0.01045657,-0.009652383,-0.004627631,172.17.160.76,0.0.0.0,1,stationary,1,2014-11-13 21:43:49.874,669,2014-11-13 21:42:44.967,0
2014-11-13 21:43:50.353,14315,477.1667,40.10425,-88.22172,231,-1,-1,10,165,1415935777,-0.5696106,-0.8499603,0.1972198,-24.15116,-20.22881,10.73227,80.33532,83.41851,10,0.04487213,-0.04923759,-0.04500955,3.053858,-1.920355,0.9229528,0.1097101,0.02359755,-0.01436792,0.001253333,-0.04370793,-0.007535046,172.17.160.76,0.0.0.0,1,stationary,1,2014-11-13 21:43:49.874,669,2014-11-13 21:42:44.967,0
2014-11-13 21:43:50.387,14316,477.2,40.10425,-88.22172,231,-1,-1,10,165,1415935777,-0.5678406,-0.8213196,0.1848907,-23.49646,-20.05656,10.69876,80.35764,83.44083,10,0.0193713,-0.06008251,-0.07575415,3.058801,-1.923497,0.9243544,0.09699219,0.01382569,-0.0430386,-0.004339262,-0.05172827,-0.01085204,172.17.160.76,0.0.0.0,1,stationary,1,2014-11-13 21:43:49.874,669,2014-11-13 21:42:44.967,0
2014-11-13 21:43:50.420,14317,477.2334,40.10425,-88.22172,231,-1,-1,10,165,1415935777,-0.5577698,-0.8060608,0.1817322,-23.49646,-20.12547,10.63177,80.36207,83.44526,10,0.008714662,-0.03347221,-0.07026671,3.063782,-1.927206,0.9250844,0.07678934,0.01157438,-0.06102009,-0.003891116,-0.02264803,-0.02507297,172.17.160.76,0.0.0.0,1,stationary,1,2014-11-13 21:43:49.874,669,2014-11-13 21:42:44.967,0
2014-11-13 21:43:50.453,14318,477.2667,40.10425,-88.22172,231,-1,-1,10,165,1415935777,-0.54776,-0.8027496,0.1946106,-23.90997,-19.64319,10.56482,80.32458,83.40777,10,0.000154996,0.001741707,-0.05094254,3.066956,-1.927101,0.9272169,0.07248407,0.05850304,-0.03846841,0.007961106,-0.006504529,-0.02350392,172.17.160.76,0.0.0.0,1,stationary,1,2014-11-13 21:43:49.874,669,2014-11-13 21:42:44.967,0
2014-11-13 21:43:50.487,14319,477.3,40.10425,-88.22172,231,-1,-1,10,165,1415935777,-0.5282135,-0.7901917,0.203949,-24.01333,-19.95323,10.53128,80.24305,83.32624,10,-0.03832155,0.03287992,-0.01029818,3.069438,-1.925509,0.9290275,0.0265757,0.0906213,-0.009472911,0.02620641,0.01194514,-0.008417538,172.17.160.76,0.0.0.0,1,stationary,1,2014-11-13 21:43:49.874,669,2014-11-13 21:42:44.967,0
2014-11-13 21:43:50.520,14320,477.3333,40.10425,-88.22172,231,-1,-1,10,165,1415935777,-0.5115204,-0.8167877,0.2117157,-23.94441,-19.74654,10.73218,80.2285,83.31169,10,-0.05118303,0.01389531,0.007695204,3.070291,-1.923158,0.9284475,0.01889821,0.09926319,0.0225039,0.04748475,-0.002760682,0.00201964,172.17.160.76,0.0.0.0,1,stationary,1,2014-11-13 21:43:49.874,669,2014-11-13 21:42:44.967,0
2014-11-13 21:43:50.553,14321,477.3667,40.10425,-88.22172,231,-1,-1,10,165,1415935777,-0.526947,-0.8156738,0.209549,-24.32344,-19.84989,10.29688,80.11523,83.19843,10,-0.06193234,-0.09978971,0.008198275,3.070839,-1.9222,0.9286291,0.004971168,0.008948053,0.02207597,0.04811065,-0.01655267,0.001479388,172.17.160.76,0.0.0.0,1,stationary,1,2014-11-13 21:43:49.874,669,2014-11-13 21:42:44.967,0
2014-11-13 21:43:50.587,14322,477.4,40.10425,-88.22172,231,-1,-1,10,165,1415935777,-0.5537109,-0.8205566,0.210556,-24.80586,-19.5743,10.49783,79.97952,83.06271,10,-0.05437403,-0.163909,-0.03993437,3.071342,-1.925491,0.9291874,0.006028947,-0.09536457,-0.001835837,0.02352659,-0.0119002,0.004073014,172.17.160.76,0.0.0.0,1,unknown,1,2014-11-13 21:43:50.493,669,2014-11-13 21:42:44.967,0
2014-11-13 21:43:50.620,14323,477.4333,40.10425,-88.22172,231,-1,-1,10,165,1415935777,-0.5695038,-0.8202057,0.2142487,-25.04707,-19.74654,10.46436,79.89892,82.98211,10,-0.04893585,-0.1269204,-0.066297,3.072418,-1.929368,0.9306212,0.005071552,-0.08605693,-0.03575495,-0.0005613389,-0.0187791,0.0002112966,172.17.160.76,0.0.0.0,1,unknown,1,2014-11-13 21:43:50.493,669,2014-11-13 21:42:44.967,0
2014-11-13 21:43:50.653,14324,477.4667,40.10425,-88.22172,231,-1,-1,10,165,1415935777,-0.5713501,-0.8226471,0.2118683,-24.56466,-20.09103,10.66525,79.82067,82.90386,10,-0.05744039,-0.08652131,-0.06392945,3.073788,-1.932338,0.9320995,0.01687562,-0.04580403,-0.05151057,-0.01007774,-0.02126913,0.002144896,172.17.160.76,0.0.0.0,1,unknown,1,2014-11-13 21:43:50.493,669,2014-11-13 21:42:44.967,0
2014-11-13 21:43:50.687,14325,477.5,40.10425,-88.22172,231,-1,-1,10,165,1415935777,-0.5564117,-0.8068848,0.2064514,-23.97887,-19.98769,10.76575,79.7943,82.87749,10,-0.06273875,-0.07382336,-0.07127312,3.075004,-1.934015,0.933406,0.001843523,-0.01297137,-0.05013306,-0.01344274,-0.01524193,-0.001515078,172.17.160.76,0.0.0.0,1,unknown,1,2014-11-13 21:43:50.493,669,2014-11-13 21:42:44.967,0
2014-11-13 21:43:50.720,14326,477.5334,40.10425,-88.22172,231,-1,-1,10,165,1415935777,-0.5567322,-0.7965546,0.20961,-23.6343,-19.91879,10.83273,79.80286,82.88605,10,-0.0595805,-0.09288786,-0.06289348,3.075874,-1.934859,0.9355046,0.001847281,-0.01404974,-0.0522617,-0.00244217,-0.001696242,-0.006952747,172.17.160.76,0.0.0.0,1,unknown,1,2014-11-13 21:43:50.493,669,2014-11-13 21:42:44.967,0
2014-11-13 21:43:50.753,14327,477.5667,40.10425,-88.22172,231,-1,-1,10,165,1415935777,-0.5565033,-0.7832184,0.2128601,-23.70322,-19.781,10.96667,79.82689,82.91008,10,-0.07134635,-0.1066239,-0.05336842,3.076393,-1.936027,0.9364592,-0.003532474,-0.03628191,-0.04174231,-5.034679e-05,0.01614283,0.0002884305,172.17.160.76,0.0.0.0,1,unknown,1,2014-11-13 21:43:50.493,669,2014-11-13 21:42:44.967,0
2014-11-13 21:43:50.787,14328,477.6,40.10425,-88.22172,231,-1,-1,10,165,1415935777,-0.5618286,-0.7890778,0.225647,-23.94442,-19.95324,10.93323,79.83003,82.91322,10,-0.07254584,-0.1052252,-0.008774317,3.076373,-1.937706,0.9362725,-0.0132451,-0.04236614,-0.003519408,-0.008139717,0.01943485,0.007178764,172.17.160.76,0.0.0.0,1,unknown,1,2014-11-13 21:43:50.493,669,2014-11-13 21:42:44.967,0
2014-11-13 21:43:50.820,14329,477.6334,40.10425,-88.22172,231,-1,-1,10,165,1415935777,-0.5588531,-0.7990417,0.2294006,-24.08226,-19.74654,10.66531,79.79949,82.88268,10,-0.07893663,-0.08926703,-0.006543387,3.076509,-1.938807,0.9354768,-0.01008295,-0.03375647,0.01137721,-0.006982918,0.01345454,0.016624,172.17.160.76,0.0.0.0,1,unknown,1,2014-11-13 21:43:50.493,669,2014-11-13 21:42:44.967,0
2014-11-13 21:43:50.853,14330,477.6667,40.10425,-88.22172,231,-1,-1,10,165,1415935777,-0.5489197,-0.8018646,0.2254333,-23.53092,-19.60876,11.00015,79.79842,82.88161,10,-0.06715081,-0.07877471,-0.02351598,3.076506,-1.940243,0.9346391,-0.0133539,-0.02120962,0.003053532,-0.0001156574,0.004030717,0.01091595,172.17.160.76,0.0.0.0,1,unknown,1,2014-11-13 21:43:50.493,669,2014-11-13 21:42:44.967,0
2014-11-13 21:43:50.887,14331,477.7,40.10425,-88.22172,231,-1,-1,10,165,1415935777,-0.5582428,-0.8217163,0.2211914,-23.2208,-19.98769,11.10059,79.87595,82.95914,10,-0.07035059,-0.09793189,-0.02785081,3.077093,-1.941662,0.9350061,-0.006915175,-0.01812294,-0.009693148,0.00215756,-0.00675285,0.005689977,172.17.160.76,0.0.0.0,1,unknown,1,2014-11-13 21:43:50.493,669,2014-11-13 21:42:44.967,0
2014-11-13 21:43:50.920,14332,477.7334,40.10425,-88.22172,231,-1,-1,10,165,1415935777,-0.5541229,-0.8236237,0.2235718,-23.11742,-20.09103,11.20105,79.9274,83.01059,10,-0.06595451,-0.09294059,-0.07030026,3.077424,-1.943116,0.9358612,-0.006862358,-0.03741845,-0.03208755,-0.004198584,-0.01849823,0.006188648,172.17.160.76,0.0.0.0,1,unknown,1,2014-11-13 21:43:50.493,669,2014-11-13 21:42:44.967,0
2014-11-13 21:43:50.953,14333,477.7667,40.10425,-88.22172,231,-1,-1,10,165,1415935777,-0.5499115,-0.8160248,0.2072601,-23.35863,-20.19438,10.96664,79.98237,83.06556,10,-0.06371134,-0.08576711,-0.1052998,3.078686,-1.945181,0.9377311,-0.002474777,-0.01856668,-0.0680972,-0.002904051,-0.01459817,0.009383722,172.17.160.76,0.0.0.0,1,unknown,1,2014-11-13 21:43:50.493,669,2014-11-13 21:42:44.967,0
2014-11-13 21:43:50.987,14334,477.8,40.10425,-88.22172,231,-1,-1,10,165,1415935777,-0.5549011,-0.8094177,0.1999512,-23.39308,-19.67766,11.06708,80.01097,83.09416,10,-0.1053174,-0.1250626,-0.1053509,3.080069,-1.946943,0.9404054,-0.01852483,-0.03266216,-0.08819015,-0.001661932,-0.008227643,-0.009272076,172.17.160.76,0.0.0.0,1,unknown,1,2014-11-13 21:43:50.493,669,2014-11-13 21:42:44.967,0
2014-11-13 21:43:51.020,14335,477.8333,40.10425,-88.22172,231,-1,-1,10,165,1415935777,-0.4903717,-0.7281189,0.1747894,-23.53091,-19.74655,11.20099,80.03313,83.11633,10,-0.05481292,-0.04091841,-0.2165525,3.07913,-1.946904,0.9449428,-0.0001631372,0.006112255,-0.159173,0.004483826,0.02335406,-0.01153368,172.17.160.76,0.0.0.0,1,unknown,1,2014-11-13 21:43:50.493,669,2014-11-13 21:42:44.967,0
2014-11-13 21:43:51.053,14336,477.8667,40.10425,-88.22172,231,-1,-1,10,165,1415935777,-0.4675903,-0.7524109,0.1383362,-23.42753,-20.05659,11.16748,81.44183,84.52502,10,-0.1645799,-0.1357067,-0.2527311,3.082913,-1.949363,0.9509736,-0.03189978,-0.003003827,-0.2429586,0.06361049,0.0879988,-0.07533252,172.17.160.76,0.0.0.0,1,unknown,1,2014-11-13 21:43:50.493,669,2014-11-13 21:42:44.967,0
2014-11-13 21:43:51.087,14337,477.9,40.10425,-88.22172,231,-1,-1,10,165,1415935777,-0.3832092,-0.711441,0.2157135,-23.35861,-20.81446,11.30139,83.19865,86.28185,10,-0.09064282,0.04429156,-0.3327327,3.081931,-1.951023,0.9588215,-0.1118781,-0.05933009,-0.2493248,0.09114911,0.08768012,-0.03568844,172.17.160.76,0.0.0.0,1,unknown,1,2014-11-13 21:43:50.493,669,2014-11-13 21:42:44.967,0
2014-11-13 21:43:51.119,14338,477.9333,40.10425,-88.22172,231,-1,-1,10,165,1415935777,-0.3209229,-0.8249054,0.1987762,-23.35861,-21.02115,11.36838,83.67307,86.75626,10,-0.2997896,0.1934004,-0.581674,3.090086,-1.946732,0.9750072,-0.1447846,0.376281,-0.5388153,0.1841588,0.0290304,-0.04558048,172.17.160.76,0.0.0.0,1,unknown,1,2014-11-13 21:43:50.493,669,2014-11-13 21:42:44.967,0
2014-11-13 21:43:51.153,14339,477.9667,40.10425,-88.22172,231,-1,-1,10,165,1415935777,-0.3340302,-0.8648376,0.1924133,-23.39307,-21.40009,11.93762,87.00285,90.08604,10,-0.418205,-0.2864688,-0.6761066,3.089345,-1.941645,0.987568,-0.2888276,0.1185205,-0.6085358,0.1923607,0.009783668,-0.000808674,172.17.160.76,0.0.0.0,1,unknown,1,2014-11-13 21:43:50.493,669,2014-11-13 21:42:44.967,0
2014-11-13 21:43:51.187,14340,478,40.10425,-88.22172,231,-1,-1,10,165,1415935777,-0.2141876,-0.9252319,0.1896667,-23.0485,-21.67567,11.87064,88.48251,91.5657,10,-0.430574,-0.7788308,-0.5884271,3.078674,-1.946636,1.02335,-0.3896598,-0.5335398,-0.5680721,0.2218627,-0.02703321,0.01289442,172.17.160.76,0.0.0.0,1,unknown,1,2014-11-13 21:43:50.493,669,2014-11-13 21:42:44.967,0
2014-11-13 21:43:51.220,14341,478.0334,40.10425,-88.22172,231,-1,-1,10,165,1415935777,-0.1836853,-0.9400787,0.1922607,-21.70461,-21.9857,12.10504,93.79339,96.87658,10,-0.401903,-1.018098,-0.6120855,3.075982,-1.950949,1.030029,-0.3684632,-0.7120915,-0.5722761,0.2475885,-0.04831065,-0.001964531,172.17.160.76,0.0.0.0,1,unknown,1,2014-11-13 21:43:50.493,669,2014-11-13 21:42:44.967,0
2014-11-13 21:43:51.253,14342,478.0667,40.10425,-88.22172,231,-1,-1,10,165,1415935777,-0.09568787,-1.067932,0.1072083,-20.25736,-22.67467,12.70782,100.2887,103.3719,10,-0.9479461,-2.615771,-0.5908556,3.059941,-2.007665,1.067341,-0.6220151,-2.011735,-0.6057712,0.289957,-0.08471152,-0.04177516,172.17.160.76,0.0.0.0,1,unknown,1,2014-11-13 21:43:50.493,669,2014-11-13 21:42:44.967,0
2014-11-13 21:43:51.287,14343,478.1,40.10425,-88.22172,231,-1,-1,10,165,1415935777,-0.05154419,-1.155258,0.09919739,-18.84458,-23.67368,13.87988,107.4278,110.511,10,-1.099528,-2.865374,-0.5873564,3.041027,-2.037917,1.084701,-0.8858363,-2.549032,-0.5747069,0.3045487,-0.1499093,-0.09337377,172.17.160.76,0.0.0.0,1,unknown,1,2014-11-13 21:43:50.493,669,2014-11-13 21:42:44.967,0
2014-11-13 21:43:51.320,14344,478.1334,40.10425,-88.22172,231,-1,-1,10,165,1415935777,-0.02783203,-1.215149,0.1362152,-17.84529,-24.12151,14.31522,111.6355,114.7187,10,-2.050256,-3.9103,-0.5627619,2.939286,-2.106236,1.142955,-1.769356,-3.662246,-0.5836299,0.3206302,-0.2697021,-0.103082,172.17.160.76,0.0.0.0,1,unknown,1,2014-11-13 21:43:50.493,669,2014-11-13 21:42:44.967,0
2014-11-13 21:43:51.353,14345,478.1667,40.10425,-88.22172,231,-1,-1,10,165,1415935777,-0.01780701,-1.31778,0.2792206,-15.46768,-25.05162,14.95151,121.5473,124.6305,10,-2.632242,-4.150285,-0.2964759,2.818839,-2.113349,1.188787,-2.386395,-4.06222,-0.3997893,0.2782813,-0.3154602,-0.002811433,172.17.160.76,0.0.0.0,1,unknown,1,2014-11-13 21:43:50.493,669,2014-11-13 21:42:44.967,0
2014-11-13 21:43:51.387,14346,478.2,40.10425,-88.22172,231,-1,-1,10,165,1415935777,0.1187744,-1.292328,0.3917694,-12.74548,-26.3951,14.31522,132.9994,136.0826,10,-3.05397,-4.089938,-0.06954473,2.628269,-2.056806,1.233823,-2.852149,-4.042582,-0.07843593,0.3153721,-0.3620418,0.1702224,172.17.160.76,0.0.0.0,1,unknown,1,2014-11-13 21:43:50.493,669,2014-11-13 21:42:44.967,0
2014-11-13 21:43:51.420,14347,478.2334,40.10425,-88.22172,231,-1,-1,10,165,1415935777,0.2195892,-1.402939,0.4850006,-11.09148,-27.49746,13.84641,141.121,144.2042,10,-3.42104,-4.495038,0.2959078,2.251061,-1.861459,1.281825,-3.267658,-4.268174,0.1342283,0.4569579,-0.3656202,0.3755465,172.17.160.76,0.0.0.0,1,unknown,1,2014-11-13 21:43:50.493,669,2014-11-13 21:42:44.967,0
2014-11-13 21:43:51.453,14348,478.2667,40.10425,-88.22172,231,-1,-1,10,165,1415935777,0.379364,-1.278259,0.599884,-8.472656,-29.83995,11.83713,156.0914,159.1746,10,-3.567211,-4.979583,0.5667045,2.009993,-1.719622,1.289646,-3.456635,-4.627735,0.4907618,0.4939832,-0.4422019,0.4438595,172.17.160.76,0.0.0.0,1,unknown,1,2014-11-13 21:43:50.493,669,2014-11-13 21:42:44.967,0
2014-11-13 21:43:51.487,14349,478.3,40.10425,-88.22172,231,-1,-1,10,165,1415935777,0.2742462,-1.130371,0.6622314,-7.025406,-31.63126,10.16278,167.6281,170.7113,10,-3.508555,-8.346448,1.46906,1.413335,-1.429409,1.255394,-3.467938,-6.796836,0.8583306,0.6251124,-0.2736632,0.6503559,172.17.160.76,0.0.0.0,1,unknown,1,2014-11-13 21:43:50.493,669,2014-11-13 21:42:44.967,0
2014-11-13 21:43:51.520,14350,478.3333,40.10425,-88.22172,231,-1,-1,10,165,1415935777,0.2176971,-1.065292,0.8843536,-6.887577,-32.18243,9.024231,171.9928,175.076,10,-3.205316,-9.746662,2.367056,1.129582,-1.404114,1.196934,-3.355119,-8.879842,1.802273,0.6470478,-0.1662442,0.7971501,172.17.160.76,0.0.0.0,1,unknown,1,2014-11-13 21:43:50.493,669,2014-11-13 21:42:44.967,0
2014-11-13 21:43:51.554,14351,478.3667,40.10425,-88.22172,231,-1,-1,10,165,1415935777,-0.2438354,-0.8415527,0.8083496,-6.439613,-32.69916,7.450287,183.8719,186.9551,10,-3.191558,-10.36973,3.302074,0.9147476,-1.494457,1.115885,-3.096366,-9.964569,2.685114,0.549019,-0.1064912,0.9536299,172.17.160.76,0.0.0.0,1,unknown,1,2014-11-13 21:43:50.493,669,2014-11-13 21:42:44.967,0
2014-11-13 21:43:51.587,14352,478.4,40.10425,-88.22172,231,-1,-1,10,165,1415935777,-0.3999023,-0.6830139,0.7993317,-6.818649,-32.52691,5.876434,199.7875,202.8707,10,-3.152729,-10.39695,3.499221,0.7856913,-1.584332,1.05214,-3.129452,-10.303,3.318222,0.3533647,-0.02403101,0.8686259,172.17.160.76,0.0.0.0,1,unknown,1,2014-11-13 21:43:50.493,669,2014-11-13 21:42:44.967,0
2014-11-13 21:43:51.620,14353,478.4333,40.10425,-88.22172,231,-1,-1,10,165,1415935777,-0.7006683,-0.7323456,0.7806244,-7.438896,-32.11353,5.94339,207.0919,210.175,10,-1.782151,-7.675588,2.899129,0.5532258,-1.788696,0.9252031,-2.338889,-9.201994,3.393239,0.1875426,0.1157291,0.6692622,172.17.160.76,0.0.0.0,1,unknown,1,2014-11-13 21:43:50.493,669,2014-11-13 21:42:44.967,0
2014-11-13 21:43:51.653,14354,478.4667,40.10425,-88.22172,231,-1,-1,10,165,1415935777,-0.7502594,-0.6337585,0.7460938,-9.058434,-30.90783,6.981476,221.663,224.7462,10,-0.8394753,-4.920516,2.091704,0.4018679,-1.966118,0.8370212,-1.076105,-5.781901,2.304703,-0.1403647,0.07004419,0.527199,172.17.160.76,0.0.0.0,1,unknown,1,2014-11-13 21:43:50.493,669,2014-11-13 21:42:44.967,0
2014-11-13 21:43:51.687,14355,478.5,40.10425,-88.22172,231,-1,-1,10,165,1415935777,-0.6876526,-0.6734314,0.7426758,-10.12664,-29.70213,9.158142,229.9991,233.0822,10,-0.06449271,-2.137406,1.752108,0.3409878,-2.049522,0.789257,-0.2649431,-3.291408,1.912478,-0.09594116,0.07507975,0.4171852,172.17.160.76,0.0.0.0,1,unknown,1,2014-11-13 21:43:50.493,669,2014-11-13 21:42:44.967,0
2014-11-13 21:43:51.719,14356,478.5334,40.10425,-88.22172,231,-1,-1,10,165,1415935777,-0.6190491,-0.5691223,0.8752899,-10.60906,-29.15097,9.693909,233.0707,236.1539,10,0.4087223,-1.322937,1.289695,0.296733,-2.101706,0.7287806,0.2642573,-1.447509,1.460751,-0.01101266,0.01099218,0.4159638,172.17.160.76,0.0.0.0,1,unknown,1,2014-11-13 21:43:50.493,669,2014-11-13 21:42:44.967,0
2014-11-13 21:43:51.753,14357,478.5667,40.10425,-88.22172,231,-1,-1,10,165,1415935777,-0.5641327,-0.4480591,1.013214,-11.95293,-28.01417,10.73199,234.586,237.6692,10,0.756799,-1.175418,1.14693,0.2909443,-2.122563,0.7014238,0.662903,-1.146808,1.202901,0.03150871,0.07618371,0.4748468,172.17.160.76,0.0.0.0,1,unknown,1,2014-11-13 21:43:50.493,669,2014-11-13 21:42:44.967,0
2014-11-13 21:43:51.787,14358,478.6,40.10425,-88.22172,231,-1,-1,10,165,1415935777,-0.4574127,-0.2644653,1.166473,-12.95222,-26.5329,11.97101,233.296,236.3792,10,1.605649,-1.919056,1.220508,0.3056184,-2.18928,0.6228223,1.383475,-1.342839,1.179002,0.1484396,0.2693803,0.6444984,172.17.160.76,0.0.0.0,1,unknown,1,2014-11-13 21:43:50.493,669,2014-11-13 21:42:44.967,0
2014-11-13 21:43:51.820,14359,478.6334,40.10425,-88.22172,231,-1,-1,10,165,1415935777,-0.4003448,-0.187027,1.40889,-13.12452,-25.67168,13.21002,231.1006,234.1838,10,1.803534,-2.230074,1.274388,0.3186958,-2.229463,0.5849667,1.667545,-1.852567,1.23682,0.2019089,0.2877063,0.656178,172.17.160.76,0.0.0.0,1,unknown,1,2014-11-13 21:43:50.493,669,2014-11-13 21:42:44.967,0
2014-11-13 21:43:51.853,14360,478.6667,40.10425,-88.22172,231,-1,-1,10,165,1415935777,-0.553894,-0.2804718,1.436508,-12.71102,-23.94925,16.22388,227.4003,230.4835,10,2.903102,-3.619995,1.472063,0.3556856,-2.342927,0.4899887,2.511183,-2.701896,1.244049,0.1894724,0.3082319,0.8402814,172.17.160.76,0.0.0.0,1,walking,0,2014-11-13 21:43:51.730,669,2014-11-13 21:42:44.967,0
2014-11-13 21:43:51.887,14361,478.7,40.10425,-88.22172,231,-1,-1,10,165,1415935777,-0.471756,-0.2544556,1.764557,-11.91848,-21.29672,20.67767,160.764,163.8472,10,3.443552,-3.91665,1.055561,0.3857258,-2.457721,0.3968077,3.202592,-3.718297,1.490864,0.04832933,0.09408711,0.8173526,172.17.160.76,0.0.0.0,1,walking,0,2014-11-13 21:43:51.730,669,2014-11-13 21:42:44.967,0
2014-11-13 21:43:51.920,14362,478.7334,40.10425,-88.22172,231,-1,-1,10,165,1415935777,-0.0559845,-0.3322449,1.966919,-10.67798,-19.5054,22.95483,157.508,160.5912,10,4.390965,-4.808469,0.223607,0.4502364,-2.684925,0.2147388,4.252753,-4.732551,0.4922887,0.2692566,-0.1461454,1.023493,172.17.160.76,0.0.0.0,1,walking,0,2014-11-13 21:43:51.730,669,2014-11-13 21:42:44.967,0
2014-11-13 21:43:51.953,14363,478.7667,40.10425,-88.22172,231,-1,-1,10,165,1415935777,0.02313232,-0.517746,1.8815,-6.818649,-14.61373,28.24585,152.1205,155.2036,10,4.834552,-5.286429,-0.2879594,0.4832595,-2.786612,0.1306477,4.652958,-4.920671,-0.05367931,0.2997646,-0.2244447,0.9883065,172.17.160.76,0.0.0.0,1,walking,0,2014-11-13 21:43:51.730,669,2014-11-13 21:42:44.967,0
2014-11-13 21:43:51.987,14364,478.8,40.10425,-88.22172,231,-1,-1,10,165,1415935777,0.0955658,-0.9601288,1.730606,-0.4438667,-8.447479,31.82904,151.6976,154.7808,10,4.949117,-5.334574,-1.171795,0.5517487,-3.000267,-0.05969775,5.118932,-5.259714,-0.8830427,0.1612041,-0.7895054,0.8436732,172.17.160.76,0.0.0.0,1,walking,0,2014-11-13 21:43:51.730,669,2014-11-13 21:42:44.967,0
2014-11-13 21:43:52.020,14365,478.8333,40.10425,-88.22172,231,-1,-1,10,165,1415935777,0.3057098,-0.925293,1.666077,2.82967,-5.174889,33.26898,144.2729,147.356,10,4.436119,-5.25499,-1.782991,0.5853347,-3.102205,-0.1560894,4.787957,-5.297705,-1.433974,0.1344643,-1.115585,0.7435294,172.17.160.76,0.0.0.0,1,walking,0,2014-11-13 21:43:51.730,669,2014-11-13 21:42:44.967,0
2014-11-13 21:43:52.053,14366,478.8667,40.10425,-88.22172,231,-1,-1,10,165,1415935777,0.7481995,-0.5561066,1.539963,9.44566,1.025826,33.33597,146.7453,149.8284,10,3.575762,-4.725893,-3.397866,0.6673558,3.004167,-0.3281106,3.801115,-4.624168,-2.783306,0.3972925,-1.029073,0.5892039,172.17.160.76,0.0.0.0,1,walking,0,2014-11-13 21:43:51.730,669,2014-11-13 21:42:44.967,0
2014-11-13 21:43:52.087,14367,478.9,40.10425,-88.22172,231,-1,-1,10,165,1415935777,1.39299,-0.7376404,1.790985,12.68473,4.263969,32.80017,139.9869,143.0701,10,3.375727,-5.218607,-4.357169,0.7501864,2.895949,-0.4549023,3.572403,-4.791369,-3.695143,0.6722056,-0.9916664,0.7590027,172.17.160.76,0.0.0.0,1,walking,0,2014-11-13 21:43:51.730,669,2014-11-13 21:42:44.967,0
2014-11-13 21:43:52.120,14368,478.9333,40.10425,-88.22172,231,-1,-1,10,165,1415935777,1.585083,-0.7312927,1.845901,17.71565,10.25799,29.5184,138.5555,141.6387,10,3.340925,-5.645913,-5.651112,0.8566503,2.796562,-0.5918223,3.407758,-5.239912,-4.712727,1.112288,-1.295515,1.009971,172.17.160.76,0.0.0.0,1,walking,0,2014-11-13 21:43:51.730,669,2014-11-13 21:42:44.967,0
2014-11-13 21:43:52.153,14369,478.9667,40.10425,-88.22172,231,-1,-1,10,165,1415935777,0.8842316,-1.209396,1.550125,20.88581,17.14767,24.36136,127.4653,130.5485,10,2.744384,-5.930479,-6.932647,1.065435,2.704741,-0.8061259,3.351699,-6.07352,-6.485336,1.161914,-1.513069,1.243199,172.17.160.76,0.0.0.0,1,walking,0,2014-11-13 21:43:51.730,669,2014-11-13 21:42:44.967,0
2014-11-13 21:43:52.187,14370,479,40.10425,-88.22172,231,-1,-1,10,165,1415935777,0.5941315,-1.634476,0.7266388,19.88652,23.58954,18.36719,243.3866,246.4698,10,1.120273,-4.772812,-7.527637,1.305142,2.715335,-0.9711877,2.317645,-5.551425,-7.064653,0.6509044,-2.034953,1.036301,172.17.160.76,0.0.0.0,1,walking,0,2014-11-13 21:43:51.730,669,2014-11-13 21:42:44.967,0
2014-11-13 21:43:52.220,14371,479.0334,40.10425,-88.22172,231,-1,-1,10,165,1415935777,-0.294693,-1.873169,0.1402283,17.81902,26.621,16.09003,244.9844,248.0676,10,-0.2994352,-3.464974,-8.345512,1.690921,2.903436,-1.085026,0.5981992,-4.175935,-7.806746,0.4839866,-2.518791,0.2729272,172.17.160.76,0.0.0.0,1,walking,0,2014-11-13 21:43:51.730,669,2014-11-13 21:42:44.967,0
2014-11-13 21:43:52.254,14372,479.0667,40.10425,-88.22172,231,-1,-1,10,165,1415935777,-1.72554,-1.993637,0.4081116,10.27266,30.30698,14.44919,251.8041,254.8873,10,-1.563867,-2.651852,-8.107216,2.401549,-2.881515,-1.068557,-1.024799,-2.801211,-8.362384,-0.5256371,-2.816311,-0.3057922,172.17.160.76,0.0.0.0,1,walking,0,2014-11-13 21:43:51.730,669,2014-11-13 21:42:44.967,0
2014-11-13 21:43:52.286,14373,479.1,40.10425,-88.22172,231,-1,-1,10,165,1415935777,-3.197098,-1.129929,0.976059,5.896458,30.89258,15.4873,262.5552,265.6384,10,-1.821,-0.972833,-5.134815,2.836638,-2.602591,-0.8863311,-1.928486,-1.460184,-6.008186,-2.534117,-2.335915,0.3117062,172.17.160.76,0.0.0.0,1,walking,0,2014-11-13 21:43:51.730,669,2014-11-13 21:42:44.967,0
2014-11-13 21:43:52.321,14374,479.1334,40.10425,-88.22172,231,-1,-1,10,165,1415935777,-2.283234,0.5549774,1.088959,-2.442448,29.23907,18.56818,273.4106,276.4938,10,-1.103421,1.692803,-4.144779,2.973273,-2.511305,-0.7696896,-1.243813,0.7180678,-4.128948,-2.648103,-0.7515154,0.5554146,172.17.160.76,0.0.0.0,1,walking,0,2014-11-13 21:43:51.730,669,2014-11-13 21:42:44.967,0
2014-11-13 21:43:52.353,14375,479.1667,40.10425,-88.22172,231,-1,-1,10,165,1415935777,-1.815994,0.9196777,1.339645,-9.368561,26.51767,20.81183,292.9647,296.0479,10,-0.5315278,5.119311,-4.141614,3.070849,-2.366135,-0.6661368,-1.27772,4.067852,-4.051738,-1.497895,0.02085592,0.2423965,172.17.160.76,0.0.0.0,1,walking,0,2014-11-13 21:43:51.730,669,2014-11-13 21:42:44.967,0
2014-11-13 21:43:52.388,14376,479.2,40.10425,-88.22172,231,-1,-1,10,165,1415935777,-1.449463,1.055908,1.884537,-12.33197,25.07083,20.00818,292.8851,295.9683,10,1.612979,7.069629,-2.10239,-3.108552,-2.100935,-0.5387811,0.7911179,5.715798,-2.803566,-1.165184,0.3269214,1.63286,172.17.160.76,0.0.0.0,1,walking,0,2014-11-13 21:43:51.730,669,2014-11-13 21:42:44.967,0
2014-11-13 21:43:52.420,14377,479.2334,40.10425,-88.22172,231,-1,-1,10,165,1415935777,-0.8017273,2.434708,1.116516,-18.74121,22.86613,16.59244,312.3609,315.4441,10,1.612979,7.069629,-2.10239,-3.082554,-2.026597,-0.5245758,1.456984,6.281296,-2.168315,-0.9631379,0.3801202,1.685566,172.17.160.76,0.0.0.0,1,walking,0,2014-11-13 21:43:51.730,669,2014-11-13 21:42:44.967,0
2014-11-13 21:43:52.453,14378,479.2667,40.10425,-88.22172,231,-1,-1,10,165,1415935777,2.667313,-0.4847107,0.1149292,-22.635,16.56207,4.168701,310.0877,313.1709,10,0.9825836,29.86215,-11.37943,-3.032747,-1.379478,-0.2518139,1.740829,24.76019,-11.33987,3.44066,0.7352597,3.683088,172.17.160.76,0.0.0.0,1,walking,0,2014-11-13 21:43:51.730,669,2014-11-13 21:42:44.967,0
2014-11-13 21:43:52.487,14379,479.3,40.10425,-88.22172,231,-1,-1,10,165,1415935777,1.522995,0.7050323,-0.8460083,-16.46696,8.604492,-13.14432,341.118,344.2011,10,4.248829,12.86105,0.9498297,3.114085,-0.5271958,0.03848816,0.6116642,24.122,-7.543141,3.170052,-0.446232,0.9785105,172.17.160.76,0.0.0.0,1,walking,0,2014-11-13 21:43:51.730,669,2014-11-13 21:42:44.967,0
2014-11-13 21:43:52.520,14380,479.3333,40.10425,-88.22172,231,-1,-1,10,165,1415935777,0.6747589,0.6994629,0.741684,-11.60835,4.298439,-21.61667,354.9666,358.0498,10,6.09337,1.988388,1.980055,-3.122868,-0.05642655,0.2086236,5.577182,4.542729,2.720701,1.253584,1.783163,0.9631032,172.17.160.76,0.0.0.0,1,walking,0,2014-11-13 21:43:51.730,669,2014-11-13 21:42:44.967,0
2014-11-13 21:43:52.552,14381,479.3667,40.10425,-88.22172,231,-1,-1,10,165,1415935777,1.015091,-1.078705,0.2022705,-2.028942,-2.660133,-29.51962,4.815574,7.898765,10,6.356979,-2.1937,-0.949292,-3.074877,-0.05295055,0.4553938,6.241354,-1.451878,-0.5795339,1.063081,0.1427121,1.314661,172.17.160.76,0.0.0.0,1,walking,0,2014-11-13 21:43:51.730,669,2014-11-13 21:42:44.967,0
2014-11-13 21:43:52.587,14382,479.4,40.10425,-88.22172,231,-1,-1,10,165,1415935777,-0.1559601,-1.093994,-0.1123505,-2.166771,-10.10098,-29.05081,6.208278,9.291469,10,5.296245,-4.714633,2.301216,-3.051278,-0.1485242,0.6467659,6.267431,-3.673316,1.87237,0.6181993,-2.517676,0.7413383,172.17.160.76,0.0.0.0,1,walking,0,2014-11-13 21:43:51.730,669,2014-11-13 21:42:44.967,0
2014-11-13 21:43:52.620,14383,479.4333,40.10425,-88.22172,231,-1,-1,10,165,1415935777,-0.724762,-1.306351,-0.1957855,-3.820774,-13.7525,-27.71133,10.43204,13.51523,10,4.476719,-5.08701,0.3502584,-2.934708,-0.3726268,0.7790592,4.496422,-5.247349,0.8633663,-0.09679201,-0.2760732,0.5480422,172.17.160.76,0.0.0.0,1,walking,0,2014-11-13 21:43:51.730,669,2014-11-13 21:42:44.967,0
2014-11-13 21:43:52.653,14384,479.4667,40.10425,-88.22172,231,-1,-1,10,165,1415935777,-0.7768097,-1.337982,-0.1856689,-8.851681,-18.98866,-23.358,6.728032,9.811223,10,4.420579,-3.669846,-0.1154896,-2.828603,-0.593664,0.8965749,4.543293,-4.218358,0.07674378,-0.3963769,-0.587215,0.2370758,172.17.160.76,0.0.0.0,1,walking,0,2014-11-13 21:43:51.730,669,2014-11-13 21:42:44.967,0
2014-11-13 21:43:52.687,14385,479.5,40.10425,-88.22172,231,-1,-1,10,165,1415935777,-1.440948,-1.772263,-0.1468048,-12.19413,-21.57227,-18.56931,4.722064,7.805254,10,4.864159,2.195086,0.2831297,-2.609321,-0.8634835,1.038927,5.008173,-0.04077663,0.05241969,-0.818966,-0.8400894,0.2895159,172.17.160.76,0.0.0.0,1,walking,0,2014-11-13 21:43:51.730,669,2014-11-13 21:42:44.967,0
2014-11-13 21:43:52.720,14386,479.5334,40.10425,-88.22172,231,-1,-1,10,165,1415935777,-0.9269714,-1.690796,-0.05729675,-12.67654,-22.81242,-16.0242,3.947195,7.030386,10,4.951445,3.233883,0.237322,-2.438505,-0.9841769,1.094634,4.925868,2.261347,0.2995849,-1.059209,-0.8835021,0.1069264,172.17.160.76,0.0.0.0,1,walking,0,2014-11-13 21:43:51.730,669,2014-11-13 21:42:44.967,0
2014-11-13 21:43:52.754,14387,479.5667,40.10425,-88.22172,231,-1,-1,10,165,1415935777,-0.1313171,-2.911392,-0.161499,-11.29821,-24.94821,-12.54153,353.604,356.6872,10,5.019414,6.683254,0.1405917,-1.989221,-1.208994,1.179694,5.176376,6.323227,0.2775771,-0.3876272,-0.9702861,0.1000662,172.17.160.76,0.0.0.0,1,walking,0,2014-11-13 21:43:51.730,669,2014-11-13 21:42:44.967,0
2014-11-13 21:43:52.787,14388,479.6,40.10425,-88.22172,231,-1,-1,10,165,1415935777,0.2769775,-2.775146,0.1943207,-9.988792,-26.05056,-10.93417,345.8973,348.9805,10,2.90944,4.067577,-0.7930167,-1.585244,-1.387248,1.217029,4.760834,6.001899,-0.2299474,0.209298,-1.973318,-0.09826812,172.17.160.76,0.0.0.0,1,walking,0,2014-11-13 21:43:51.730,669,2014-11-13 21:42:44.967,0
2014-11-13 21:43:52.821,14389,479.6334,40.10425,-88.22172,231,-1,-1,10,165,1415935777,0.3721619,-2.229782,-0.05653381,-8.334797,-28.25527,-8.456146,332.889,335.9722,10,0.1332561,0.4614385,-0.235841,-1.303612,-1.522478,1.247944,1.892329,3.10322,-0.6940923,0.5938801,-1.826812,0.2096448,172.17.160.76,0.0.0.0,1,walking,0,2014-11-13 21:43:51.730,669,2014-11-13 21:42:44.967,0
2014-11-13 21:43:52.853,14390,479.6667,40.10425,-88.22172,231,-1,-1,10,165,1415935777,0.03492737,-1.485306,-0.1130371,-7.507797,-29.15092,-6.580841,327.9561,331.0392,10,-0.6174566,-3.76465,0.5259663,-1.292674,-1.553871,1.25229,-0.5419893,-3.06738,0.3822241,0.4973989,-0.6799191,-0.1658579,172.17.160.76,0.0.0.0,1,walking,0,2014-11-13 21:43:51.730,669,2014-11-13 21:42:44.967,0
2014-11-13 21:43:52.887,14391,479.7,40.10425,-88.22172,231,-1,-1,10,165,1415935777,-0.5482483,-1.161621,-0.008605957,-7.576714,-29.08202,-6.580841,328.137,331.2202,10,-0.6893534,-3.985939,0.6259111,-1.328033,-1.595235,1.241104,-0.5754231,-3.971838,0.6334035,0.1986554,-0.4419196,-0.07744554,172.17.160.76,0.0.0.0,1,walking,0,2014-11-13 21:43:51.730,669,2014-11-13 21:42:44.967,0
2014-11-13 21:43:52.920,14392,479.7334,40.10425,-88.22172,231,-1,-1,10,165,1415935777,-0.5783386,-0.8689575,0.07363892,-8.610458,-28.66862,-5.977997,333.1469,336.2301,10,-1.034971,-1.825704,0.1874511,-1.420703,-1.643538,1.221748,-0.922005,-2.492667,0.3410296,-0.2717086,-0.1207874,-0.007979613,172.17.160.76,0.0.0.0,1,walking,0,2014-11-13 21:43:51.730,669,2014-11-13 21:42:44.967,0
2014-11-13 21:43:52.954,14393,479.7667,40.10425,-88.22172,231,-1,-1,10,165,1415935777,-0.3796997,-0.7679749,0.109375,-9.954327,-28.2897,-6.748199,341.0223,344.1055,10,-0.9862831,0.892527,-0.06484904,-1.505586,-1.598981,1.219899,-0.9479623,-0.2108324,-0.01519148,-0.1747523,0.1288687,0.0879235,172.17.160.76,0.0.0.0,1,walking,0,2014-11-13 21:43:51.730,669,2014-11-13 21:42:44.967,0
2014-11-13 21:43:52.987,14394,479.8,40.10425,-88.22172,231,-1,-1,10,165,1415935777,-0.1338196,-0.6216888,0.2887421,-10.05771,-28.04855,-7.518463,342.1507,345.2339,10,-0.7686144,1.411463,0.002880475,-1.614264,-1.458823,1.219837,-0.9371083,1.481918,-0.002072334,0.09422475,0.195513,0.178583,172.17.160.76,0.0.0.0,1,walking,0,2014-11-13 21:43:51.730,669,2014-11-13 21:42:44.967,0
2014-11-13 21:43:53.020,14395,479.8333,40.10425,-88.22172,231,-1,-1,10,165,1415935777,-0.04196167,-0.5764923,0.2174683,-9.782036,-28.04855,-8.389191,340.885,343.9682,10,-0.7286345,1.11894,0.1041541,-1.66068,-1.385132,1.217249,-0.7069092,1.47772,0.01933462,0.2064584,0.3164614,0.3526555,172.17.160.76,0.0.0.0,1,walking,0,2014-11-13 21:43:51.730,669,2014-11-13 21:42:44.967,0
2014-11-13 21:43:53.053,14396,479.8667,40.10425,-88.22172,231,-1,-1,10,165,1415935777,0.1714325,-0.9348602,0.06611633,-9.678665,-27.94521,-9.695099,339.992,343.0752,10,-1.390198,-0.2674496,0.6608546,-1.738412,-1.268824,1.203128,-0.9986287,0.6369475,0.3864566,0.3436492,0.2455308,0.2561452,172.17.160.76,0.0.0.0,1,walking,0,2014-11-13 21:43:51.730,669,2014-11-13 21:42:44.967,0
2014-11-13 21:43:53.087,14397,479.9,40.10425,-88.22172,231,-1,-1,10,165,1415935777,0.1756287,-0.8047638,0.1627655,-9.782036,-27.49738,-10.59921,339.8284,342.9116,10,-1.468513,-2.080784,0.7163493,-1.817833,-1.19856,1.172574,-1.417582,-0.7585515,0.7362731,0.5326563,-0.01310845,0.2071518,172.17.160.76,0.0.0.0,1,walking,0,2014-11-13 21:43:51.730,669,2014-11-13 21:42:44.967,0
2014-11-13 21:43:53.120,14398,479.9333,40.10425,-88.22172,231,-1,-1,10,165,1415935777,-0.01557922,-0.8679657,0.3585052,-11.12591,-26.42949,-11.23544,341.2245,344.3077,10,-1.439868,-3.473478,0.7609208,-1.918259,-1.191565,1.124084,-1.391663,-3.039763,0.7517616,0.4889858,0.08564913,0.4223508,172.17.160.76,0.0.0.0,1,walking,0,2014-11-13 21:43:51.730,669,2014-11-13 21:42:44.967,0
2014-11-13 21:43:53.153,14399,479.9667,40.10425,-88.22172,231,-1,-1,10,165,1415935777,-0.1265564,-0.9228363,0.4009247,-12.33194,-25.15491,-11.26901,343.5309,346.6141,10,-1.485084,-3.966861,0.4283711,-2.010895,-1.255783,1.077631,-1.406834,-3.919566,0.6091926,0.3567367,-0.03072128,0.5501817,172.17.160.76,0.0.0.0,1,walking,0,2014-11-13 21:43:51.730,669,2014-11-13 21:42:44.967,0
2014-11-13 21:43:53.187,14400,480,40.10425,-88.22172,231,-1,-1,10,165,1415935777,-0.2439423,-0.9003448,0.3370819,-14.08932,-24.91377,-10.09689,347.1961,350.2793,10,-1.426663,-3.697021,-0.1393811,-2.089883,-1.301867,1.05697,-1.410324,-3.729342,0.04762185,0.2871698,-0.05539913,0.4975531,172.17.160.76,0.0.0.0,1,walking,0,2014-11-13 21:43:51.730,669,2014-11-13 21:42:44.967,0
2014-11-13 21:43:53.220,14401,480.0334,40.10425,-88.22172,231,-1,-1,10,165,1415935777,-0.2948151,-0.8720856,0.3026276,-15.12306,-24.91377,-9.427155,350.5126,353.5958,10,-1.239001,-3.386875,-0.4261122,-2.170375,-1.338449,1.053246,-1.234079,-3.423161,-0.3431127,0.2187322,-0.02134709,0.4417277,172.17.160.76,0.0.0.0,1,walking,0,2014-11-13 21:43:51.730,669,2014-11-13 21:42:44.967,0
2014-11-13 21:43:53.253,14402,480.0667,40.10425,-88.22172,231,-1,-1,10,165,1415935777,-0.3282928,-0.838501,0.2876282,-16.74261,-24.74152,-8.456085,1.445801,4.528992,10,-1.122143,-2.874375,-0.5140769,-2.24441,-1.370858,1.058657,-1.105478,-3.072527,-0.4776176,0.1653088,0.00554839,0.3939425,172.17.160.76,0.0.0.0,1,walking,0,2014-11-13 21:43:51.730,669,2014-11-13 21:42:44.967,0
2014-11-13 21:43:53.287,14403,480.1,40.10425,-88.22172,231,-1,-1,10,165,1415935777,-0.2796478,-0.9219055,0.3257599,-16.88044,-24.67263,-8.054291,5.155206,8.238397,10,-1.057779,-2.219613,-0.480087,-2.337323,-1.399778,1.070409,-1.014348,-2.459588,-0.4927764,0.1581302,0.01091134,0.383117,172.17.160.76,0.0.0.0,1,walking,0,2014-11-13 21:43:51.730,669,2014-11-13 21:42:44.967,0
2014-11-13 21:43:53.320,14404,480.1334,40.10425,-88.22172,231,-1,-1,10,165,1415935777,-0.1989441,-0.8888702,0.328186,-17.0872,-23.70808,-7.518524,12.70411,15.7873,10,-1.081218,-2.118503,-0.4592986,-2.381965,-1.40568,1.07642,-0.9960778,-2.15336,-0.4636338,0.1883817,-0.04164077,0.403749,172.17.160.76,0.0.0.0,1,walking,0,2014-11-13 21:43:51.730,669,2014-11-13 21:42:44.967,0
2014-11-13 21:43:53.353,14405,480.1667,40.10425,-88.22172,231,-1,-1,10,165,1415935777,-0.1948395,-0.8971405,0.3079681,-17.12165,-23.39805,-6.681305,17.29006,20.37325,10,-1.211807,-2.333227,-0.3378699,-2.474698,-1.40706,1.087135,-1.076127,-2.125406,-0.4249736,0.25986,-0.003572051,0.4039876,172.17.160.76,0.0.0.0,1,walking,0,2014-11-13 21:43:51.730,669,2014-11-13 21:42:44.967,0
2014-11-13 21:43:53.387,14406,480.2,40.10425,-88.22172,231,-1,-1,10,165,1415935777,-0.1952667,-0.9878693,0.2932129,-17.39732,-23.26025,-6.346405,20.76637,23.84956,10,-1.295713,-2.700717,-0.1813301,-2.551243,-1.406771,1.091468,-1.183432,-2.37166,-0.2560316,0.2601538,-0.009835597,0.3832752,172.17.160.76,0.0.0.0,1,walking,0,2014-11-13 21:43:51.730,669,2014-11-13 21:42:44.967,0
