time,timestamp,recordtime,lat,long,alt,speed,course,verticalAccuracy,horizontalAccuracy,locTimeStamp,accelerationX,accelerationY,accelerationZ,HeadingX,HeadingY,HeadingZ,TrueHeading,MagneticHeading,HeadingAccuracy,RotationX,RotationY,RotationZ,motionYaw,motionRoll,motionPitch,motionRotationRateX,motionRotationRateY,motionRotationRateZ,motionUserAccelerationX,motionUserAccelerationY,motionUserAccelerationZ,en0,pdp_ip0,DeviceOrientation,Activity,Activity Confidence,Activity Start,Steps,Last Step Date,State
2014-11-13 21:15:42.998,12925,430.8333,40.10425,-88.22172,231,-1,-1,10,165,1415934930,0.981781,0.3458252,2.421021,-3.224087,7.576553,41.99304,272.0262,275.1094,10,0.02480229,0.07806098,-0.07398555,1.950461,2.764329,-0.1209451,-0.05585681,0.3183823,-0.02048908,0.5279133,0.3069009,1.192182,172.17.160.76,0.0.0.0,6,walking,0,2014-11-13 21:15:28.635,171,2014-11-13 21:15:41.072,2
2014-11-13 21:15:43.032,12926,430.8667,40.10425,-88.22172,231,-1,-1,10,165,1415934930,1.223801,0.1698151,2.910034,-3.671761,6.991112,42.29477,272.877,275.9602,10,0.3362544,-0.5756269,0.05833708,1.950503,2.766312,-0.1235633,0.2115043,-0.04316391,-0.0403779,0.6180418,0.2225761,1.497709,172.17.160.76,0.0.0.0,6,walking,0,2014-11-13 21:15:28.635,171,2014-11-13 21:15:41.072,2
2014-11-13 21:15:43.065,12927,430.9,40.10425,-88.22172,231,-1,-1,10,165,1415934930,1.161697,-0.4869537,3.368408,-3.637333,7.025551,42.12711,272.5127,275.5959,10,-0.05812349,-1.229257,-0.128326,1.94274,2.743743,-0.1384913,0.5210266,-0.8357564,-0.01068193,0.8963173,-0.2604703,2.233033,172.17.160.76,0.0.0.0,6,walking,0,2014-11-13 21:15:28.635,171,2014-11-13 21:15:41.072,2
2014-11-13 21:15:43.098,12928,430.9333,40.10425,-88.22172,231,-1,-1,10,165,1415934930,0.5245209,-0.7255554,2.663986,-3.15522,6.95668,41.4566,272,275.0832,10,-3.128117,-1.392874,0.1052194,1.945302,2.710911,-0.1405014,-0.6281598,-1.301553,-0.135148,0.5712885,-0.8113043,2.355888,172.17.160.76,0.0.0.0,6,walking,0,2014-11-13 21:15:28.635,171,2014-11-13 21:15:41.072,2
2014-11-13 21:15:43.132,12929,430.9667,40.10425,-88.22172,231,-1,-1,10,165,1415934930,0.3336792,-0.1368103,2.677765,-0.916851,3.685059,40.75262,267.6154,270.6986,10,-7.713696,-1.069032,1.057138,1.979134,2.674826,-0.06434201,-4.628627,-1.263459,0.4404949,-0.08259982,-0.7188386,1.6607,172.17.160.76,0.0.0.0,6,walking,0,2014-11-13 21:15:28.635,171,2014-11-13 21:15:41.072,2
2014-11-13 21:15:43.165,12930,431,40.10425,-88.22172,231,-1,-1,10,165,1415934930,0.3361816,1.381332,1.885376,-0.02150345,-0.2408829,40.01508,258.8351,261.9183,10,-10.22164,-0.2971859,1.804078,2.087701,2.633545,0.2324767,-9.76105,-0.1867901,1.570386,-0.1315432,0.3761402,1.811139,172.17.160.76,0.0.0.0,6,walking,0,2014-11-13 21:15:28.635,171,2014-11-13 21:15:41.072,2
2014-11-13 21:15:43.199,12931,431.0334,40.10425,-88.22172,231,-1,-1,10,165,1415934930,-0.8275299,4.340591,-0.425354,-0.2625542,-12.81079,39.04294,262.0802,265.1634,10,-5.382849,5.53294,0.1119201,2.200241,2.608654,0.5204174,-9.793431,2.24576,1.615161,-0.3350767,2.756626,0.9595437,172.17.160.76,0.0.0.0,6,walking,0,2014-11-13 21:15:28.635,171,2014-11-13 21:15:41.072,2
2014-11-13 21:15:43.231,12932,431.0667,40.10425,-88.22172,231,-1,-1,10,165,1415934930,1.293839,1.518143,-2.656052,-5.152534,-26.51716,35.42236,249.2129,252.2961,10,-7.332514,2.948139,1.17346,2.308771,2.738038,0.7730075,-7.256291,4.67892,1.901889,0.1397599,3.95856,-2.275852,172.17.160.76,0.0.0.0,6,walking,0,2014-11-13 21:15:28.635,171,2014-11-13 21:15:41.072,2
2014-11-13 21:15:43.265,12933,431.1,40.10425,-88.22172,231,-1,-1,10,165,1415934930,1.1698,0.2059174,-0.6128082,-7.59753,-31.71731,31.76828,140.8514,143.9346,10,-6.263308,-7.222368,-1.400875,2.415258,2.668276,0.9712163,-6.604163,-3.681481,-0.4819617,1.13805,1.684169,-2.536102,172.17.160.76,0.0.0.0,6,walking,0,2014-11-13 21:15:28.635,171,2014-11-13 21:15:41.072,2
2014-11-13 21:15:43.297,12934,431.1334,40.10425,-88.22172,231,-1,-1,10,165,1415934930,-0.2325134,0.3275146,0.4629059,-7.666401,-38.94931,23.25323,108.1655,111.2487,10,-3.809477,-11.253,-1.293296,2.493143,2.539791,1.019737,-6.193676,-7.154539,-1.384941,1.097181,1.138423,-1.780848,172.17.160.76,0.0.0.0,6,walking,0,2014-11-13 21:15:28.635,171,2014-11-13 21:15:41.072,2
2014-11-13 21:15:43.331,12935,431.1667,40.10425,-88.22172,231,-1,-1,10,165,1415934930,-4.269058,0.5093384,0.2897644,-1.398964,-42.87526,16.95078,128.1331,131.2163,10,0.06761713,-7.160572,0.8536843,2.796879,1.686982,1.09047,-0.9925315,-12.82139,0.7470869,-1.294845,1.74541,0.7746668,172.17.160.76,0.0.0.0,6,walking,0,2014-11-13 21:15:28.635,171,2014-11-13 21:15:41.072,2
2014-11-13 21:15:43.365,12936,431.2,40.10425,-88.22172,231,-1,-1,10,165,1415934930,-1.576294,0.05625916,0.2057037,4.455235,-44.52829,13.73245,154.4797,157.5629,10,-1.821689,3.40921,-0.609992,2.806586,1.444343,1.116018,-0.4218258,-3.075142,0.2782702,-4.704814,1.407697,0.3451626,172.17.160.76,0.0.0.0,6,walking,0,2014-11-13 21:15:28.635,171,2014-11-13 21:15:41.072,2
2014-11-13 21:15:43.398,12937,431.2334,40.10425,-88.22172,231,-1,-1,10,165,1415934930,-0.6680603,1.02919,-0.09248352,5.247276,-44.90711,12.62613,159.3766,162.4598,10,-1.00731,7.900016,-2.620008,2.943249,1.465592,1.079296,-1.924841,7.003788,-1.436763,-1.749674,1.325199,0.2180015,172.17.160.76,0.0.0.0,6,walking,0,2014-11-13 21:15:28.635,171,2014-11-13 21:15:41.072,2
2014-11-13 21:15:43.432,12938,431.2667,40.10425,-88.22172,231,-1,-1,10,165,1415934930,0.7915497,0.4779968,-0.111084,5.901569,-44.52829,11.1846,149.5043,152.5874,10,1.515345,7.403904,-3.577847,3.003932,1.647351,1.004342,-0.06284714,8.01206,-3.168642,-0.8311229,1.906767,-0.2955287,172.17.160.76,0.0.0.0,6,walking,0,2014-11-13 21:15:28.635,171,2014-11-13 21:15:41.072,2
2014-11-13 21:15:43.465,12939,431.3,40.10425,-88.22172,231,-1,-1,10,165,1415934930,1.241302,-0.1555786,0.3332672,6.521423,-43.9084,12.25739,149.4187,152.5019,10,3.919867,5.211993,-3.26615,2.945258,1.980929,0.8501302,3.257821,6.04279,-3.289102,0.3687631,1.041985,-0.2579899,172.17.160.76,0.0.0.0,6,walking,0,2014-11-13 21:15:28.635,171,2014-11-13 21:15:41.072,2
2014-11-13 21:15:43.498,12940,431.3333,40.10425,-88.22172,231,-1,-1,10,165,1415934930,1.19165,-0.1500397,0.5741882,8.380993,-40.94672,16.34723,144.0166,147.0998,10,6.180842,2.760514,-4.557058,2.8518,2.190721,0.6947529,5.384992,4.05372,-3.573974,0.662211,0.3091715,-0.06856466,172.17.160.76,0.0.0.0,6,walking,0,2014-11-13 21:15:28.635,171,2014-11-13 21:15:41.072,2
2014-11-13 21:15:43.532,12941,431.3667,40.10425,-88.22172,231,-1,-1,10,165,1415934930,1.491379,0.9963379,1.298874,11.58358,-34.71342,23.28668,147.5212,150.6044,10,6.269587,-0.6639346,-5.515897,2.770992,2.332411,0.3963314,6.327513,0.6291884,-5.196252,0.6491807,0.6042069,0.1024163,172.17.160.76,0.0.0.0,6,walking,0,2014-11-13 21:15:28.635,171,2014-11-13 21:15:41.072,2
2014-11-13 21:15:43.565,12942,431.4,40.10425,-88.22172,231,-1,-1,10,165,1415934930,1.443253,2.317703,2.506439,16.47356,-23.96874,31.3324,173.2844,176.3676,10,6.178737,-0.1507072,-6.367346,2.752276,2.308444,0.1401927,6.13618,-1.348544,-6.237711,0.8218955,1.813577,1.04636,172.17.160.76,0.0.0.0,6,walking,0,2014-11-13 21:15:28.635,171,2014-11-13 21:15:41.072,2
2014-11-13 21:15:43.598,12943,431.4333,40.10425,-88.22172,231,-1,-1,10,165,1415934930,1.528366,0.9589691,1.594498,18.71194,-17.32218,34.51715,194.7311,197.8143,10,7.116294,0.6886461,-5.611723,2.727968,2.324228,-0.1385814,7.518096,1.167261,-6.054493,0.7208992,2.179565,1.828853,172.17.160.76,0.0.0.0,6,walking,0,2014-11-13 21:15:28.635,171,2014-11-13 21:15:41.072,2
2014-11-13 21:15:43.632,12944,431.4667,40.10425,-88.22172,231,-1,-1,10,165,1415934930,1.092789,1.625443,1.216583,21.2258,-2.892609,38.10419,243.4174,246.5005,10,5.976414,1.649606,-4.217161,2.68543,2.334405,-0.3948301,6.411381,0.7859861,-4.68729,0.8615968,0.5743177,0.9561701,172.17.160.76,0.0.0.0,6,walking,0,2014-11-13 21:15:28.635,171,2014-11-13 21:15:41.072,2
2014-11-13 21:15:43.665,12945,431.5,40.10425,-88.22172,231,-1,-1,10,165,1415934930,0.6291351,1.475464,1.086472,20.0894,3.960556,38.47296,266.8782,269.9614,10,5.357385,2.124906,-4.211278,2.638403,2.358648,-0.6143834,5.887487,2.036162,-4.21594,0.7020644,0.9912485,0.7064767,172.17.160.76,0.0.0.0,6,walking,0,2014-11-13 21:15:28.635,171,2014-11-13 21:15:41.072,2
2014-11-13 21:15:43.698,12946,431.5334,40.10425,-88.22172,231,-1,-1,10,165,1415934930,0.5210876,1.390167,0.5988464,15.33716,16.5649,37.46725,305.6416,308.7248,10,4.901071,2.072539,-3.856372,2.608437,2.404032,-0.8200518,5.161268,2.172728,-4.057566,0.1703776,0.7442827,0.5815799,172.17.160.76,0.0.0.0,6,walking,0,2014-11-13 21:15:28.635,171,2014-11-13 21:15:41.072,2
2014-11-13 21:15:43.732,12947,431.5667,40.10425,-88.22172,231,-1,-1,10,165,1415934930,0.5405884,1.486008,0.5080109,7.692265,26.55194,34.91949,341.8765,344.9597,10,4.865239,4.400339,-2.340921,2.559143,2.462765,-1.059207,5.011548,3.151824,-2.591251,0.1542366,0.5811114,0.02227345,172.17.160.76,0.0.0.0,6,walking,0,2014-11-13 21:15:28.635,171,2014-11-13 21:15:41.072,2
2014-11-13 21:15:43.765,12948,431.6,40.10425,-88.22172,231,-1,-1,10,165,1415934930,0.8501282,1.572693,0.6106567,3.93869,30.09905,32.74042,349.1024,352.1856,10,4.004755,3.828984,-1.366267,2.442609,2.524738,-1.266915,4.434323,4.289781,-1.785924,0.4534627,0.4419815,0.2775276,172.17.160.76,0.0.0.0,6,walking,0,2014-11-13 21:15:28.635,171,2014-11-13 21:15:41.072,2
2014-11-13 21:15:43.798,12949,431.6334,40.10425,-88.22172,231,-1,-1,10,165,1415934930,-0.02610779,1.294235,0.4039154,-3.189659,35.50584,27.41016,9.734744,12.81793,10,4.010973,2.230411,-0.300489,2.237697,2.431233,-1.382492,3.999874,2.879756,-0.5434195,0.4077758,0.5062787,0.482244,172.17.160.76,0.0.0.0,6,walking,0,2014-11-13 21:15:28.635,171,2014-11-13 21:15:41.072,2
2014-11-13 21:15:43.832,12950,431.6667,40.10425,-88.22172,231,-1,-1,10,165,1415934930,-0.1258698,1.329407,0.374176,-8.010769,38.94965,20.10193,24.71541,27.7986,10,3.656877,1.357496,-0.1137545,1.558645,1.82012,-1.456558,3.991145,1.592102,-0.09797637,-0.1365731,0.3007533,0.3757886,172.17.160.76,0.0.0.0,6,walking,0,2014-11-13 21:15:28.635,171,2014-11-13 21:15:41.072,2
2014-11-13 21:15:43.865,12951,431.7,40.10425,-88.22172,231,-1,-1,10,165,1415934930,-0.09384155,1.127396,0.3575592,-9.284916,40.56826,16.716,28.68197,31.76516,10,2.857544,1.337131,-0.1872953,0.4888973,0.8115494,-1.422155,3.064712,1.313699,-0.1575394,-0.2193899,0.3564858,0.4718481,172.17.160.76,0.0.0.0,6,walking,0,2014-11-13 21:15:28.635,171,2014-11-13 21:15:41.072,2
2014-11-13 21:15:43.897,12952,431.7334,40.10425,-88.22172,231,-1,-1,10,165,1415934930,-0.03837585,0.8547516,0.2805328,-10.6968,42.53123,10.24594,33.5022,36.58539,10,2.443511,1.920139,-0.2580401,0.1675981,0.5417707,-1.358384,2.675056,1.785265,-0.2098557,-0.2025511,0.1498705,0.5381882,172.17.160.76,0.0.0.0,6,walking,0,2014-11-13 21:15:28.635,171,2014-11-13 21:15:41.072,2
2014-11-13 21:15:43.932,12953,431.7667,40.10425,-88.22172,231,-1,-1,10,165,1415934930,0.05979919,0.6385956,0.2231598,-11.2478,43.63325,5.016205,37.20136,40.28455,10,1.478859,2.436614,-0.1678511,0.0006235148,0.4432586,-1.299381,2.085033,2.330259,-0.2599736,-0.1533579,-0.1086409,0.5227188,172.17.160.76,0.0.0.0,6,walking,0,2014-11-13 21:15:28.635,171,2014-11-13 21:15:41.072,2
2014-11-13 21:15:43.965,12954,431.8,40.10425,-88.22172,231,-1,-1,10,165,1415934930,0.0813446,0.5830536,0.1728363,-11.6266,43.80541,2.434875,39.59277,42.67596,10,0.6354726,2.336759,0.2062999,-0.08550651,0.4350356,-1.257428,1.263674,2.518198,-0.04679642,-0.07011668,-0.3127051,0.5027111,172.17.160.76,0.0.0.0,6,walking,0,2014-11-13 21:15:28.635,171,2014-11-13 21:15:41.072,2
2014-11-13 21:15:43.997,12955,431.8333,40.10425,-88.22172,231,-1,-1,10,165,1415934930,0.04589844,0.6667786,0.1767883,-11.55772,43.59879,-1.319824,44.18629,47.26948,10,-0.2870507,1.787239,0.5486578,-0.09492589,0.5203311,-1.229471,0.2096796,2.149521,0.4562282,-0.1034316,-0.3376824,0.4612879,172.17.160.76,0.0.0.0,6,walking,0,2014-11-13 21:15:28.635,171,2014-11-13 21:15:41.072,2
2014-11-13 21:15:44.032,12956,431.8667,40.10425,-88.22172,231,-1,-1,10,165,1415934930,0.1047516,0.7916565,0.1822205,-10.76569,43.49549,-3.029572,48.30042,51.38361,10,-0.8061812,1.554245,0.477194,-0.04609686,0.6231751,-1.224586,-0.40396,1.73733,0.569934,-0.1489237,-0.2345345,0.4619975,172.17.160.76,0.0.0.0,6,walking,0,2014-11-13 21:15:28.635,171,2014-11-13 21:15:41.072,2
2014-11-13 21:15:44.065,12957,431.9,40.10425,-88.22172,231,-1,-1,10,165,1415934930,0.1816254,0.8612061,0.1046753,-10.18026,43.11668,-2.928955,48.35291,51.4361,10,-1.25521,1.53957,0.1932595,0.05621501,0.784789,-1.23625,-1.043984,1.608196,0.3137103,-0.09857722,-0.1293738,0.3970321,172.17.160.76,0.0.0.0,6,walking,0,2014-11-13 21:15:28.635,171,2014-11-13 21:15:41.072,2
2014-11-13 21:15:44.098,12958,431.9333,40.10425,-88.22172,231,-1,-1,10,165,1415934930,0.2267609,0.9398651,0.04171753,-9.181602,43.56437,-1.889709,50.60757,53.69076,10,-1.632903,1.463339,-0.07640556,0.1199042,0.8771408,-1.249962,-1.319484,1.594032,0.1087397,-0.06085814,-0.08776657,0.3063004,172.17.160.76,0.0.0.0,6,walking,0,2014-11-13 21:15:28.635,171,2014-11-13 21:15:41.072,2
2014-11-13 21:15:44.132,12959,431.9667,40.10425,-88.22172,231,-1,-1,10,165,1415934930,0.3015289,0.9893341,0.001296997,-8.974976,43.49548,0.3899231,50.62021,53.7034,10,-1.94356,1.066945,-0.3862209,0.3479384,1.168609,-1.297667,-1.829122,1.277711,-0.3039342,0.01319155,0.007756314,0.1195642,172.17.160.76,0.0.0.0,6,walking,0,2014-11-13 21:15:28.635,171,2014-11-13 21:15:41.072,2
2014-11-13 21:15:44.165,12960,432,40.10425,-88.22172,231,-1,-1,10,165,1415934930,0.3261414,0.9975433,-0.01306152,-8.802795,43.66767,1.63028,53.50717,56.59036,10,-1.958554,0.5454708,-0.4961205,0.5469271,1.391244,-1.325578,-1.897258,0.7920563,-0.4580282,0.07847185,0.02231674,0.04242498,172.17.160.76,0.0.0.0,6,walking,0,2014-11-13 21:15:28.635,171,2014-11-13 21:15:41.072,2
2014-11-13 21:15:44.198,12961,432.0334,40.10425,-88.22172,231,-1,-1,10,165,1415934930,0.2736511,1.031906,-0.02389526,-9.525959,43.42661,4.412781,53.74564,56.82883,10,-1.925871,0.03003673,-0.5063876,0.7853796,1.63755,-1.34364,-1.877258,0.2582524,-0.5097423,0.1014352,0.02323257,-0.0280839,172.17.160.76,0.0.0.0,6,walking,0,2014-11-13 21:15:28.635,171,2014-11-13 21:15:41.072,2
2014-11-13 21:15:44.232,12962,432.0667,40.10425,-88.22172,231,-1,-1,10,165,1415934930,0.1884308,1.045319,0.06442261,-10.14582,43.42661,7.094727,55.28828,58.37147,10,-1.806098,-0.2983193,-0.3610192,1.04007,1.885869,-1.346948,-1.806396,-0.1470502,-0.426162,0.06259517,0.05685567,-0.09268473,172.17.160.76,0.0.0.0,6,walking,0,2014-11-13 21:15:28.635,171,2014-11-13 21:15:41.072,2
2014-11-13 21:15:44.265,12963,432.1,40.10425,-88.22172,231,-1,-1,10,165,1415934930,0.1801758,1.067078,0.08340454,-10.83456,43.35775,8.301575,55.86594,58.94913,10,-1.752929,-0.2852352,-0.3133827,1.197922,2.035447,-1.340465,-1.736345,-0.2304159,-0.3451293,0.02185714,0.06408307,-0.08840284,172.17.160.76,0.0.0.0,2,walking,0,2014-11-13 21:15:28.635,171,2014-11-13 21:15:41.072,2
2014-11-13 21:15:44.298,12964,432.1334,40.10425,-88.22172,231,-1,-1,10,165,1415934930,0.2131042,1.090729,0.2128906,-11.38554,42.46233,10.91641,55.92288,59.00607,10,-1.229773,0.04736112,-0.1373842,1.487115,2.308986,-1.305678,-1.372159,-0.009210227,-0.1553231,-0.005186527,0.141216,-0.01904119,172.17.160.76,0.0.0.0,2,walking,0,2014-11-13 21:15:28.635,171,2014-11-13 21:15:41.072,2
2014-11-13 21:15:44.331,12965,432.1667,40.10425,-88.22172,231,-1,-1,10,165,1415934930,0.2435303,1.055466,0.2459717,-11.7299,41.22257,13.19604,56.16716,59.25035,10,-0.898399,0.1381158,-0.05853602,1.589033,2.410003,-1.283049,-1.05132,0.1557557,-0.09939738,0.0235153,0.1318433,0.001716279,172.17.160.76,0.0.0.0,2,walking,0,2014-11-13 21:15:28.635,171,2014-11-13 21:15:41.072,2
2014-11-13 21:15:44.365,12966,432.2,40.10425,-88.22172,231,-1,-1,10,165,1415934930,0.2611389,1.014679,0.2759705,-11.69547,40.91262,14.10123,55.46868,58.55187,10,-0.5512626,0.2230461,0.09452624,1.661317,2.487442,-1.259248,-0.5943208,0.2458078,0.03523513,0.06283817,0.09231421,0.01619119,172.17.160.76,0.0.0.0,2,walking,0,2014-11-13 21:15:28.635,171,2014-11-13 21:15:41.072,2
2014-11-13 21:15:44.398,12967,432.2334,40.10425,-88.22172,231,-1,-1,10,165,1415934930,0.2030945,0.980957,0.2700958,-11.7299,40.67155,15.00632,55.92333,59.00652,10,-0.1987112,0.2758241,0.2113085,1.673276,2.508129,-1.247387,-0.2364947,0.3402399,0.1808769,0.04718675,0.06240159,0.01627342,172.17.160.76,0.0.0.0,2,walking,0,2014-11-13 21:15:28.635,171,2014-11-13 21:15:41.072,2
2014-11-13 21:15:44.432,12968,432.2667,40.10425,-88.22172,231,-1,-1,10,165,1415934930,0.1636047,0.9537354,0.2693176,-11.97095,40.77488,15.241,56.70657,59.78976,10,0.005641374,0.2861322,0.3231147,1.657773,2.503821,-1.241103,0.02644069,0.3474503,0.3083695,0.01033022,0.03481521,0.009985073,172.17.160.76,0.0.0.0,2,walking,0,2014-11-13 21:15:28.635,171,2014-11-13 21:15:41.072,2
2014-11-13 21:15:44.465,12969,432.3,40.10425,-88.22172,231,-1,-1,10,165,1415934930,0.1152954,0.9874725,0.2551117,-11.69546,40.36163,15.17392,56.75061,59.8338,10,0.1406663,0.3242383,0.453372,1.618662,2.482262,-1.237216,0.1785141,0.3802497,0.439593,-0.04820399,0.01207871,0.008671709,172.17.160.76,0.0.0.0,2,walking,0,2014-11-13 21:15:28.635,171,2014-11-13 21:15:41.072,2
2014-11-13 21:15:44.498,12970,432.3333,40.10425,-88.22172,231,-1,-1,10,165,1415934930,0.1005402,0.9929504,0.2505035,-11.62659,40.77489,14.4364,57.98738,61.07058,10,0.2120918,0.3316568,0.4552666,1.587982,2.461171,-1.234812,0.2445107,0.401756,0.4776724,-0.07976542,0.03542135,0.006539785,172.17.160.76,0.0.0.0,2,walking,0,2014-11-13 21:15:28.635,171,2014-11-13 21:15:41.072,2
2014-11-13 21:15:44.531,12971,432.3667,40.10425,-88.22172,231,-1,-1,10,165,1415934930,0.06993103,1.014847,0.2258911,-10.97229,40.80933,13.5983,59.21147,62.29466,10,0.4192995,0.3923214,0.3401701,1.524235,2.417281,-1.235077,0.4078434,0.4021821,0.402756,-0.11988,0.051615,0.004295349,172.17.160.76,0.0.0.0,2,walking,0,2014-11-13 21:15:28.635,171,2014-11-13 21:15:41.072,2
2014-11-13 21:15:44.565,12972,432.4,40.10425,-88.22172,231,-1,-1,10,165,1415934930,0.07597351,1.004822,0.1925201,-10.93785,41.05039,13.02835,59.9367,63.01989,10,0.6319734,0.5740082,0.2108297,1.454129,2.370286,-1.24149,0.5831028,0.5458208,0.2977668,-0.1554931,0.06857996,-0.0059774,172.17.160.76,0.0.0.0,2,walking,0,2014-11-13 21:15:28.635,171,2014-11-13 21:15:41.072,2
2014-11-13 21:15:44.598,12973,432.4333,40.10425,-88.22172,231,-1,-1,10,165,1415934930,0.1328125,0.9968872,0.1442413,-10.18025,41.32592,12.35788,60.8522,63.93539,10,0.7356109,0.6958121,0.1654393,1.414664,2.345077,-1.247554,0.7017226,0.6419237,0.2267086,-0.1511169,0.05661132,-0.02957636,172.17.160.76,0.0.0.0,2,walking,0,2014-11-13 21:15:28.635,171,2014-11-13 21:15:41.072,2
2014-11-13 21:15:44.632,12974,432.4667,40.10425,-88.22172,231,-1,-1,10,165,1415934930,0.2190857,1.008347,0.1532135,-9.732571,41.7736,11.38568,62.0028,65.08599,10,0.8370539,1.003013,0.1879068,1.321858,2.288328,-1.264365,0.8683474,0.9167752,0.1903791,-0.09446649,0.04347118,-0.0541072,172.17.160.76,0.0.0.0,2,walking,0,2014-11-13 21:15:28.635,171,2014-11-13 21:15:41.072,2
2014-11-13 21:15:44.665,12975,432.5,40.10425,-88.22172,231,-1,-1,10,165,1415934930,0.3207703,1.035858,0.1272736,-10.18024,42.4968,9.675934,64.88687,67.97006,10,0.9970002,1.175306,0.2189981,1.175109,2.203509,-1.285246,1.003994,1.23262,0.2244038,0.04220471,0.06229806,-0.02171877,172.17.160.76,0.0.0.0,2,walking,0,2014-11-13 21:15:28.635,171,2014-11-13 21:15:41.072,2
2014-11-13 21:15:44.698,12976,432.5334,40.10425,-88.22172,231,-1,-1,10,165,1415934930,0.3569794,1.052383,0.07722473,-10.18024,42.63456,8.804352,65.98842,69.07161,10,1.100257,1.123467,0.2554904,1.101449,2.157496,-1.293708,1.123312,1.230635,0.2504835,0.09296035,0.07400212,-0.02417151,172.17.160.76,0.0.0.0,2,walking,0,2014-11-13 21:15:28.635,171,2014-11-13 21:15:41.072,2
2014-11-13 21:15:44.732,12977,432.5667,40.10425,-88.22172,231,-1,-1,10,165,1415934930,0.3227692,1.086731,0.0402832,-10.66236,43.25445,6.457672,69.76122,72.84441,10,1.173451,0.8720329,0.3122737,0.9702992,2.065217,-1.30477,1.231701,1.034502,0.3159181,0.1255635,0.08756027,-0.04752701,172.17.160.76,0.0.0.0,2,walking,0,2014-11-13 21:15:28.635,171,2014-11-13 21:15:41.072,2
2014-11-13 21:15:44.765,12978,432.6,40.10425,-88.22172,231,-1,-1,10,165,1415934930,0.2153931,1.080032,0.01483154,-10.62792,43.35777,5.150269,70.47356,73.55676,10,1.224578,0.6560037,0.2716699,0.7710018,1.906572,-1.31336,1.286933,0.7443439,0.3088758,0.05317994,0.1246594,-0.04862888,172.17.160.76,0.0.0.0,2,walking,0,2014-11-13 21:15:28.635,171,2014-11-13 21:15:41.072,2
2014-11-13 21:15:44.798,12979,432.6334,40.10425,-88.22172,231,-1,-1,10,165,1415934930,0.1823883,1.033371,0.008117676,-10.21469,43.42663,3.071808,72.91257,75.99576,10,1.241787,0.7780425,0.2520799,0.6137776,1.776637,-1.315776,1.309481,0.7748042,0.2633079,-0.03154657,0.1123742,-0.03672903,172.17.160.76,0.0.0.0,2,walking,0,2014-11-13 21:15:28.635,171,2014-11-13 21:15:41.072,2
2014-11-13 21:15:44.832,12980,432.6667,40.10425,-88.22172,231,-1,-1,10,165,1415934930,0.2001038,0.9703979,0.003082275,-9.767014,43.6677,0.8257446,74.18114,77.26434,10,1.201385,1.300511,0.3494544,0.4560642,1.651866,-1.312945,1.295717,1.067338,0.3062976,-0.07177747,0.06643078,-0.01253265,172.17.160.76,0.0.0.0,2,walking,0,2014-11-13 21:15:28.635,171,2014-11-13 21:15:41.072,2
2014-11-13 21:15:44.864,12981,432.7,40.10425,-88.22172,231,-1,-1,10,165,1415934930,0.2405396,0.9262238,0.01908875,-9.078281,43.6677,-0.2470093,75.02606,78.10925,10,1.065993,1.898887,0.5027814,0.2625897,1.52134,-1.298573,1.209444,1.675068,0.4350757,-0.06844053,0.007222323,0.01637426,172.17.160.76,0.0.0.0,2,walking,0,2014-11-13 21:15:28.635,171,2014-11-13 21:15:41.072,2
2014-11-13 21:15:44.898,12982,432.7334,40.10425,-88.22172,231,-1,-1,10,165,1415934930,0.3113403,0.8713684,0.03674316,-8.148499,43.63326,-3.230682,78.28827,81.37146,10,1.033984,2.016077,0.5417317,0.1805543,1.479611,-1.287192,1.135858,1.966873,0.518622,-0.03811551,-0.03382944,0.04456872,172.17.160.76,0.0.0.0,2,walking,0,2014-11-13 21:15:28.635,171,2014-11-13 21:15:41.072,2
2014-11-13 21:15:44.932,12983,432.7667,40.10425,-88.22172,231,-1,-1,10,165,1415934930,0.4033356,0.7978668,0.07739258,-6.461113,43.25443,-5.811981,81.68178,84.76497,10,0.7993534,2.356043,0.6611636,0.04689248,1.43921,-1.258889,0.9705489,2.309927,0.6293186,0.02895452,-0.1088394,0.0925865,172.17.160.76,0.0.0.0,2,walking,0,2014-11-13 21:15:28.635,171,2014-11-13 21:15:41.072,2
2014-11-13 21:15:44.965,12984,432.8,40.10425,-88.22172,231,-1,-1,10,165,1415934930,0.4090881,0.7516632,0.09848022,-5.565762,43.18555,-6.884796,84.00083,87.08402,10,0.8163952,2.24216,0.6371474,-0.05135262,1.442394,-1.227641,0.878791,2.400653,0.6779065,0.07371967,-0.1491411,0.1262745,172.17.160.76,0.0.0.0,2,walking,0,2014-11-13 21:15:28.635,171,2014-11-13 21:15:41.072,2
2014-11-13 21:15:44.998,12985,432.8333,40.10425,-88.22172,231,-1,-1,10,165,1415934930,0.4150391,0.7092133,0.153183,-3.224075,42.97894,-9.030243,88.60069,91.68388,10,0.7855545,1.886412,0.521811,-0.1205338,1.4442,-1.205731,0.8809867,2.081112,0.5753747,0.05493447,-0.1824371,0.1435557,172.17.160.76,0.0.0.0,2,walking,0,2014-11-13 21:15:28.635,171,2014-11-13 21:15:41.072,2
