time,timestamp,recordtime,lat,long,alt,speed,course,verticalAccuracy,horizontalAccuracy,locTimeStamp,accelerationX,accelerationY,accelerationZ,HeadingX,HeadingY,HeadingZ,TrueHeading,MagneticHeading,HeadingAccuracy,RotationX,RotationY,RotationZ,motionYaw,motionRoll,motionPitch,motionRotationRateX,motionRotationRateY,motionRotationRateZ,motionUserAccelerationX,motionUserAccelerationY,motionUserAccelerationZ,en0,pdp_ip0,DeviceOrientation,Activity,Activity Confidence,Activity Start,Steps,Last Step Date,State
2014-11-13 21:40:44.786,8748,291.6,40.10425,-88.22172,231,-1,-1,10,165,1415935777,-0.3134308,-0.9312134,-0.2336426,-14.98529,-26.70515,-1.721558,109.976,113.0592,10,-0.09067291,-0.1403379,-0.01632171,2.915214,-0.9649797,1.169272,-0.03411913,-0.0577122,0.003601833,0.007228794,-0.009571997,-0.01524604,172.17.160.76,0.0.0.0,1,walking,0,2014-11-13 21:40:41.171,657,2014-11-13 21:38:15.181,0
2014-11-13 21:40:44.820,8749,291.6334,40.10425,-88.22172,231,-1,-1,10,165,1415935777,-0.3141327,-0.9332886,-0.2301941,-15.15759,-26.39511,-2.022919,109.9517,113.0349,10,-0.09173418,-0.146737,-0.01953588,2.912989,-0.9641181,1.169064,-0.02346708,-0.07579717,0.00134215,0.008689653,-0.01159121,-0.01011463,172.17.160.76,0.0.0.0,1,walking,0,2014-11-13 21:40:41.171,657,2014-11-13 21:38:15.181,0
2014-11-13 21:40:44.853,8750,291.6667,40.10425,-88.22172,231,-1,-1,10,165,1415935777,-0.3244629,-0.9082642,-0.2254639,-15.3988,-26.42957,-1.922485,109.9091,112.9923,10,-0.106592,-0.1809645,-0.05044347,2.906499,-0.9625483,1.169017,-0.05324268,-0.1132636,-0.02944408,0.004178448,0.00268799,-0.007297228,172.17.160.76,0.0.0.0,1,walking,0,2014-11-13 21:40:41.171,657,2014-11-13 21:38:15.181,0
2014-11-13 21:40:44.887,8751,291.7,40.10425,-88.22172,231,-1,-1,10,165,1415935777,-0.3345947,-0.9364624,-0.2115631,-15.9846,-26.7396,-2.156891,109.814,112.8971,10,-0.09269718,-0.1587047,-0.05674717,2.901345,-0.9622979,1.168709,-0.02017604,-0.1026866,-0.03375673,-0.009178806,-0.001445918,0.004221891,172.17.160.76,0.0.0.0,1,walking,0,2014-11-13 21:40:41.171,657,2014-11-13 21:38:15.181,0
2014-11-13 21:40:44.919,8752,291.7333,40.10425,-88.22172,231,-1,-1,10,165,1415935777,-0.3287201,-0.9215851,-0.2116699,-15.77784,-26.8774,-1.955994,109.7559,112.8391,10,-0.1096711,-0.1461287,-0.08103147,2.899501,-0.9635603,1.169478,-0.03926258,-0.07631344,-0.06008193,-0.01378095,-0.01249776,0.01626036,172.17.160.76,0.0.0.0,1,walking,0,2014-11-13 21:40:41.171,657,2014-11-13 21:38:15.181,0
2014-11-13 21:40:44.953,8753,291.7667,40.10425,-88.22172,231,-1,-1,10,165,1415935777,-0.3359985,-0.9232941,-0.2167511,-15.74338,-26.98075,-2.123413,109.7214,112.8046,10,-0.09801871,-0.1597886,-0.0599174,2.89651,-0.9636199,1.170349,-0.03714681,-0.08904374,-0.0569704,-0.008933692,0.001788979,0.0072078,172.17.160.76,0.0.0.0,1,stationary,1,2014-11-13 21:40:44.883,657,2014-11-13 21:38:15.181,0
2014-11-13 21:40:44.987,8754,291.8,40.10425,-88.22172,231,-1,-1,10,165,1415935777,-0.3462677,-0.9190369,-0.2121277,-14.84746,-26.84296,-1.788513,109.7356,112.8188,10,-0.09062018,-0.142599,-0.03437901,2.895383,-0.9668516,1.170124,-0.02021288,-0.08874292,-0.01563011,-0.02298385,-0.008110446,0.01062358,172.17.160.76,0.0.0.0,1,stationary,1,2014-11-13 21:40:44.883,657,2014-11-13 21:38:15.181,0
2014-11-13 21:40:45.020,8755,291.8333,40.10425,-88.22172,231,-1,-1,10,165,1415935777,-0.3456421,-0.9132996,-0.2086945,-14.95084,-27.01519,-1.755066,109.7807,112.8639,10,-0.08629601,-0.08419797,-0.03939508,2.895403,-0.9692878,1.169497,-0.02655836,-0.04318975,-0.02268711,-0.02396869,0.003363854,0.009846641,172.17.160.76,0.0.0.0,1,stationary,1,2014-11-13 21:40:44.883,657,2014-11-13 21:38:15.181,0
2014-11-13 21:40:45.053,8756,291.8667,40.10425,-88.22172,231,-1,-1,10,165,1415935777,-0.3370667,-0.911911,-0.2029266,-14.81301,-27.22189,-1.955994,109.8094,112.8926,10,-0.07453416,-0.02467419,-0.03594122,2.896402,-0.9707682,1.169051,-0.006260833,0.02376577,-0.01922121,-0.02032689,0.005096563,0.01457627,172.17.160.76,0.0.0.0,1,stationary,1,2014-11-13 21:40:44.883,657,2014-11-13 21:38:15.181,0
2014-11-13 21:40:45.087,8757,291.9,40.10425,-88.22172,231,-1,-1,10,165,1415935777,-0.3316803,-0.9135437,-0.2025604,-14.95084,-27.49747,-1.621094,109.8964,112.9796,10,-0.06813698,0.001935586,-0.02945616,2.897945,-0.9711863,1.169152,-0.003042394,0.05991441,-0.01585528,-0.01202612,0.009042459,0.01827962,172.17.160.76,0.0.0.0,1,stationary,1,2014-11-13 21:40:44.883,657,2014-11-13 21:38:15.181,0
2014-11-13 21:40:45.120,8758,291.9333,40.10425,-88.22172,231,-1,-1,10,165,1415935777,-0.3238525,-0.919281,-0.2050018,-14.67516,-27.22189,-1.688019,109.9856,113.0688,10,-0.06822886,0.003229882,0.001333977,2.900699,-0.9714746,1.169258,0.001163613,0.07177404,0.007546691,-0.006046799,0.006001831,0.01851271,172.17.160.76,0.0.0.0,1,stationary,1,2014-11-13 21:40:44.883,657,2014-11-13 21:38:15.181,0
2014-11-13 21:40:45.153,8759,291.9667,40.10425,-88.22172,231,-1,-1,10,165,1415935777,-0.3146667,-0.9167023,-0.2098541,-14.70963,-27.11855,-1.520599,110.0397,113.1229,10,-0.05760977,-0.0009299758,0.01401009,2.903305,-0.9721318,1.16904,0.001103926,0.06554042,0.02662165,-0.000822255,0.001094503,0.01536232,172.17.160.76,0.0.0.0,1,stationary,1,2014-11-13 21:40:44.883,657,2014-11-13 21:38:15.181,0
2014-11-13 21:40:45.187,8760,292,40.10425,-88.22172,231,-1,-1,10,165,1415935777,-0.3141022,-0.9295197,-0.208725,-14.88193,-26.8774,-1.955963,110.0895,113.1727,10,-0.04591982,-0.007231547,0.02454795,2.906149,-0.972986,1.168819,0.01703828,0.05914342,0.03830198,0.008719542,0.003586905,0.01034837,172.17.160.76,0.0.0.0,1,stationary,1,2014-11-13 21:40:44.883,657,2014-11-13 21:38:15.181,0
2014-11-13 21:40:45.220,8761,292.0334,40.10425,-88.22172,231,-1,-1,10,165,1415935777,-0.3100891,-0.9329681,-0.2165833,-14.98531,-26.91186,-1.788513,110.1055,113.1887,10,-0.0469755,-0.01470917,0.01920512,2.910827,-0.9751395,1.169119,0.01808462,0.05068075,0.04355686,0.01067313,-0.01039473,0.004781357,172.17.160.76,0.0.0.0,1,stationary,1,2014-11-13 21:40:44.883,657,2014-11-13 21:38:15.181,0
2014-11-13 21:40:45.253,8762,292.0667,40.10425,-88.22172,231,-1,-1,10,165,1415935777,-0.3076172,-0.936615,-0.2160492,-15.12315,-27.11855,-2.056458,110.099,113.1822,10,-0.04159884,-0.004181696,0.00650264,2.913093,-0.9755746,1.169284,0.0223941,0.05482492,0.02975995,0.01425949,-0.01322959,0.0004357288,172.17.160.76,0.0.0.0,1,stationary,1,2014-11-13 21:40:44.883,657,2014-11-13 21:38:15.181,0
2014-11-13 21:40:45.286,8763,292.1,40.10425,-88.22172,231,-1,-1,10,165,1415935777,-0.3066559,-0.9382935,-0.2230682,-15.43327,-27.35968,-1.889008,110.0954,113.1786,10,-0.04156768,-0.005324192,-0.004118312,2.915429,-0.9749274,1.170553,0.03098299,0.06638142,0.01279918,0.01815555,-0.01906684,-0.001353319,172.17.160.76,0.0.0.0,1,unknown,1,2014-11-13 21:40:45.193,657,2014-11-13 21:38:15.181,0
2014-11-13 21:40:45.320,8764,292.1334,40.10425,-88.22172,231,-1,-1,10,165,1415935777,-0.3083191,-0.9333344,-0.2256165,-15.50218,-27.49747,-1.621094,110.1215,113.2047,10,-0.04690599,-0.03723951,-0.009573798,2.916139,-0.9738635,1.171475,0.02243389,0.0355626,0.0116031,0.01474821,-0.01538148,-0.00626387,172.17.160.76,0.0.0.0,1,unknown,1,2014-11-13 21:40:45.193,657,2014-11-13 21:38:15.181,0
2014-11-13 21:40:45.353,8765,292.1667,40.10425,-88.22172,231,-1,-1,10,165,1415935777,-0.3135834,-0.9294128,-0.2199249,-15.46773,-27.46302,-1.721558,110.1299,113.2131,10,-0.05009939,-0.04789589,-0.01386388,2.916337,-0.9731769,1.172127,0.02027425,0.0131428,0.008399874,0.009294843,-0.01003172,-0.00529781,172.17.160.76,0.0.0.0,1,unknown,1,2014-11-13 21:40:45.193,657,2014-11-13 21:38:15.181,0
2014-11-13 21:40:45.386,8766,292.2,40.10425,-88.22172,231,-1,-1,10,165,1415935777,-0.312973,-0.9076996,-0.2189636,-15.19207,-27.39412,-1.587585,110.1708,113.254,10,-0.0638903,-0.05125254,-0.03718252,2.916871,-0.9729816,1.172961,0.006470736,0.01088074,-0.0106697,0.006694618,-0.002689474,-0.00285991,172.17.160.76,0.0.0.0,1,unknown,1,2014-11-13 21:40:45.193,657,2014-11-13 21:38:15.181,0
2014-11-13 21:40:45.420,8767,292.2333,40.10425,-88.22172,231,-1,-1,10,165,1415935777,-0.3152924,-0.9261475,-0.2162476,-15.36436,-27.08409,-1.955902,110.1452,113.2284,10,-0.05111592,-0.04588999,-0.02977174,2.915836,-0.9715685,1.173429,0.009694085,0.01613616,-0.01808499,0.003450672,0.01645864,-0.000972806,172.17.160.76,0.0.0.0,1,unknown,1,2014-11-13 21:40:45.193,657,2014-11-13 21:38:15.181,0
2014-11-13 21:40:45.453,8768,292.2667,40.10425,-88.22172,231,-1,-1,10,165,1415935777,-0.3147888,-0.9258881,-0.2198029,-15.67449,-27.25632,-1.855469,110.1245,113.2077,10,-0.06495077,-0.04807219,-0.03822329,2.916064,-0.9710985,1.174057,0.01075796,0.02678535,-0.01484897,0.003694293,-0.003821766,0.001841482,172.17.160.76,0.0.0.0,1,unknown,1,2014-11-13 21:40:45.193,657,2014-11-13 21:38:15.181,0
2014-11-13 21:40:45.487,8769,292.3,40.10425,-88.22172,231,-1,-1,10,165,1415935777,-0.3117218,-0.9157715,-0.2252045,-15.81231,-26.91184,-2.056396,110.0229,113.1061,10,-0.05857676,-0.06505304,-0.03515213,2.914652,-0.969121,1.17506,8.962976e-05,0.004327967,-0.02120494,0.004651072,0.001493944,-0.005391387,172.17.160.76,0.0.0.0,1,unknown,1,2014-11-13 21:40:45.193,657,2014-11-13 21:38:15.181,0
2014-11-13 21:40:45.520,8770,292.3333,40.10425,-88.22172,231,-1,-1,10,165,1415935777,-0.3136902,-0.9206848,-0.2247162,-15.29543,-27.15298,-1.755066,110.0128,113.096,10,-0.05011696,-0.0883067,-0.01832255,2.913373,-0.9679005,1.175517,0.01707449,-0.01573369,-0.003330384,0.005898771,0.0002051543,-0.009133789,172.17.160.76,0.0.0.0,1,unknown,1,2014-11-13 21:40:45.193,657,2014-11-13 21:38:15.181,0
2014-11-13 21:40:45.553,8771,292.3667,40.10425,-88.22172,231,-1,-1,10,165,1415935777,-0.3217316,-0.9199829,-0.2276154,-15.22652,-27.08409,-1.68808,110.0172,113.1004,10,-0.05329198,-0.09155682,-0.02681963,2.913291,-0.9687226,1.175774,0.01388078,-0.02746044,-0.008688147,-0.002250515,0.003325456,-0.008369459,172.17.160.76,0.0.0.0,1,unknown,1,2014-11-13 21:40:45.193,657,2014-11-13 21:38:15.181,0
2014-11-13 21:40:45.587,8772,292.4,40.10425,-88.22172,231,-1,-1,10,165,1415935777,-0.3274384,-0.9233246,-0.2276154,-15.32989,-27.32522,-1.788513,110.0289,113.1121,10,-0.05009779,-0.08835463,-0.02469176,2.91343,-0.9695706,1.175797,0.0192063,-0.02639252,-0.00764004,-0.004662412,0.0004963542,-0.008498154,172.17.160.76,0.0.0.0,1,unknown,1,2014-11-13 21:40:45.193,657,2014-11-13 21:38:15.181,0
2014-11-13 21:40:45.620,8773,292.4333,40.10425,-88.22172,231,-1,-1,10,165,1415935777,-0.3330841,-0.9154205,-0.2364502,-15.50217,-27.15298,-1.554077,110.0277,113.1109,10,-0.07036098,-0.07342015,-0.01816835,2.913561,-0.9702729,1.175475,0.00319836,-0.01570268,-9.177379e-05,-0.01041386,-0.00451035,-0.01352757,172.17.160.76,0.0.0.0,1,unknown,1,2014-11-13 21:40:45.193,657,2014-11-13 21:38:15.181,0
2014-11-13 21:40:45.653,8774,292.4667,40.10425,-88.22172,231,-1,-1,10,165,1415935777,-0.2576141,-1.084839,-0.2775574,-15.70892,-27.35966,-1.487091,110.0235,113.1067,10,-0.04591503,-0.01363112,0.02132979,2.912745,-0.9694865,1.174323,0.007464435,0.01088976,0.007559271,-0.01320217,0.009586661,-0.02091574,172.17.160.76,0.0.0.0,1,unknown,1,2014-11-13 21:40:45.193,657,2014-11-13 21:38:15.181,0
2014-11-13 21:40:45.687,8775,292.5,40.10425,-88.22172,231,-1,-1,10,165,1415935777,-0.1787567,-1.191376,-0.4908142,-15.74339,-27.32522,-1.185699,110.0536,113.1367,10,-0.7059289,0.03064872,0.07498556,2.915141,-0.9654192,1.170061,-0.181679,0.2590905,0.219745,0.09342983,-0.260088,-0.1024094,172.17.160.76,0.0.0.0,1,unknown,1,2014-11-13 21:40:45.193,657,2014-11-13 21:38:15.181,0
2014-11-13 21:40:45.720,8776,292.5334,40.10425,-88.22172,231,-1,-1,10,165,1415935777,0.1094666,-1.165115,-0.7426147,-15.81231,-27.39411,-1.520599,110.1305,113.2137,10,-0.7593152,-0.3608892,0.003065831,2.900057,-0.9475998,1.161744,-0.63876,0.09471945,0.09321306,0.1442149,-0.2738776,-0.2586797,172.17.160.76,0.0.0.0,1,unknown,1,2014-11-13 21:40:45.193,657,2014-11-13 21:38:15.181,0
2014-11-13 21:40:45.753,8777,292.5667,40.10425,-88.22172,231,-1,-1,10,165,1415935777,0.3265991,-1.210892,-0.7079773,-15.91569,-27.42857,-1.755005,110.3249,113.408,10,-0.91592,-1.091921,0.1356723,2.850955,-0.9158257,1.143049,-0.6588421,-0.6152569,0.2084354,0.4384477,-0.2552128,-0.4899318,172.17.160.76,0.0.0.0,1,unknown,1,2014-11-13 21:40:45.193,657,2014-11-13 21:38:15.181,0
2014-11-13 21:40:45.787,8778,292.6,40.10425,-88.22172,231,-1,-1,10,165,1415935777,0.4906464,-1.095291,-0.7058868,-16.22581,-27.53191,-1.65451,113.6483,116.7315,10,-1.400714,-2.038768,-0.1912504,2.78963,-0.9050487,1.117907,-1.172453,-1.601398,-0.117525,0.7257481,-0.2655017,-0.4492364,172.17.160.76,0.0.0.0,1,unknown,1,2014-11-13 21:40:45.193,657,2014-11-13 21:38:15.181,0
2014-11-13 21:40:45.819,8779,292.6334,40.10425,-88.22172,231,-1,-1,10,165,1415935777,0.5332489,-0.9916687,-0.5292816,-16.01905,-27.39412,-1.587524,118.2813,121.3645,10,-1.754462,-3.460289,0.09343461,2.736953,-0.8995957,1.103298,-1.482198,-2.407796,-0.1205154,0.8840395,-0.1474778,-0.3996883,172.17.160.76,0.0.0.0,1,unknown,1,2014-11-13 21:40:45.193,657,2014-11-13 21:38:15.181,0
2014-11-13 21:40:45.853,8780,292.6667,40.10425,-88.22172,231,-1,-1,10,165,1415935777,0.4167023,-1.003036,-0.2409973,-16.0535,-26.8774,-1.286163,122.5361,125.6192,10,-2.216112,-5.295308,0.3498091,2.598527,-0.9669491,1.043021,-2.030247,-4.876618,0.3440798,0.8708359,-0.1452257,-0.05762411,172.17.160.76,0.0.0.0,1,unknown,1,2014-11-13 21:40:45.193,657,2014-11-13 21:38:15.181,0
2014-11-13 21:40:45.887,8781,292.7,40.10425,-88.22172,231,-1,-1,10,165,1415935777,0.2763519,-0.9362183,0.09805298,-16.12241,-26.53291,-0.549408,131.1707,134.2538,10,-2.555605,-5.923103,0.3520204,2.501453,-1.046596,0.9974216,-2.394547,-5.698507,0.3920669,0.8097938,-0.1623511,0.2131529,172.17.160.76,0.0.0.0,1,unknown,1,2014-11-13 21:40:45.193,657,2014-11-13 21:38:15.181,0
2014-11-13 21:40:45.921,8782,292.7333,40.10425,-88.22172,231,-1,-1,10,165,1415935777,0.1858368,-0.8482056,0.3062286,-17.1217,-26.63625,1.091461,138.476,141.5592,10,-2.662183,-6.302119,0.2463983,2.389972,-1.133333,0.9532772,-2.595,-6.1412,0.2907069,0.7683387,-0.07822199,0.4101665,172.17.160.76,0.0.0.0,1,unknown,1,2014-11-13 21:40:45.193,657,2014-11-13 21:38:15.181,0
2014-11-13 21:40:45.953,8783,292.7667,40.10425,-88.22172,231,-1,-1,10,165,1415935777,0.1005859,-0.8399048,0.5358124,-17.60411,-26.63625,1.694214,142.6639,145.7471,10,-2.901945,-6.469395,0.17105,2.23338,-1.259702,0.9059322,-2.679178,-6.362699,0.2208592,0.7172818,-0.05635262,0.6283329,172.17.160.76,0.0.0.0,1,unknown,1,2014-11-13 21:40:45.193,657,2014-11-13 21:38:15.181,0
2014-11-13 21:40:45.986,8784,292.8,40.10425,-88.22172,231,-1,-1,10,165,1415935777,-0.02720642,-0.8882599,0.5526123,-18.08653,-26.36067,3.636444,150.5138,153.597,10,-3.181345,-6.684077,0.1476132,2.105978,-1.35272,0.8782899,-2.937097,-6.440471,0.1832898,0.7001745,-0.0827536,0.6980705,172.17.160.76,0.0.0.0,1,unknown,1,2014-11-13 21:40:45.193,657,2014-11-13 21:38:15.181,0
2014-11-13 21:40:46.020,8785,292.8333,40.10425,-88.22172,231,-1,-1,10,165,1415935777,-0.2397003,-0.8473358,0.6290436,-16.91496,-26.63625,4.975983,158.9894,162.0726,10,-3.215251,-6.679258,0.07983065,1.966548,-1.443849,0.8575428,-3.137542,-6.65536,0.1372649,0.5825348,-0.1303291,0.6541731,172.17.160.76,0.0.0.0,1,unknown,1,2014-11-13 21:40:45.193,657,2014-11-13 21:38:15.181,0
2014-11-13 21:40:46.053,8786,292.8667,40.10425,-88.22172,231,-1,-1,10,165,1415935777,-0.4633789,-0.9199371,0.5705414,-16.19133,-26.94629,5.746185,170.5826,173.6657,10,-3.436632,-6.120067,0.1037725,1.822454,-1.531636,0.8472675,-3.252277,-6.413573,0.06678688,0.4218256,-0.0978616,0.6549627,172.17.160.76,0.0.0.0,1,unknown,1,2014-11-13 21:40:45.193,657,2014-11-13 21:38:15.181,0
2014-11-13 21:40:46.087,8787,292.9,40.10425,-88.22172,231,-1,-1,10,165,1415935777,-0.6354523,-0.9070435,0.5287933,-14.12383,-28.11755,5.411285,189.8874,192.9706,10,-3.286602,-4.978716,0.1346966,1.620636,-1.617838,0.8433473,-3.328516,-5.357686,0.1639199,0.1325537,-0.179671,0.5198472,172.17.160.76,0.0.0.0,1,unknown,1,2014-11-13 21:40:45.193,657,2014-11-13 21:38:15.181,0
2014-11-13 21:40:46.120,8788,292.9333,40.10425,-88.22172,231,-1,-1,10,165,1415935777,-0.7879181,-0.9252472,0.5553589,-13.40022,-28.42758,5.042908,192.9354,196.0186,10,-2.847173,-2.642674,-0.04889857,1.437012,-1.650229,0.8473785,-2.835055,-3.209264,0.04388471,-0.0802644,-0.1797889,0.5351364,172.17.160.76,0.0.0.0,1,unknown,1,2014-11-13 21:40:45.193,657,2014-11-13 21:38:15.181,0
2014-11-13 21:40:46.153,8789,292.9667,40.10425,-88.22172,231,-1,-1,10,165,1415935777,-0.8025513,-0.8683319,0.4538879,-12.12525,-29.151,4.004822,207.1921,210.2753,10,-2.663522,-1.666722,-0.2503744,1.353642,-1.636806,0.8526229,-2.717457,-2.070501,-0.1299495,-0.1626976,-0.1572694,0.4578633,172.17.160.76,0.0.0.0,1,unknown,1,2014-11-13 21:40:45.193,657,2014-11-13 21:38:15.181,0
2014-11-13 21:40:46.187,8790,293,40.10425,-88.22172,231,-1,-1,10,165,1415935777,-0.7355652,-0.9229279,0.4480591,-11.71175,-29.35768,2.7323,217.0572,220.1404,10,-1.959204,-0.05972458,-0.4345547,1.20944,-1.570339,0.8675775,-2.048156,-0.3340172,-0.335608,-0.1368474,-0.1478494,0.4409847,172.17.160.76,0.0.0.0,1,unknown,1,2014-11-13 21:40:45.193,657,2014-11-13 21:38:15.181,0
2014-11-13 21:40:46.220,8791,293.0334,40.10425,-88.22172,231,-1,-1,10,165,1415935777,-0.6427765,-0.9137726,0.6091156,-11.29824,-29.56438,0.5891113,222.1668,225.25,10,-0.9160627,0.9700154,-1.059313,1.128182,-1.501473,0.8819849,-1.417266,0.5870872,-0.7375446,-0.06608675,-0.1610271,0.5420595,172.17.160.76,0.0.0.0,1,unknown,1,2014-11-13 21:40:45.193,657,2014-11-13 21:38:15.181,0
2014-11-13 21:40:46.254,8792,293.0667,40.10425,-88.22172,231,-1,-1,10,165,1415935777,-0.5996857,-0.8418427,0.643692,-10.98812,-29.87442,-0.3820496,223.3168,226.4,10,-0.3778951,1.247557,-1.279593,1.078865,-1.434041,0.908952,-0.6267113,1.174439,-1.14396,-0.01196896,-0.109318,0.7274764,172.17.160.76,0.0.0.0,1,walking,0,2014-11-13 21:40:46.121,657,2014-11-13 21:38:15.181,0
2014-11-13 21:40:46.287,8793,293.1,40.10425,-88.22172,231,-1,-1,10,165,1415935777,-0.483902,-0.7776184,0.5617371,-9.609791,-30.56338,-1.855499,225.3069,228.3901,10,0.1448459,1.079229,-1.446967,1.051104,-1.373245,0.9441911,-0.1910691,1.336448,-1.33262,0.006755675,0.003580583,0.7417853,172.17.160.76,0.0.0.0,1,walking,0,2014-11-13 21:40:46.121,657,2014-11-13 21:38:15.181,0
2014-11-13 21:40:46.320,8794,293.1334,40.10425,-88.22172,231,-1,-1,10,165,1415935777,-0.3595123,-0.9248505,0.5628357,-8.576046,-30.70118,-2.123383,226.1265,229.2097,10,1.054713,0.5382701,-1.405456,1.049123,-1.328247,1.001393,0.7190257,0.8215336,-1.359969,0.05542296,0.0466751,0.6927502,172.17.160.76,0.0.0.0,1,walking,0,2014-11-13 21:40:46.121,657,2014-11-13 21:38:15.181,0
2014-11-13 21:40:46.353,8795,293.1667,40.10425,-88.22172,231,-1,-1,10,165,1415935777,-0.2404938,-1.063248,0.6623535,-6.129509,-31.2868,-1.420105,226.375,229.4582,10,1.914415,0.3078156,-1.617939,1.091065,-1.345486,1.049576,1.354483,0.4643655,-1.480993,0.1258409,-0.05763828,0.6740797,172.17.160.76,0.0.0.0,1,walking,0,2014-11-13 21:40:46.121,657,2014-11-13 21:38:15.181,0
2014-11-13 21:40:46.387,8796,293.2,40.10425,-88.22172,231,-1,-1,10,165,1415935777,-0.3358154,-1.209732,0.6868439,-3.579601,-31.3557,0.3881836,227.5431,230.6263,10,2.461842,0.8800208,-1.652004,1.29773,-1.505084,1.141672,2.54129,0.792036,-1.494326,0.09887768,-0.24782,0.7547539,172.17.160.76,0.0.0.0,1,walking,0,2014-11-13 21:40:46.121,657,2014-11-13 21:38:15.181,0
2014-11-13 21:40:46.420,8797,293.2333,40.10425,-88.22172,231,-1,-1,10,165,1415935777,0.1504669,-1.413788,0.9030304,-1.40873,-30.97677,3.435547,227.7395,230.8227,10,2.961781,2.57471,-2.621516,1.499555,-1.653702,1.196033,2.773385,1.823739,-2.191402,0.3658477,-0.4992,0.7149109,172.17.160.76,0.0.0.0,1,walking,0,2014-11-13 21:40:46.121,657,2014-11-13 21:38:15.181,0
2014-11-13 21:40:46.453,8798,293.2667,40.10425,-88.22172,231,-1,-1,10,165,1415935777,0.3100281,-1.310577,1.150833,-0.2371483,-30.63229,5.578735,226.6973,229.7805,10,4.171355,5.266948,-3.572509,1.8417,-1.876806,1.262067,3.785119,4.447885,-3.307605,0.5066059,-0.4121936,0.91443,172.17.160.76,0.0.0.0,1,walking,0,2014-11-13 21:40:46.121,657,2014-11-13 21:38:15.181,0
2014-11-13 21:40:46.487,8799,293.3,40.10425,-88.22172,231,-1,-1,10,165,1415935777,0.780899,-1.494904,1.819717,2.106018,-28.77208,10.66885,221.504,224.5872,10,5.596083,7.581629,-3.850132,2.452739,-2.284624,1.292047,5.196957,6.948584,-3.859124,0.7590183,-0.3323008,1.300928,172.17.160.76,0.0.0.0,1,walking,0,2014-11-13 21:40:46.121,657,2014-11-13 21:38:15.181,0
2014-11-13 21:40:46.520,8800,293.3333,40.10425,-88.22172,231,-1,-1,10,165,1415935777,1.194733,-1.739334,2.190887,2.485062,-25.84396,17.60071,209.382,212.4652,10,6.607274,9.070156,-3.661382,3.104004,-2.663403,1.217634,6.404565,8.753604,-3.677935,1.051584,-0.6357979,1.664548,172.17.160.76,0.0.0.0,1,walking,0,2014-11-13 21:40:46.121,657,2014-11-13 21:38:15.181,0
2014-11-13 21:40:46.554,8801,293.3667,40.10425,-88.22172,231,-1,-1,10,165,1415935777,1.57135,-2.378174,2.200684,1.210102,-23.67371,20.91599,199.4493,202.5325,10,7.500897,8.296166,-2.535141,-2.631206,-2.791898,1.010184,7.476226,8.900385,-3.02624,1.678491,-1.170221,1.775149,172.17.160.76,0.0.0.0,1,walking,0,2014-11-13 21:40:46.121,657,2014-11-13 21:38:15.181,0
2014-11-13 21:40:46.587,8802,293.4,40.10425,-88.22172,231,-1,-1,10,165,1415935777,1.278351,-2.800659,1.55426,-3.235008,-18.54089,26.24045,172.6477,175.7309,10,6.377465,6.70148,-0.8823588,-2.398292,-2.73877,0.8259137,7.113353,7.349957,-1.516188,1.806254,-1.834458,1.430603,172.17.160.76,0.0.0.0,1,walking,0,2014-11-13 21:40:46.121,657,2014-11-13 21:38:15.181,0
2014-11-13 21:40:46.620,8803,293.4333,40.10425,-88.22172,231,-1,-1,10,165,1415935777,0.8444672,-2.808746,0.9607544,-9.609791,-12.71911,27.74741,32.84622,35.92941,10,6.19969,5.987117,-0.795229,-2.24578,-2.63718,0.6615212,6.271318,6.449881,-0.7333401,1.471877,-2.215531,0.582085,172.17.160.76,0.0.0.0,1,walking,0,2014-11-13 21:40:46.121,657,2014-11-13 21:38:15.181,0
2014-11-13 21:40:46.654,8804,293.4667,40.10425,-88.22172,231,-1,-1,10,165,1415935777,-0.01202393,-2.171783,1.201935,-12.95224,-9.653206,27.11118,11.6574,14.74059,10,6.483617,6.045713,-0.1920003,-2.103312,-2.532238,0.5137568,6.391397,6.038785,-0.7104791,1.231149,-2.288668,0.2603304,172.17.160.76,0.0.0.0,1,walking,0,2014-11-13 21:40:46.121,657,2014-11-13 21:38:15.181,0
2014-11-13 21:40:46.687,8805,293.5,40.10425,-88.22172,231,-1,-1,10,165,1415935777,-0.9799805,-1.498413,1.655045,-19.12028,-4.451492,23.86288,357.3492,0.4323762,10,6.685541,6.122252,1.802171,-1.920141,-2.3622,0.3126393,6.553463,6.106788,0.7116578,0.3387139,-1.642014,0.6333219,172.17.160.76,0.0.0.0,1,walking,0,2014-11-13 21:40:46.121,657,2014-11-13 21:38:15.181,0
2014-11-13 21:40:46.720,8806,293.5334,40.10425,-88.22172,231,-1,-1,10,165,1415935777,-2.029816,-0.4823761,2.55455,-21.4979,-1.661186,21.82013,352.8417,355.9249,10,7.9901,7.852865,2.691676,-1.749177,-2.142352,0.07708948,7.588427,6.919565,2.742677,-0.9723656,-0.6485881,1.586383,172.17.160.76,0.0.0.0,1,walking,0,2014-11-13 21:40:46.121,657,2014-11-13 21:38:15.181,0
2014-11-13 21:40:46.753,8807,293.5667,40.10425,-88.22172,231,-1,-1,10,165,1415935777,-1.095856,-0.5051727,4.673508,-26.04639,4.126152,14.92175,351.9224,355.0056,10,9.929117,15.23578,2.140539,-1.55491,-1.856801,-0.09744437,9.024605,12.09071,2.223175,-0.7559879,-0.4267122,3.58703,172.17.160.76,0.0.0.0,1,walking,0,2014-11-13 21:40:46.121,657,2014-11-13 21:38:15.181,0
2014-11-13 21:40:46.787,8808,293.6,40.10425,-88.22172,231,-1,-1,10,165,1415935777,0.4228973,-2.179306,3.966125,-26.2876,7.674324,0.4216919,313.1769,316.2601,10,9.05631,19.13349,1.976451,-1.245395,-1.295079,-0.1617288,10.72397,19.78832,1.680962,1.414349,-1.353255,6.166161,172.17.160.76,0.0.0.0,1,walking,0,2014-11-13 21:40:46.121,657,2014-11-13 21:38:15.181,0
2014-11-13 21:40:46.820,8809,293.6334,40.10425,-88.22172,231,-1,-1,10,165,1415935777,0.8815918,-2.872299,2.693054,-23.35864,8.191048,-8.720367,304.623,307.7062,10,2.132364,7.927528,8.293153,-1.000576,-0.7649847,-0.1337668,4.140098,11.97239,5.680043,1.138579,-2.596869,3.940092,172.17.160.76,0.0.0.0,1,walking,0,2014-11-13 21:40:46.121,657,2014-11-13 21:38:15.181,0
2014-11-13 21:40:46.853,8810,293.6667,40.10425,-88.22172,231,-1,-1,10,165,1415935777,0.7586212,-0.5412903,0.467392,-14.88191,8.328842,-23.1199,301.3024,304.3856,10,5.332162,-7.278397,7.412416,-0.6351706,-0.5303997,-0.2723975,3.556195,-1.787412,9.502225,2.613431,-2.221815,1.045964,172.17.160.76,0.0.0.0,1,walking,0,2014-11-13 21:40:46.121,657,2014-11-13 21:38:15.181,0
2014-11-13 21:40:46.887,8811,293.7,40.10425,-88.22172,231,-1,-1,10,165,1415935777,-0.1611786,-1.041428,0.9645844,-11.19487,7.260948,-27.70767,262.4123,265.4955,10,6.225701,-7.502873,5.172406,-0.436429,-0.585769,-0.2752985,5.399347,-7.214421,7.430822,1.290644,-0.8131245,1.269301,172.17.160.76,0.0.0.0,1,walking,0,2014-11-13 21:40:46.121,657,2014-11-13 21:38:15.181,0
2014-11-13 21:40:46.920,8812,293.7333,40.10425,-88.22172,231,-1,-1,10,165,1415935777,-1.056381,-1.956665,-0.3281708,-12.60766,6.124153,-27.20541,252.5181,255.6013,10,5.235687,-2.283586,2.144408,-0.1105314,-0.779495,-0.2114115,6.296469,-4.973207,3.570163,0.1909629,-1.925279,1.480864,172.17.160.76,0.0.0.0,1,walking,0,2014-11-13 21:40:46.121,657,2014-11-13 21:38:15.181,0
2014-11-13 21:40:46.953,8813,293.7667,40.10425,-88.22172,231,-1,-1,10,165,1415935777,-0.6637115,-1.203125,-0.913681,-17.43182,1.921448,-26.4017,236.8437,239.9269,10,4.356626,0.1723033,1.566202,0.06071226,-0.8263364,-0.1502845,4.951376,-1.047017,1.654425,-0.3292169,-2.106385,0.3417666,172.17.160.76,0.0.0.0,1,walking,0,2014-11-13 21:40:46.121,657,2014-11-13 21:38:15.181,0
2014-11-13 21:40:46.987,8814,293.8,40.10425,-88.22172,231,-1,-1,10,165,1415935777,-0.481781,-1.013611,-1.053558,-19.67161,-2.246803,-25.96628,225.594,228.6772,10,3.811637,-0.848864,1.384536,0.1925892,-0.8101943,-0.09296509,4.237047,0.1911213,1.650996,0.05758139,-1.295956,-0.2273,172.17.160.76,0.0.0.0,1,walking,0,2014-11-13 21:40:46.121,657,2014-11-13 21:38:15.181,0
2014-11-13 21:40:47.020,8815,293.8333,40.10425,-88.22172,231,-1,-1,10,165,1415935777,-0.8785858,-0.9842072,-1.057449,-20.32632,-4.003677,-25.59799,220.1805,223.2637,10,2.44805,-2.627432,0.6138864,0.3389418,-0.8382174,-0.02788478,3.278131,-1.88998,0.9451728,0.115798,-1.06969,-0.3932841,172.17.160.76,0.0.0.0,1,walking,0,2014-11-13 21:40:46.121,657,2014-11-13 21:38:15.181,0
2014-11-13 21:40:47.053,8816,293.8667,40.10425,-88.22172,231,-1,-1,10,165,1415935777,-1.107254,-0.8200836,-0.954895,-21.77356,-6.690643,-24.12442,214.2106,217.2938,10,1.658428,-2.56559,0.1692234,0.4306262,-0.9384333,0.01731227,1.984226,-2.674156,0.2983844,-0.2288272,-0.8084027,-0.3486418,172.17.160.76,0.0.0.0,1,walking,0,2014-11-13 21:40:46.121,657,2014-11-13 21:38:15.181,0
2014-11-13 21:40:47.087,8817,293.9,40.10425,-88.22172,231,-1,-1,10,165,1415935777,-1.167358,-0.6936493,-0.9186401,-24.18563,-8.481956,-21.4454,211.2619,214.3451,10,1.149662,-1.485204,-0.1766557,0.4721169,-1.00718,0.04134534,1.373915,-1.823003,-0.01647725,-0.3617535,-0.7498041,-0.3962029,172.17.160.76,0.0.0.0,1,walking,0,2014-11-13 21:40:46.121,657,2014-11-13 21:38:15.181,0
2014-11-13 21:40:47.120,8818,293.9333,40.10425,-88.22172,231,-1,-1,10,165,1415935777,-1.080734,-0.519104,-0.8404541,-25.25383,-9.205368,-20.40726,210.5022,213.5853,10,0.6464371,-0.5804711,-0.2835856,0.4967235,-1.043528,0.06382205,0.8755828,-0.7633479,-0.2924469,-0.2719128,-0.5625335,-0.401674,172.17.160.76,0.0.0.0,1,walking,0,2014-11-13 21:40:46.121,657,2014-11-13 21:38:15.181,0
2014-11-13 21:40:47.153,8819,293.9667,40.10425,-88.22172,231,-1,-1,10,165,1415935777,-0.9249268,-0.5052643,-0.7956085,-25.943,-10.03214,-19.40268,209.532,212.6152,10,-0.02475462,-0.1085243,-0.3030012,0.5087593,-1.056065,0.0785457,0.3884905,-0.1884692,-0.1772016,-0.1748154,-0.4370532,-0.3434605,172.17.160.76,0.0.0.0,1,walking,0,2014-11-13 21:40:46.121,657,2014-11-13 21:38:15.181,0
2014-11-13 21:40:47.187,8820,294,40.10425,-88.22172,231,-1,-1,10,165,1415935777,-0.885376,-0.3864136,-0.7275391,-26.21866,-10.78999,-18.93393,210.2805,213.3637,10,-0.6234955,-0.2113932,-0.4552157,0.5068926,-1.058014,0.08669178,-0.1801006,-0.04937585,-0.3675299,-0.0568164,-0.4186811,-0.3068471,172.17.160.76,0.0.0.0,1,walking,0,2014-11-13 21:40:46.121,657,2014-11-13 21:38:15.181,0
2014-11-13 21:40:47.220,8821,294.0334,40.10425,-88.22172,231,-1,-1,10,165,1415935777,-0.8438263,-0.3118744,-0.664505,-26.04636,-11.03114,-18.83353,210.187,213.2701,10,-1.032934,-0.428191,-0.4856072,0.4872636,-1.060357,0.09033269,-0.7130544,-0.2175122,-0.4343545,-0.01640337,-0.2962037,-0.2409707,172.17.160.76,0.0.0.0,1,walking,0,2014-11-13 21:40:46.121,657,2014-11-13 21:38:15.181,0
2014-11-13 21:40:47.253,8822,294.0667,40.10425,-88.22172,231,-1,-1,10,165,1415935777,-0.8704376,-0.1588135,-0.515274,-26.39095,-11.03113,-18.36472,211.1455,214.2287,10,-1.385558,-0.6756088,-0.6278282,0.4432318,-1.071787,0.08831567,-1.163852,-0.5189384,-0.5584474,0.04998908,-0.1592966,-0.1175933,172.17.160.76,0.0.0.0,1,walking,0,2014-11-13 21:40:46.121,657,2014-11-13 21:38:15.181,0
2014-11-13 21:40:47.287,8823,294.1,40.10425,-88.22172,231,-1,-1,10,165,1415935777,-0.9449921,-0.1168823,-0.3999023,-26.5977,-10.68665,-18.36465,213.8697,216.9529,10,-1.445892,-0.5010003,-0.7264621,0.4002865,-1.085827,0.08594115,-1.352383,-0.5927073,-0.6303108,0.01098655,-0.07297808,-0.05081337,172.17.160.76,0.0.0.0,1,walking,0,2014-11-13 21:40:46.121,657,2014-11-13 21:38:15.181,0
2014-11-13 21:40:47.319,8824,294.1334,40.10425,-88.22172,231,-1,-1,10,165,1415935777,-0.9507141,-0.1289673,-0.3702545,-26.5977,-10.34217,-18.36465,215.8067,218.8899,10,-1.48586,-0.1627293,-0.8200645,0.3214618,-1.097664,0.08675903,-1.411223,-0.1764421,-0.809412,-0.06826577,-0.03361955,0.08949183,172.17.160.76,0.0.0.0,1,walking,0,2014-11-13 21:40:46.121,657,2014-11-13 21:38:15.181,0
2014-11-13 21:40:47.353,8825,294.1667,40.10425,-88.22172,231,-1,-1,10,165,1415935777,-0.9166412,-0.09107971,-0.3634338,-26.97674,-9.963249,-18.93393,219.937,223.0202,10,-1.423898,-0.04171949,-0.8323971,0.2727646,-1.095121,0.08879282,-1.385527,0.009571917,-0.7989755,-0.04628123,-0.01685359,0.09480684,172.17.160.76,0.0.0.0,1,walking,0,2014-11-13 21:40:46.121,657,2014-11-13 21:38:15.181,0
2014-11-13 21:40:47.387,8826,294.2,40.10425,-88.22172,231,-1,-1,10,165,1415935777,-0.9601746,-0.09378052,-0.3824921,-26.76999,-9.618759,-19.13486,223.3903,226.4735,10,-1.392142,-0.1369861,-0.7820665,0.2254376,-1.09098,0.09167683,-1.338673,-0.0478084,-0.7962687,-0.0487284,0.01240113,0.091376,172.17.160.76,0.0.0.0,1,walking,0,2014-11-13 21:40:46.121,657,2014-11-13 21:38:15.181,0
2014-11-13 21:40:47.420,8827,294.2333,40.10425,-88.22172,231,-1,-1,10,165,1415935777,-0.9468231,-0.0617218,-0.3973694,-26.56324,-9.549858,-19.60367,225.6338,228.717,10,-1.244066,-0.05375377,-0.7259242,0.1802872,-1.088887,0.09331923,-1.265378,-0.05570719,-0.7116663,-0.08127535,-0.004975946,0.07241708,172.17.160.76,0.0.0.0,3,walking,0,2014-11-13 21:40:46.121,657,2014-11-13 21:38:15.181,0
2014-11-13 21:40:47.459,8828,294.2667,40.10425,-88.22172,231,-1,-1,10,165,1415935777,-0.9482117,-0.01963806,-0.3875885,-25.90854,-9.308723,-19.43631,227.7073,230.7905,10,-1.083419,-0.04769029,-0.6160997,0.1387324,-1.085178,0.09542169,-1.124656,0.02299843,-0.6926721,-0.06645988,0.03355515,0.06726258,172.17.160.76,0.0.0.0,3,walking,0,2014-11-13 21:40:46.121,657,2014-11-13 21:38:15.181,0
2014-11-13 21:40:47.486,8829,294.3,40.10425,-88.22172,231,-1,-1,10,165,1415935777,-0.91008,0.006790161,-0.4070435,-25.39166,-9.205383,-19.87161,231.6904,234.7736,10,-0.9516713,-0.004061854,-0.4582025,0.1026783,-1.081042,0.09705629,-0.97161,0.0326046,-0.5360954,-0.06465196,0.09322662,0.08355165,172.17.160.76,0.0.0.0,3,walking,0,2014-11-13 21:40:46.121,657,2014-11-13 21:38:15.181,0
2014-11-13 21:40:47.520,8830,294.3333,40.10425,-88.22172,231,-1,-1,10,165,1415935777,-0.8708649,-0.01965332,-0.4034271,-25.32275,-8.929794,-19.73764,232.1138,235.197,10,-0.8078502,0.09618219,-0.4008931,0.06349933,-1.074634,0.09610373,-0.7800354,0.123788,-0.4089549,-0.01699141,0.097497,0.07085784,172.17.160.76,0.0.0.0,3,walking,0,2014-11-13 21:40:46.121,657,2014-11-13 21:38:15.181,0
2014-11-13 21:40:47.553,8831,294.3667,40.10425,-88.22172,231,-1,-1,10,165,1415935777,-0.8111115,-0.04176331,-0.4144745,-25.01262,-8.964249,-20.50784,234.9159,237.9991,10,-0.7037027,0.09588232,-0.2930135,0.0392354,-1.06746,0.09469896,-0.6993062,0.175575,-0.2996519,0.00665108,0.07319517,0.07361903,172.17.160.76,0.0.0.0,3,walking,0,2014-11-13 21:40:46.121,657,2014-11-13 21:38:15.181,0
2014-11-13 21:40:47.587,8832,294.4,40.10425,-88.22172,231,-1,-1,10,165,1415935777,-0.7819672,-0.05867004,-0.4118347,-24.66803,-8.413071,-20.84274,237.0095,240.0927,10,-0.5652264,-0.01888394,-0.2856445,0.01207012,-1.059326,0.09203811,-0.5438172,0.0928454,-0.269887,0.08313266,0.0375259,0.07483683,172.17.160.76,0.0.0.0,3,walking,0,2014-11-13 21:40:46.121,657,2014-11-13 21:38:15.181,0
