time,timestamp,recordtime,lat,long,alt,speed,course,verticalAccuracy,horizontalAccuracy,locTimeStamp,accelerationX,accelerationY,accelerationZ,HeadingX,HeadingY,HeadingZ,TrueHeading,MagneticHeading,HeadingAccuracy,RotationX,RotationY,RotationZ,motionYaw,motionRoll,motionPitch,motionRotationRateX,motionRotationRateY,motionRotationRateZ,motionUserAccelerationX,motionUserAccelerationY,motionUserAccelerationZ,en0,pdp_ip0,DeviceOrientation,Activity,Activity Confidence,Activity Start,Steps,Last Step Date,State
2014-11-13 21:40:36.719,8506,283.5334,40.10425,-88.22172,231,-1,-1,10,165,1415935777,-0.2925568,-0.9516754,-0.1713867,-15.19209,-27.53188,-0.4494019,107.1386,110.2218,10,-0.0714606,-0.1095321,-0.01623143,3.081537,-1.06783,1.228757,-0.02283153,-0.02254014,-0.01184544,0.007433177,-0.003240027,-0.0124571,172.17.160.76,0.0.0.0,1,walking,0,2014-11-13 21:40:28.795,657,2014-11-13 21:38:15.181,0
2014-11-13 21:40:36.753,8507,283.5667,40.10425,-88.22172,231,-1,-1,10,165,1415935777,-0.3059082,-0.9597321,-0.1625671,-15.01979,-27.77303,-0.3489685,107.1381,110.2213,10,-0.07567612,-0.1000704,-0.02996509,3.079165,-1.066958,1.228651,0.001653088,-0.0406181,-0.0002814125,-0.00556055,-0.01259843,-0.003592967,172.17.160.76,0.0.0.0,1,walking,0,2014-11-13 21:40:28.795,657,2014-11-13 21:38:15.181,0
2014-11-13 21:40:36.787,8508,283.6,40.10425,-88.22172,231,-1,-1,10,165,1415935777,-0.306778,-0.9289246,-0.1632385,-14.33062,-27.70413,0.052948,107.2308,110.314,10,-0.08201897,-0.07997366,-0.04257329,3.07869,-1.067592,1.22865,-0.01426836,-0.02907399,-0.02032806,-0.01308672,-0.01223252,-0.001550816,172.17.160.76,0.0.0.0,1,walking,0,2014-11-13 21:40:28.795,657,2014-11-13 21:38:15.181,0
2014-11-13 21:40:36.820,8509,283.6334,40.10425,-88.22172,231,-1,-1,10,165,1415935777,-0.3054199,-0.9348755,-0.1651154,-14.26171,-27.63524,0.1199341,107.2917,110.3749,10,-0.07248832,-0.05852669,-0.01595899,3.076722,-1.066179,1.228194,-0.01107736,0.006069067,-0.009536331,-0.01110787,0.01285216,-0.004360972,172.17.160.76,0.0.0.0,1,walking,0,2014-11-13 21:40:28.795,657,2014-11-13 21:38:15.181,0
2014-11-13 21:40:36.854,8510,283.6667,40.10425,-88.22172,231,-1,-1,10,165,1415935777,-0.3029022,-0.9424591,-0.1571655,-14.36508,-27.5319,-0.1144409,107.3856,110.4688,10,-0.07035299,-0.04150217,-0.01269289,3.077173,-1.066202,1.227432,-0.0004569505,0.0263882,0.008578639,-0.01245955,0.0001294762,0.003852613,172.17.160.76,0.0.0.0,1,walking,0,2014-11-13 21:40:28.795,657,2014-11-13 21:38:15.181,0
2014-11-13 21:40:36.887,8511,283.7,40.10425,-88.22172,231,-1,-1,10,165,1415935777,-0.2947388,-0.9251862,-0.1608124,-14.434,-27.60078,-0.4493103,107.4181,110.5013,10,-0.08421901,-0.04680026,-0.01160739,3.077785,-1.066001,1.226912,-0.01959381,0.02293783,-0.00190541,-0.008203234,0.003967342,0.003400944,172.17.160.76,0.0.0.0,1,walking,0,2014-11-13 21:40:28.795,657,2014-11-13 21:38:15.181,0
2014-11-13 21:40:36.920,8512,283.7333,40.10425,-88.22172,231,-1,-1,10,165,1415935777,-0.2899475,-0.9347229,-0.1573029,-14.64075,-27.94527,-0.3153687,107.4423,110.5255,10,-0.07150934,-0.0636325,0.01160899,3.077385,-1.065138,1.226168,-0.007950001,0.01142656,0.0224054,0.001912266,0.01917334,-0.0006742095,172.17.160.76,0.0.0.0,1,walking,0,2014-11-13 21:40:28.795,657,2014-11-13 21:38:15.181,0
2014-11-13 21:40:36.953,8513,283.7667,40.10425,-88.22172,231,-1,-1,10,165,1415935777,-0.2927551,-0.9394989,-0.1556854,-14.60629,-27.63524,-0.5497742,107.4749,110.5581,10,-0.07152212,-0.07637573,0.01260341,3.07898,-1.066718,1.225472,-0.003728337,-0.007631266,0.03184232,0.003049074,0.006059612,0.009062479,172.17.160.76,0.0.0.0,1,walking,0,2014-11-13 21:40:28.795,657,2014-11-13 21:38:15.181,0
2014-11-13 21:40:36.987,8514,283.8,40.10425,-88.22172,231,-1,-1,10,165,1415935777,-0.2898407,-0.9506073,-0.1629944,-14.67522,-27.35966,-0.6166992,107.4765,110.5597,10,-0.07045685,-0.08595566,0.01042601,3.080314,-1.068395,1.225023,-0.003709024,-0.01300086,0.02438259,0.006866853,-0.0003485769,0.006708825,172.17.160.76,0.0.0.0,1,walking,0,2014-11-13 21:40:28.795,657,2014-11-13 21:38:15.181,0
2014-11-13 21:40:37.020,8515,283.8333,40.10425,-88.22172,231,-1,-1,10,165,1415935777,-0.2931519,-0.9454651,-0.166626,-14.60631,-27.42856,-0.817627,107.4264,110.5096,10,-0.07364945,-0.1040662,0.003973702,3.080909,-1.06949,1.224694,-0.004805266,-0.02782902,0.03067549,0.007652113,-0.009905153,3.168024e-05,172.17.160.76,0.0.0.0,1,walking,0,2014-11-13 21:40:28.795,657,2014-11-13 21:38:15.181,0
2014-11-13 21:40:37.055,8516,283.8667,40.10425,-88.22172,231,-1,-1,10,165,1415935777,-0.2997742,-0.9450684,-0.1701508,-14.70968,-27.46301,-0.5831909,107.4215,110.5047,10,-0.06400854,-0.09354087,-0.008744756,3.080431,-1.070395,1.224235,-0.00899396,-0.04093381,0.01158009,0.001693643,-0.002584283,-0.003936504,172.17.160.76,0.0.0.0,1,walking,0,2014-11-13 21:40:28.795,657,2014-11-13 21:38:15.181,0
2014-11-13 21:40:37.086,8517,283.9,40.10425,-88.22172,231,-1,-1,10,165,1415935777,-0.3031311,-0.9551086,-0.1610565,-15.0198,-27.56635,-0.4827271,107.4101,110.4933,10,-0.06397579,-0.07126619,-0.01393499,3.080343,-1.071086,1.223958,0.007018245,-0.01544741,0.01059251,-0.001154438,-0.0100941,-0.001927303,172.17.160.76,0.0.0.0,1,walking,0,2014-11-13 21:40:28.795,657,2014-11-13 21:38:15.181,0
2014-11-13 21:40:37.120,8518,283.9333,40.10425,-88.22172,231,-1,-1,10,165,1415935777,-0.2996826,-0.9400635,-0.1634216,-14.70969,-27.32521,-0.3153076,107.4198,110.503,10,-0.08418785,-0.06497633,-0.02656397,3.081129,-1.072011,1.223936,-0.003591079,0.001463093,-0.00201663,-0.004601951,-0.01466402,0.001560371,172.17.160.76,0.0.0.0,1,walking,0,2014-11-13 21:40:28.795,657,2014-11-13 21:38:15.181,0
2014-11-13 21:40:37.153,8519,283.9667,40.10425,-88.22172,231,-1,-1,10,165,1415935777,-0.2955017,-0.9427185,-0.161087,-14.88197,-27.22187,-0.3487854,107.4077,110.4909,10,-0.07248991,-0.05213511,-0.01380237,3.079508,-1.070283,1.223935,-0.01105062,0.01423342,0.00020129,0.00119013,0.004607619,0.001832111,172.17.160.76,0.0.0.0,1,walking,0,2014-11-13 21:40:28.795,657,2014-11-13 21:38:15.181,0
2014-11-13 21:40:37.187,8520,284,40.10425,-88.22172,231,-1,-1,10,165,1415935777,-0.2963104,-0.9275665,-0.1554871,-14.81306,-27.35966,-0.4827271,107.3727,110.4559,10,-0.08422141,-0.07553843,-0.01812761,3.079538,-1.069952,1.223945,-0.010006,-0.001682779,0.003297208,0.001631957,-0.003461058,0.005023858,172.17.160.76,0.0.0.0,1,walking,0,2014-11-13 21:40:28.795,657,2014-11-13 21:38:15.181,0
2014-11-13 21:40:37.221,8521,284.0334,40.10425,-88.22172,231,-1,-1,10,165,1415935777,-0.297287,-0.9471588,-0.1580048,-15.08872,-27.15298,-0.6166382,107.3431,110.4263,10,-0.07461724,-0.07556719,-0.02134817,3.079082,-1.069743,1.22387,-0.01741923,-0.009430429,-0.005139634,0.001903809,0.01285557,0.007836386,172.17.160.76,0.0.0.0,1,walking,0,2014-11-13 21:40:28.795,657,2014-11-13 21:38:15.181,0
2014-11-13 21:40:37.253,8522,284.0667,40.10425,-88.22172,231,-1,-1,10,165,1415935777,-0.2995148,-0.9759064,-0.1579285,-14.91644,-27.25631,-0.8510437,107.2894,110.3726,10,-0.05659644,-0.07532059,0.01255308,3.080744,-1.071732,1.223932,0.01341076,-0.006035469,0.02448378,0.00217703,-0.01655759,0.007245418,172.17.160.76,0.0.0.0,1,walking,0,2014-11-13 21:40:28.795,657,2014-11-13 21:38:15.181,0
2014-11-13 21:40:37.287,8523,284.1,40.10425,-88.22172,231,-1,-1,10,165,1415935777,-0.3030701,-0.958786,-0.1646423,-14.74415,-27.15297,-0.8845215,107.2223,110.3055,10,-0.08108474,-0.1232932,-0.00989897,3.0827,-1.074192,1.22381,-0.008991858,-0.03685638,0.02228053,-0.002556541,-0.03451285,0.0003090414,172.17.160.76,0.0.0.0,1,walking,0,2014-11-13 21:40:28.795,657,2014-11-13 21:38:15.181,0
2014-11-13 21:40:37.320,8524,284.1334,40.10425,-88.22172,231,-1,-1,10,165,1415935777,-0.3074493,-0.9512939,-0.1669312,-14.43403,-27.39411,-0.7171021,107.2233,110.3065,10,-0.05976427,-0.1030745,-0.004564925,3.081744,-1.075312,1.223373,-0.003625367,-0.05185573,0.006258536,-0.004928722,-0.011407,-0.004911661,172.17.160.76,0.0.0.0,1,walking,0,2014-11-13 21:40:28.795,657,2014-11-13 21:38:15.181,0
2014-11-13 21:40:37.353,8525,284.1667,40.10425,-88.22172,231,-1,-1,10,165,1415935777,-0.3099518,-0.9371796,-0.1642761,-14.46848,-27.08408,-0.5496216,107.2224,110.3056,10,-0.06714601,-0.06814071,-0.02239852,3.082406,-1.077028,1.222943,0.00277951,-0.02207443,0.0106378,-0.006614795,-0.0118891,-0.004059667,172.17.160.76,0.0.0.0,1,walking,0,2014-11-13 21:40:28.795,657,2014-11-13 21:38:15.181,0
2014-11-13 21:40:37.387,8526,284.2,40.10425,-88.22172,231,-1,-1,10,165,1415935777,-0.30867,-0.9171143,-0.1556396,-14.22726,-27.11854,0.0866394,107.3197,110.4028,10,-0.05963324,-0.01823413,-0.02640977,3.082623,-1.077351,1.222495,-0.001364071,0.01588296,-0.01031333,-0.01130353,0.006192385,-0.003407903,172.17.160.76,0.0.0.0,1,walking,0,2014-11-13 21:40:28.795,657,2014-11-13 21:38:15.181,0
2014-11-13 21:40:37.420,8527,284.2333,40.10425,-88.22172,231,-1,-1,10,165,1415935777,-0.2988739,-0.9155121,-0.1496429,-14.50294,-27.04963,-0.248291,107.3394,110.4226,10,-0.05011217,0.0117536,0.005556952,3.083635,-1.077071,1.222083,0.01250532,0.06481866,-0.00161236,-0.007787896,0.02269886,0.006290098,172.17.160.76,0.0.0.0,1,walking,0,2014-11-13 21:40:28.795,657,2014-11-13 21:38:15.181,0
2014-11-13 21:40:37.454,8528,284.2667,40.10425,-88.22172,231,-1,-1,10,165,1415935777,-0.289032,-0.9288788,-0.1492004,-14.81306,-27.01518,-0.4157104,107.3436,110.4268,10,-0.04806713,-0.01464472,0.0277014,3.088341,-1.078762,1.221339,0.01877587,0.0661962,0.04083247,0.008070761,0.01954512,0.01158942,172.17.160.76,0.0.0.0,1,walking,0,2014-11-13 21:40:28.795,657,2014-11-13 21:38:15.181,0
2014-11-13 21:40:37.487,8529,284.3,40.10425,-88.22172,231,-1,-1,10,165,1415935777,-0.2863464,-0.9556122,-0.1546631,-14.98535,-27.04962,-1.052002,107.2539,110.3371,10,-0.05028075,-0.08470344,0.0368941,3.09422,-1.083142,1.220999,0.02189478,0.003587774,0.05216436,0.01500928,-0.002940641,0.01345207,172.17.160.76,0.0.0.0,1,walking,0,2014-11-13 21:40:28.795,657,2014-11-13 21:38:15.181,0
2014-11-13 21:40:37.520,8530,284.3333,40.10425,-88.22172,231,-1,-1,10,165,1415935777,-0.2946777,-0.9566956,-0.1730347,-14.84752,-27.18742,-0.650116,107.1993,110.2825,10,-0.05884041,-0.1431742,0.03237232,3.096639,-1.086331,1.220984,0.006917369,-0.05908236,0.05400775,0.013686,-0.01762471,-0.004490901,172.17.160.76,0.0.0.0,1,walking,0,2014-11-13 21:40:28.795,657,2014-11-13 21:38:15.181,0
2014-11-13 21:40:37.553,8531,284.3667,40.10425,-88.22172,231,-1,-1,10,165,1415935777,-0.3055725,-0.963028,-0.1704254,-14.98535,-27.11852,-0.3152466,107.1945,110.2777,10,-0.04492486,-0.1443875,0.01320715,3.097361,-1.089169,1.220377,0.01550893,-0.08495934,0.03691385,0.009103889,-0.02091514,-0.01171028,172.17.160.76,0.0.0.0,1,walking,0,2014-11-13 21:40:28.795,657,2014-11-13 21:38:15.181,0
2014-11-13 21:40:37.587,8532,284.4,40.10425,-88.22172,231,-1,-1,10,165,1415935777,-0.3167877,-0.9325562,-0.1747589,-15.36439,-27.08408,-0.4157104,107.1471,110.2303,10,-0.06504025,-0.09469082,-0.02042325,3.09857,-1.092166,1.220115,0.01985567,-0.05323486,0.01689486,-0.003477711,-0.02520122,-0.01458483,172.17.160.76,0.0.0.0,1,walking,0,2014-11-13 21:40:28.795,657,2014-11-13 21:38:15.181,0
2014-11-13 21:40:37.621,8533,284.4333,40.10425,-88.22172,231,-1,-1,10,165,1415935777,-0.3185577,-0.8935699,-0.1687927,-15.46777,-27.11852,-0.4492188,107.1132,110.1964,10,-0.06924059,-0.02671417,-0.02429549,3.096505,-1.090934,1.219259,-0.008782343,0.002826117,-0.01879047,-0.01153505,0.02330189,-0.01777498,172.17.160.76,0.0.0.0,1,walking,0,2014-11-13 21:40:28.795,657,2014-11-13 21:38:15.181,0
2014-11-13 21:40:37.653,8534,284.4667,40.10425,-88.22172,231,-1,-1,10,165,1415935777,-0.3173981,-0.8993683,-0.154892,-15.19209,-27.46301,-0.5161438,107.0627,110.1459,10,-0.06181809,0.01383672,-0.0007571367,3.09546,-1.089411,1.219012,-0.002394878,0.04010173,-0.006940319,-0.01314395,0.04518961,-0.009253039,172.17.160.76,0.0.0.0,1,walking,0,2014-11-13 21:40:28.795,657,2014-11-13 21:38:15.181,0
2014-11-13 21:40:37.687,8535,284.5,40.10425,-88.22172,231,-1,-1,10,165,1415935777,-0.2986603,-0.8682098,-0.1507263,-15.12318,-27.3252,-0.4491577,107.049,110.1322,10,-0.09592094,0.03298858,0.0005328985,3.096926,-1.087574,1.218098,-0.005637611,0.1051529,0.02419906,-0.008938971,0.04154761,0.0113907,172.17.160.76,0.0.0.0,1,walking,0,2014-11-13 21:40:28.795,657,2014-11-13 21:38:15.181,0
2014-11-13 21:40:37.719,8536,284.5334,40.10425,-88.22172,231,-1,-1,10,165,1415935777,-0.2799225,-0.8644104,-0.1544952,-14.88197,-27.22187,-0.4826965,107.0468,110.13,10,-0.07358953,0.01395443,0.01414831,3.096117,-1.083815,1.216964,-0.03010956,0.09636988,0.01899147,0.007554759,0.06984184,0.0114199,172.17.160.76,0.0.0.0,1,walking,0,2014-11-13 21:40:28.795,657,2014-11-13 21:38:15.181,0
2014-11-13 21:40:37.753,8537,284.5667,40.10425,-88.22172,231,-1,-1,10,165,1415935777,-0.2747192,-0.9317932,-0.1582489,-14.81305,-27.01517,-1.085449,106.9794,110.0626,10,-0.03110759,-0.03783074,0.05405285,3.097203,-1.081712,1.21569,0.02090219,0.05202643,0.05996389,0.02892829,0.0610226,0.004079596,172.17.160.76,0.0.0.0,1,walking,0,2014-11-13 21:40:28.795,657,2014-11-13 21:38:15.181,0
2014-11-13 21:40:37.787,8538,284.6,40.10425,-88.22172,231,-1,-1,10,165,1415935777,-0.2540131,-1.038605,-0.2121277,-14.57185,-26.77403,-0.9180298,106.9316,110.0148,10,-0.06536782,-0.06193394,0.09651349,3.104393,-1.087921,1.214449,0.03676794,-0.003028972,0.08720955,0.03688728,-0.01927415,-0.003941627,172.17.160.76,0.0.0.0,1,walking,0,2014-11-13 21:40:28.795,657,2014-11-13 21:38:15.181,0
2014-11-13 21:40:37.820,8539,284.6334,40.10425,-88.22172,231,-1,-1,10,165,1415935777,-0.2207642,-1.140198,-0.4213867,-14.81306,-26.80848,-1.085449,106.8868,109.97,10,-0.3556487,-0.06739768,0.199474,3.106449,-1.089476,1.209583,-0.160829,0.02675003,0.2197299,0.07151148,-0.2619189,-0.1398408,172.17.160.76,0.0.0.0,1,walking,0,2014-11-13 21:40:28.795,657,2014-11-13 21:38:15.181,0
2014-11-13 21:40:37.853,8540,284.6667,40.10425,-88.22172,231,-1,-1,10,165,1415935777,-0.01620483,-1.168045,-0.6197357,-15.29548,-26.73958,-0.5496521,106.8462,109.9294,10,-0.6561012,-0.2869982,0.08586404,3.084907,-1.071043,1.199675,-0.5294266,-0.14418,0.1045502,0.1544741,-0.1667422,-0.3132089,172.17.160.76,0.0.0.0,1,walking,0,2014-11-13 21:40:28.795,657,2014-11-13 21:38:15.181,0
2014-11-13 21:40:37.887,8541,284.7,40.10425,-88.22172,231,-1,-1,10,165,1415935777,0.1562347,-1.32164,-0.7289124,-16.29477,-27.3252,-0.3822327,107.0304,110.1136,10,-0.8514254,-1.097003,0.3116101,3.048699,-1.046753,1.187,-0.6132271,-0.4853218,0.2325683,0.3686889,-0.3276483,-0.4882169,172.17.160.76,0.0.0.0,1,walking,0,2014-11-13 21:40:28.795,657,2014-11-13 21:38:15.181,0
2014-11-13 21:40:37.920,8542,284.7333,40.10425,-88.22172,231,-1,-1,10,165,1415935777,0.2243042,-1.343826,-0.6953583,-16.19139,-27.08407,-0.01385498,110.0921,113.1753,10,-1.159467,-1.923633,0.4389728,3.009614,-1.039912,1.16709,-0.9353046,-1.427545,0.3890963,0.4949947,-0.4020285,-0.5300247,172.17.160.76,0.0.0.0,1,walking,0,2014-11-13 21:40:28.795,657,2014-11-13 21:38:15.181,0
2014-11-13 21:40:37.953,8543,284.7667,40.10425,-88.22172,231,-1,-1,10,165,1415935777,0.2936401,-1.287704,-0.6078796,-16.63934,-26.98071,0.3545837,113.9812,117.0644,10,-1.794034,-3.239041,0.5458777,2.926116,-1.055599,1.123052,-1.58193,-2.816643,0.5869455,0.6348848,-0.4451928,-0.4668666,172.17.160.76,0.0.0.0,1,walking,0,2014-11-13 21:40:28.795,657,2014-11-13 21:38:15.181,0
2014-11-13 21:40:37.987,8544,284.8,40.10425,-88.22172,231,-1,-1,10,165,1415935777,0.3176117,-1.088821,-0.4229126,-16.70824,-26.29174,0.4885254,116.4824,119.5656,10,-2.159044,-3.605105,0.5920221,2.844507,-1.076541,1.083192,-1.811462,-3.308617,0.571415,0.7023573,-0.3587449,-0.3472686,172.17.160.76,0.0.0.0,1,walking,0,2014-11-13 21:40:28.795,657,2014-11-13 21:38:15.181,0
2014-11-13 21:40:38.020,8545,284.8333,40.10425,-88.22172,231,-1,-1,10,165,1415935777,0.380722,-1.026367,-0.2197571,-17.39741,-26.22285,0.5555115,117.1913,120.2745,10,-2.529229,-4.066305,0.5623195,2.74992,-1.099367,1.03864,-2.222258,-3.651474,0.618945,0.7696579,-0.2271064,-0.1924749,172.17.160.76,0.0.0.0,1,walking,0,2014-11-13 21:40:28.795,657,2014-11-13 21:38:15.181,0
2014-11-13 21:40:38.053,8546,284.8667,40.10425,-88.22172,231,-1,-1,10,165,1415935777,0.4557648,-0.9553528,0.1355591,-17.84536,-26.25729,0.789917,127.9436,131.0268,10,-2.728769,-4.612941,0.4858844,2.60253,-1.136865,0.974681,-2.631905,-4.373439,0.528574,0.9175559,-0.1872477,0.09653776,172.17.160.76,0.0.0.0,1,walking,0,2014-11-13 21:40:28.795,657,2014-11-13 21:38:15.181,0
2014-11-13 21:40:38.087,8547,284.9,40.10425,-88.22172,231,-1,-1,10,165,1415935777,0.3811188,-0.9774628,0.3006287,-19.01695,-26.1195,1.526642,132.9816,136.0648,10,-2.968052,-5.17159,0.5050682,2.484919,-1.181046,0.9285095,-2.782487,-4.873059,0.4904163,1.009868,-0.1546248,0.3631646,172.17.160.76,0.0.0.0,1,walking,0,2014-11-13 21:40:28.795,657,2014-11-13 21:38:15.181,0
2014-11-13 21:40:38.120,8548,284.9333,40.10425,-88.22172,231,-1,-1,10,165,1415935777,0.2276459,-0.9281158,0.5202179,-19.15478,-26.18839,1.928528,137.8398,140.923,10,-3.472213,-6.367628,0.5271949,2.312503,-1.265813,0.866222,-3.28035,-6.024144,0.5562767,0.9415647,-0.1973107,0.6055949,172.17.160.76,0.0.0.0,1,walking,0,2014-11-13 21:40:28.795,657,2014-11-13 21:38:15.181,0
2014-11-13 21:40:38.153,8549,284.9667,40.10425,-88.22172,231,-1,-1,10,165,1415935777,0.07743835,-0.9559174,0.5917664,-19.67165,-25.60277,2.966644,145.8683,148.9515,10,-3.800111,-6.914193,0.5934793,2.216846,-1.321039,0.8369617,-3.519485,-6.539514,0.5374744,0.8765883,-0.1855041,0.685752,172.17.160.76,0.0.0.0,1,walking,0,2014-11-13 21:40:28.795,657,2014-11-13 21:38:15.181,0
2014-11-13 21:40:38.187,8550,285,40.10425,-88.22172,231,-1,-1,10,165,1415935777,-0.1365814,-0.8852844,0.6315002,-18.91357,-25.46498,4.17218,159.741,162.8242,10,-3.984941,-6.872643,0.7376903,1.955817,-1.476207,0.7728394,-3.938256,-6.934218,0.7280306,0.6712117,-0.2111156,0.6783668,172.17.160.76,0.0.0.0,1,walking,0,2014-11-13 21:40:28.795,657,2014-11-13 21:38:15.181,0
2014-11-13 21:40:38.220,8551,285.0334,40.10425,-88.22172,231,-1,-1,10,165,1415935777,-0.3461456,-0.941452,0.6095886,-18.53453,-25.49944,4.875427,166.9641,170.0473,10,-3.83554,-6.087424,0.8866888,1.796553,-1.566995,0.7432529,-3.867953,-6.461428,0.8671881,0.529662,-0.2294262,0.6213593,172.17.160.76,0.0.0.0,1,walking,0,2014-11-13 21:40:28.795,657,2014-11-13 21:38:15.181,0
2014-11-13 21:40:38.253,8552,285.0667,40.10425,-88.22172,231,-1,-1,10,165,1415935777,-0.4910278,-0.8993073,0.6382294,-17.50079,-26.18841,5.81311,182.5022,185.5854,10,-3.533135,-4.978442,0.5793206,1.643158,-1.646591,0.7207261,-3.680765,-5.725323,0.8459494,0.3523496,-0.279538,0.5585861,172.17.160.76,0.0.0.0,1,walking,0,2014-11-13 21:40:28.795,657,2014-11-13 21:38:15.181,0
2014-11-13 21:40:38.286,8553,285.1,40.10425,-88.22172,231,-1,-1,10,165,1415935777,-0.7567902,-0.9043579,0.6451569,-16.81162,-26.80848,6.081024,196.3311,199.4143,10,-3.449251,-3.253537,0.06902514,1.502297,-1.704161,0.7132987,-3.393819,-4.38026,0.4220576,0.2049368,-0.2286943,0.5573302,172.17.160.76,0.0.0.0,1,walking,0,2014-11-13 21:40:28.795,657,2014-11-13 21:38:15.181,0
2014-11-13 21:40:38.320,8554,285.1334,40.10425,-88.22172,231,-1,-1,10,165,1415935777,-0.8043976,-0.8666077,0.6019287,-16.46704,-27.08406,5.813141,202.6192,205.7024,10,-3.255033,-1.270779,-0.1983078,1.368421,-1.716224,0.7238086,-3.377197,-2.535839,-0.02472931,-0.01541073,-0.2421147,0.5365728,172.17.160.76,0.0.0.0,1,walking,0,2014-11-13 21:40:28.795,657,2014-11-13 21:38:15.181,0
2014-11-13 21:40:38.353,8555,285.1667,40.10425,-88.22172,231,-1,-1,10,165,1415935777,-0.6612701,-0.8606415,0.6632996,-15.39883,-27.80747,4.105316,210.9276,214.0108,10,-2.585229,0.512356,-0.5586987,1.241082,-1.672232,0.7410321,-3.000708,-0.544592,-0.2820853,-0.07041768,-0.1915579,0.5272203,172.17.160.76,0.0.0.0,1,walking,0,2014-11-13 21:40:28.795,657,2014-11-13 21:38:15.181,0
2014-11-13 21:40:38.387,8556,285.2,40.10425,-88.22172,231,-1,-1,10,165,1415935777,-0.6028442,-0.8497925,0.7015686,-14.05496,-29.08208,1.392822,218.552,221.6352,10,-1.806513,1.214436,-1.252127,1.080731,-1.523989,0.7792588,-1.876488,1.341428,-1.06186,0.08141346,-0.1830051,0.704324,172.17.160.76,0.0.0.0,1,walking,0,2014-11-13 21:40:28.795,657,2014-11-13 21:38:15.181,0
2014-11-13 21:40:38.420,8557,285.2333,40.10425,-88.22172,231,-1,-1,10,165,1415935777,-0.6738892,-0.7946014,0.5551758,-13.57256,-29.77105,-0.01364136,220.1962,223.2794,10,-1.477244,0.4385401,-1.402869,1.004583,-1.43602,0.8139914,-1.522936,0.8391764,-1.418241,0.02772659,-0.04371853,0.7281071,172.17.160.76,0.0.0.0,1,walking,0,2014-11-13 21:40:28.795,657,2014-11-13 21:38:15.181,0
2014-11-13 21:40:38.453,8558,285.2667,40.10425,-88.22172,231,-1,-1,10,165,1415935777,-0.6642151,-0.8352814,0.5904541,-11.98747,-30.39111,-2.558685,223.9999,227.0831,10,-0.7840634,-0.176142,-1.287692,0.9387949,-1.378445,0.8473156,-1.020852,-0.003622351,-1.270645,-0.01404511,-0.08063311,0.6826439,172.17.160.76,0.0.0.0,1,walking,0,2014-11-13 21:40:28.795,657,2014-11-13 21:38:15.181,0
2014-11-13 21:40:38.487,8559,285.3,40.10425,-88.22172,231,-1,-1,10,165,1415935777,-0.5372772,-0.7376251,0.595932,-10.26456,-30.39111,-3.764221,228.3144,231.3976,10,0.1714974,-0.2238525,-1.778742,0.9030192,-1.35607,0.8833364,-0.1846979,-0.2263797,-1.450093,-0.02149191,-0.006009221,0.7679824,172.17.160.76,0.0.0.0,1,walking,0,2014-11-13 21:40:28.795,657,2014-11-13 21:38:15.181,0
2014-11-13 21:40:38.520,8560,285.3333,40.10425,-88.22172,231,-1,-1,10,165,1415935777,-0.3259125,-1.025314,0.6570587,-9.092979,-30.3222,-4.032074,230.6539,233.7371,10,1.706682,0.05416657,-2.437961,0.899227,-1.358751,0.9571596,0.83559,-0.02904528,-2.132223,0.09170986,0.01769349,0.7200997,172.17.160.76,0.0.0.0,1,walking,0,2014-11-13 21:40:28.795,657,2014-11-13 21:38:15.181,0
2014-11-13 21:40:38.553,8561,285.3667,40.10425,-88.22172,231,-1,-1,10,165,1415935777,-0.332428,-1.428604,0.7345123,-6.508606,-30.77003,-2.79303,233.9492,237.0324,10,2.628951,0.3466887,-2.761503,0.9642582,-1.410541,1.0366,2.23783,0.2115289,-2.551246,0.2373059,-0.2949769,0.8009717,172.17.160.76,0.0.0.0,1,walking,0,2014-11-13 21:40:28.795,657,2014-11-13 21:38:15.181,0
2014-11-13 21:40:38.587,8562,285.4,40.10425,-88.22172,231,-1,-1,10,165,1415935777,-0.5339813,-1.418457,0.4101562,-3.166157,-31.28677,-0.08047485,236.9988,240.082,10,2.177584,0.0541394,-2.69448,1.112671,-1.530781,1.125545,2.627698,0.3978806,-2.75553,0.09791232,-0.5261018,0.7517417,172.17.160.76,0.0.0.0,1,walking,0,2014-11-13 21:40:28.795,657,2014-11-13 21:38:15.181,0
2014-11-13 21:40:38.620,8563,285.4333,40.10425,-88.22172,231,-1,-1,10,165,1415935777,-0.2680206,-1.338562,0.4577789,-1.305405,-31.63125,1.727844,235.1859,238.2691,10,2.240889,1.502538,-2.814467,1.296947,-1.69375,1.203598,2.160309,0.2853339,-2.632302,-0.1776894,-0.4851203,0.3661269,172.17.160.76,0.0.0.0,1,walking,0,2014-11-13 21:40:28.795,657,2014-11-13 21:38:15.181,0
2014-11-13 21:40:38.653,8564,285.4667,40.10425,-88.22172,231,-1,-1,10,165,1415935777,0.1159821,-1.229324,0.9388123,2.174877,-30.56335,5.645813,239.5741,242.6573,10,2.950336,5.069418,-3.493612,1.687914,-1.987147,1.289787,2.73413,3.785801,-3.249722,0.09457617,-0.3478024,0.4698433,172.17.160.76,0.0.0.0,1,walking,0,2014-11-13 21:40:28.795,657,2014-11-13 21:38:15.181,0
2014-11-13 21:40:38.687,8565,285.5,40.10425,-88.22172,231,-1,-1,10,165,1415935777,0.8102264,-1.290237,1.419922,4.828171,-28.80648,10.50153,234.6624,237.7455,10,4.267941,9.864882,-4.381921,2.480046,-2.478457,1.325474,3.999063,9.145012,-4.203862,0.6314571,-0.2557406,1.065424,172.17.160.76,0.0.0.0,1,walking,0,2014-11-13 21:40:28.795,657,2014-11-13 21:38:15.181,0
2014-11-13 21:40:38.720,8566,285.5334,40.10425,-88.22172,231,-1,-1,10,165,1415935777,0.9649353,-1.348923,1.955139,5.448418,-27.49744,13.31445,228.5111,231.5943,10,4.932221,10.43168,-4.280583,2.948541,-2.731217,1.293335,4.660446,10.35141,-4.393176,1.032039,-0.3524092,1.245273,172.17.160.76,0.0.0.0,1,walking,0,2014-11-13 21:40:28.795,657,2014-11-13 21:38:15.181,0
2014-11-13 21:40:38.753,8567,285.5667,40.10425,-88.22172,231,-1,-1,10,165,1415935777,1.165146,-1.719299,2.029312,4.173462,-24.29374,19.57657,210.1685,213.2517,10,6.138846,10.24251,-3.22037,-2.703067,-2.905761,1.130494,5.982822,10.46299,-3.461313,1.085608,-0.5155736,1.635054,172.17.160.76,0.0.0.0,1,walking,0,2014-11-13 21:40:28.795,657,2014-11-13 21:38:15.181,0
2014-11-13 21:40:38.787,8568,285.6,40.10425,-88.22172,231,-1,-1,10,165,1415935777,0.9394226,-1.919373,1.933197,-1.064198,-20.09103,24.66669,181.8768,184.96,10,5.288038,8.752743,-1.445985,-2.361068,-2.801478,0.9255186,5.780902,9.401715,-2.173261,1.338082,-1.156512,1.346346,172.17.160.76,0.0.0.0,1,walking,0,2014-11-13 21:40:28.795,657,2014-11-13 21:38:15.181,0
2014-11-13 21:40:38.820,8569,285.6334,40.10425,-88.22172,231,-1,-1,10,165,1415935777,0.7751465,-1.922699,1.801147,-4.372196,-17.47295,26.14011,164.4018,167.485,10,5.236914,8.556234,-1.158105,-2.247181,-2.709325,0.8366302,5.354986,8.818862,-1.428513,1.220093,-1.176983,1.324854,172.17.160.76,0.0.0.0,1,unknown,0,2014-11-13 21:40:38.696,657,2014-11-13 21:38:15.181,0
2014-11-13 21:40:38.853,8570,285.6667,40.10425,-88.22172,231,-1,-1,10,165,1415935777,-0.0368042,-1.673599,1.972885,-12.02193,-13.13246,25.93918,123.2256,126.3088,10,5.643055,7.744368,1.117223,-2.064277,-2.499296,0.6682298,5.355638,8.099174,-0.06087111,1.062724,-1.40445,1.190421,172.17.160.76,0.0.0.0,1,unknown,0,2014-11-13 21:40:38.696,657,2014-11-13 21:38:15.181,0
2014-11-13 21:40:38.886,8571,285.7,40.10425,-88.22172,231,-1,-1,10,165,1415935777,-0.8352814,-1.841705,2.542679,-19.32708,-8.447479,22.79141,1.368417,4.451608,10,6.483757,7.61195,3.341429,-1.95271,-2.32617,0.5213391,5.999887,7.676421,1.834543,0.5944968,-1.175557,1.378399,172.17.160.76,0.0.0.0,1,unknown,0,2014-11-13 21:40:38.696,657,2014-11-13 21:38:15.181,0
2014-11-13 21:40:38.920,8572,285.7333,40.10425,-88.22172,231,-1,-1,10,165,1415935777,-0.9580078,-1.787155,2.505219,-22.91074,-5.691605,20.51425,43.98552,47.06871,10,6.264793,7.156937,4.425748,-1.847767,-2.139834,0.3279198,6.590538,7.665228,3.95209,-0.03775038,-1.519631,2.032569,172.17.160.76,0.0.0.0,1,unknown,0,2014-11-13 21:40:38.696,657,2014-11-13 21:38:15.181,0
2014-11-13 21:40:38.953,8573,285.7667,40.10425,-88.22172,231,-1,-1,10,165,1415935777,-0.8241577,-1.057953,3.573853,-28.01057,0.7157898,14.21863,11.32858,14.41177,10,8.120966,9.390206,4.228877,-1.6252,-1.794981,0.0008638206,7.419405,8.298508,4.285626,0.1029202,-1.307959,2.67608,172.17.160.76,0.0.0.0,1,unknown,0,2014-11-13 21:40:38.696,657,2014-11-13 21:38:15.181,0
2014-11-13 21:40:38.987,8574,285.8,40.10425,-88.22172,231,-1,-1,10,165,1415935777,0.2673645,-1.546448,4.000473,-29.28552,5.917503,3.737122,336.538,339.6212,10,9.050383,12.11984,3.569975,-1.376505,-1.461303,-0.1383191,9.239061,11.93454,3.828785,0.3928431,-1.313828,3.9796,172.17.160.76,0.0.0.0,1,unknown,0,2014-11-13 21:40:38.696,657,2014-11-13 21:38:15.181,0
2014-11-13 21:40:39.020,8575,285.8333,40.10425,-88.22172,231,-1,-1,10,165,1415935777,0.6835938,-3.232635,1.772903,-27.63153,7.433235,-3.161255,323.498,326.5812,10,6.011071,6.439013,6.717842,-1.0946,-1.080512,-0.1747443,7.385609,9.285145,4.784538,1.595891,-2.577024,3.255469,172.17.160.76,0.0.0.0,1,unknown,0,2014-11-13 21:40:38.696,657,2014-11-13 21:38:15.181,0
2014-11-13 21:40:39.053,8576,285.8667,40.10425,-88.22172,231,-1,-1,10,165,1415935777,0.6884155,-1.522522,0.1125183,-22.5317,9.224548,-15.28372,310.5942,313.6774,10,4.637085,-0.7626979,9.074459,-0.8212694,-0.8901472,-0.2840567,4.048169,1.022447,9.627848,1.717761,-3.241098,1.956069,172.17.160.76,0.0.0.0,1,unknown,0,2014-11-13 21:40:38.696,657,2014-11-13 21:38:15.181,0
2014-11-13 21:40:39.087,8577,285.9,40.10425,-88.22172,231,-1,-1,10,165,1415935777,-0.331131,-1.776413,0.6080933,-18.53454,9.224548,-21.8472,264.1623,267.2455,10,7.275899,-4.198681,4.200819,-0.5185161,-0.853949,-0.3599077,6.878311,-4.319966,6.575571,0.719663,-1.273254,1.038714,172.17.160.76,0.0.0.0,1,unknown,0,2014-11-13 21:40:38.696,657,2014-11-13 21:38:15.181,0
2014-11-13 21:40:39.120,8578,285.9333,40.10425,-88.22172,231,-1,-1,10,165,1415935777,-0.3117371,-2.093292,-0.3566284,-18.46563,8.742271,-22.65091,252.1504,255.2336,10,5.286715,0.01308571,2.776216,-0.1717218,-0.8833934,-0.3017894,6.819162,-1.830192,2.785613,0.3734187,-2.798038,0.9655353,172.17.160.76,0.0.0.0,1,unknown,0,2014-11-13 21:40:38.696,657,2014-11-13 21:38:15.181,0
2014-11-13 21:40:39.153,8579,285.9667,40.10425,-88.22172,231,-1,-1,10,165,1415935777,-0.2228088,-0.6983185,-0.918335,-18.87913,5.228539,-22.8519,238.8438,241.927,10,4.690905,-0.2078208,2.329338,0.0170462,-0.8389958,-0.2557701,5.046276,0.3797869,2.655282,0.3837411,-1.742721,-0.06170307,172.17.160.76,0.0.0.0,1,unknown,0,2014-11-13 21:40:38.696,657,2014-11-13 21:38:15.181,0
2014-11-13 21:40:39.187,8580,286,40.10425,-88.22172,231,-1,-1,10,165,1415935777,-0.499588,-0.7223969,-0.9263306,-20.0507,2.128181,-23.58859,225.4101,228.4933,10,3.859161,-2.77894,1.748898,0.1747504,-0.8062649,-0.2097218,4.569191,-0.9402929,2.15122,0.4830845,-0.9065063,-0.2413029,172.17.160.76,0.0.0.0,1,unknown,0,2014-11-13 21:40:38.696,657,2014-11-13 21:38:15.181,0
2014-11-13 21:40:39.220,8581,286.0334,40.10425,-88.22172,231,-1,-1,10,165,1415935777,-0.8902435,-0.7919312,-0.8224335,-20.39529,0.4746552,-23.52164,217.1223,220.2055,10,3.447891,-3.284997,1.54503,0.2636003,-0.8308554,-0.1798677,3.926161,-2.71311,1.766405,0.3539899,-0.8228661,-0.3082822,172.17.160.76,0.0.0.0,1,unknown,0,2014-11-13 21:40:38.696,657,2014-11-13 21:38:15.181,0
2014-11-13 21:40:39.253,8582,286.0667,40.10425,-88.22172,231,-1,-1,10,165,1415935777,-1.187012,-0.461792,-0.6072235,-22.91074,-1.213318,-22.21561,211.7384,214.8215,10,1.898764,-2.896379,0.2812216,0.4131484,-0.9752697,-0.1337496,2.089391,-3.214306,0.5658612,-0.3183649,-0.8767747,-0.2708168,172.17.160.76,0.0.0.0,1,unknown,0,2014-11-13 21:40:38.696,657,2014-11-13 21:38:15.181,0
2014-11-13 21:40:39.287,8583,286.1,40.10425,-88.22172,231,-1,-1,10,165,1415935777,-1.291077,-0.5617523,-0.786026,-25.87415,-3.349129,-19.26871,206.465,209.5482,10,1.7449,-1.62217,0.01570679,0.4665202,-1.042968,-0.1058947,2.004821,-1.918313,-0.04796449,-0.3279479,-0.5674889,-0.1063867,172.17.160.76,0.0.0.0,1,unknown,0,2014-11-13 21:40:38.696,657,2014-11-13 21:38:15.181,0
2014-11-13 21:40:39.320,8584,286.1334,40.10425,-88.22172,231,-1,-1,10,165,1415935777,-1.116898,-0.4627838,-0.7940063,-27.11465,-4.106987,-17.92917,203.9451,207.0283,10,1.049706,-0.6117521,-0.03793513,0.5248653,-1.083712,-0.08001043,1.297315,-0.7105412,0.1425582,-0.2826084,-0.6067805,-0.3424519,172.17.160.76,0.0.0.0,1,unknown,0,2014-11-13 21:40:38.696,657,2014-11-13 21:38:15.181,0
2014-11-13 21:40:39.353,8585,286.1667,40.10425,-88.22172,231,-1,-1,10,165,1415935777,-1.051712,-0.3456116,-0.7926178,-28.28622,-5.209328,-17.05856,201.4344,204.5176,10,0.4739665,-0.3020392,-0.288904,0.5491541,-1.095592,-0.063786,0.7134798,-0.31461,-0.2299969,-0.2295983,-0.4918891,-0.3476703,172.17.160.76,0.0.0.0,1,unknown,0,2014-11-13 21:40:38.696,657,2014-11-13 21:38:15.181,0
2014-11-13 21:40:39.387,8586,286.2,40.10425,-88.22172,231,-1,-1,10,165,1415935777,-0.973465,-0.2748413,-0.7375336,-28.04502,-5.519363,-16.75717,201.3744,204.4576,10,-0.05479694,-0.1133511,-0.2402866,0.5567169,-1.100663,-0.05045311,0.2522383,-0.1023708,-0.295087,-0.1196056,-0.3678298,-0.3194375,172.17.160.76,0.0.0.0,1,unknown,0,2014-11-13 21:40:38.696,657,2014-11-13 21:38:15.181,0
2014-11-13 21:40:39.420,8587,286.2333,40.10425,-88.22172,231,-1,-1,10,165,1415935777,-0.9159698,-0.210495,-0.6411896,-27.80381,-5.691605,-16.72366,202.4751,205.5583,10,-0.5664411,-0.07600023,-0.2509119,0.5519996,-1.102479,-0.04328373,-0.2662405,-4.684028e-05,-0.1439994,-0.07022235,-0.303814,-0.2617907,172.17.160.76,0.0.0.0,1,unknown,0,2014-11-13 21:40:38.696,657,2014-11-13 21:38:15.181,0
2014-11-13 21:40:39.454,8588,286.2667,40.10425,-88.22172,231,-1,-1,10,165,1415935777,-0.9243469,-0.140274,-0.622879,-27.80381,-5.967194,-16.45572,202.2165,205.2997,10,-0.9701587,-0.2330953,-0.3956504,0.5363072,-1.103247,-0.04371131,-0.6335598,-0.02233783,-0.3051482,-0.02490983,-0.2272606,-0.1871362,172.17.160.76,0.0.0.0,1,unknown,0,2014-11-13 21:40:38.696,657,2014-11-13 21:38:15.181,0
2014-11-13 21:40:39.487,8589,286.3,40.10425,-88.22172,231,-1,-1,10,165,1415935777,-0.8916779,-0.02920532,-0.5314178,-28.07948,-5.622711,-16.65665,203.9441,207.0273,10,-1.213168,-0.3544699,-0.4431463,0.5081043,-1.108853,-0.0455445,-1.011911,-0.2363871,-0.3919002,-0.02018434,-0.1562008,-0.1612033,172.17.160.76,0.0.0.0,1,unknown,0,2014-11-13 21:40:38.696,657,2014-11-13 21:38:15.181,0
2014-11-13 21:40:39.520,8590,286.3333,40.10425,-88.22172,231,-1,-1,10,165,1415935777,-0.9133148,0.03330994,-0.4704132,-27.9761,-5.174873,-16.89108,205.9728,209.056,10,-1.320747,-0.4004276,-0.4854447,0.4591323,-1.122776,-0.05022351,-1.220686,-0.315499,-0.4690233,0.01227619,-0.06636145,-0.08068489,172.17.160.76,0.0.0.0,1,unknown,0,2014-11-13 21:40:38.696,657,2014-11-13 21:38:15.181,0
2014-11-13 21:40:39.553,8591,286.3667,40.10425,-88.22172,231,-1,-1,10,165,1415935777,-0.9203033,0.09863281,-0.3569031,-28.1484,-5.071526,-16.92453,208.8487,211.9319,10,-1.312253,-0.2843047,-0.4445287,0.419026,-1.134653,-0.05413595,-1.268762,-0.2981862,-0.4305389,-0.02658072,0.005231921,-0.02679582,172.17.160.76,0.0.0.0,1,unknown,0,2014-11-13 21:40:38.696,657,2014-11-13 21:38:15.181,0
2014-11-13 21:40:39.587,8592,286.4,40.10425,-88.22172,231,-1,-1,10,165,1415935777,-0.890564,0.1166687,-0.3166199,-28.04503,-4.830383,-16.89102,211.7137,214.7969,10,-1.215838,0.01256053,-0.5250606,0.3802242,-1.141003,-0.05735656,-1.171395,-0.009551038,-0.4750274,-0.01274628,0.0413077,0.05909453,172.17.160.76,0.0.0.0,1,unknown,0,2014-11-13 21:40:38.696,657,2014-11-13 21:38:15.181,0
2014-11-13 21:40:39.620,8593,286.4333,40.10425,-88.22172,231,-1,-1,10,165,1415935777,-0.8048706,0.08631897,-0.3325806,-28.1484,-5.140419,-17.05844,212.6178,215.701,10,-1.159316,0.1029733,-0.5088739,0.3427107,-1.139643,-0.05764292,-1.119969,0.1728947,-0.5135341,0.03666002,0.0492463,0.09653053,172.17.160.76,0.0.0.0,1,unknown,0,2014-11-13 21:40:38.696,657,2014-11-13 21:38:15.181,0
2014-11-13 21:40:39.652,8594,286.4667,40.10425,-88.22172,231,-1,-1,10,165,1415935777,-0.7948456,0.1150665,-0.3296509,-28.21732,-5.002632,-17.66116,215.3145,218.3977,10,-1.032619,-0.2384168,-0.5419291,0.2962333,-1.138921,-0.05743571,-0.992229,-0.05452643,-0.5099028,0.1378861,0.03758183,0.08858434,172.17.160.76,0.0.0.0,1,unknown,0,2014-11-13 21:40:38.696,657,2014-11-13 21:38:15.181,0
