time,timestamp,recordtime,lat,long,alt,speed,course,verticalAccuracy,horizontalAccuracy,locTimeStamp,accelerationX,accelerationY,accelerationZ,HeadingX,HeadingY,HeadingZ,TrueHeading,MagneticHeading,HeadingAccuracy,RotationX,RotationY,RotationZ,motionYaw,motionRoll,motionPitch,motionRotationRateX,motionRotationRateY,motionRotationRateZ,motionUserAccelerationX,motionUserAccelerationY,motionUserAccelerationZ,en0,pdp_ip0,DeviceOrientation,Activity,Activity Confidence,Activity Start,Steps,Last Step Date,State
2014-11-13 21:40:18.787,7968,265.6,40.10425,-88.22172,231,-1,-1,10,165,1415935777,-0.326355,-0.9284058,-0.1639252,-15.3988,-29.32316,1.291016,121.7947,124.8779,10,-0.08316652,-0.1159658,-0.02471334,2.881903,-1.076537,1.194448,-0.01828235,-0.04861394,-0.002006609,0.001718619,0.006917036,0.003174397,172.17.160.76,0.0.0.0,1,stationary,1,2014-11-13 21:40:18.584,657,2014-11-13 21:38:15.181,0
2014-11-13 21:40:18.820,7969,265.6334,40.10425,-88.22172,231,-1,-1,10,165,1415935777,-0.3318024,-0.9356842,-0.1682739,-15.32989,-28.97868,1.358002,121.8009,124.8841,10,-0.07462443,-0.09790579,-0.02465022,2.881924,-1.07806,1.194577,-0.006526811,-0.03378447,-0.007279475,-0.004561616,-0.0084162,0.01052845,172.17.160.76,0.0.0.0,1,stationary,1,2014-11-13 21:40:18.584,657,2014-11-13 21:38:15.181,0
2014-11-13 21:40:18.853,7970,265.6667,40.10425,-88.22172,231,-1,-1,10,165,1415935777,-0.3272858,-0.9278564,-0.1713867,-14.98531,-29.04756,1.090118,121.8169,124.9001,10,-0.07140707,-0.09369693,-0.02994751,2.882222,-1.079825,1.194647,-0.01185189,-0.03063857,-0.01266555,-0.009165359,-0.004468843,0.006202828,172.17.160.76,0.0.0.0,1,stationary,1,2014-11-13 21:40:18.584,657,2014-11-13 21:38:15.181,0
2014-11-13 21:40:18.886,7971,265.7,40.10425,-88.22172,231,-1,-1,10,165,1415935777,-0.3293152,-0.9288177,-0.1702118,-14.77855,-28.84087,1.090118,121.8367,124.9199,10,-0.06720594,-0.08395988,-0.006559366,2.881881,-1.080433,1.194666,0.0009281336,-0.02209696,-0.0062984,-0.003124706,0.004693324,0.003113931,172.17.160.76,0.0.0.0,1,stationary,1,2014-11-13 21:40:18.584,657,2014-11-13 21:38:15.181,0
2014-11-13 21:40:18.920,7972,265.7333,40.10425,-88.22172,231,-1,-1,10,165,1415935777,-0.3248596,-0.9328918,-0.1701202,-14.95084,-28.66862,1.05661,121.8549,124.9381,10,-0.0597395,-0.07013381,-0.004391552,2.882778,-1.081901,1.194258,0.0008673653,-0.01768749,0.01495591,-0.004687217,0.001125315,0.002480361,172.17.160.76,0.0.0.0,1,stationary,1,2014-11-13 21:40:18.584,657,2014-11-13 21:38:15.181,0
2014-11-13 21:40:18.954,7973,265.7667,40.10425,-88.22172,231,-1,-1,10,165,1415935777,-0.3256226,-0.9249115,-0.1708069,-14.33059,-28.53084,1.324493,121.9179,125.0011,10,-0.05969396,-0.07769985,-0.02141528,2.884842,-1.084378,1.193999,0.007307695,-0.01141202,0.002226946,0.0001024224,0.0008165744,0.003436255,172.17.160.76,0.0.0.0,1,stationary,1,2014-11-13 21:40:18.584,657,2014-11-13 21:38:15.181,0
2014-11-13 21:40:18.987,7974,265.8,40.10425,-88.22172,231,-1,-1,10,165,1415935777,-0.3294067,-0.9272766,-0.1690063,-14.64071,-28.42751,1.424927,121.9476,125.0308,10,-0.05648218,-0.06389563,-0.02241609,2.88534,-1.085218,1.194122,0.005204192,-0.007225031,-0.006234563,-0.002967253,0.006629664,0.001629574,172.17.160.76,0.0.0.0,1,stationary,1,2014-11-13 21:40:18.584,657,2014-11-13 21:38:15.181,0
2014-11-13 21:40:19.020,7975,265.8333,40.10425,-88.22172,231,-1,-1,10,165,1415935777,-0.3296661,-0.9330444,-0.1660156,-14.50286,-28.97868,1.826752,122.0589,125.142,10,-0.05433887,-0.04902027,-0.02234579,2.886525,-1.086225,1.194202,0.0115963,0.01298949,-0.004142669,-0.006079223,-0.0008332813,0.003510503,172.17.160.76,0.0.0.0,1,stationary,1,2014-11-13 21:40:18.584,657,2014-11-13 21:38:15.181,0
2014-11-13 21:40:19.053,7976,265.8667,40.10425,-88.22172,231,-1,-1,10,165,1415935777,-0.3228607,-0.9303589,-0.1754456,-14.74408,-28.59975,1.793243,122.1648,125.248,10,-0.06712285,-0.05010045,-0.02548805,2.887622,-1.086828,1.194433,0.004143301,0.01616419,-0.006220479,-0.004090989,-0.004395214,0.001764854,172.17.160.76,0.0.0.0,1,stationary,1,2014-11-13 21:40:18.584,657,2014-11-13 21:38:15.181,0
2014-11-13 21:40:19.087,7977,265.9,40.10425,-88.22172,231,-1,-1,10,165,1415935777,-0.3198547,-0.9328918,-0.1718445,-14.53733,-28.80644,1.659302,122.2159,125.2991,10,-0.06285779,-0.04903998,-0.02549844,2.887603,-1.086664,1.194457,-0.00118472,0.01509609,-0.007267465,-0.003391697,-0.001563246,0.0001900194,172.17.160.76,0.0.0.0,1,stationary,1,2014-11-13 21:40:18.584,657,2014-11-13 21:38:15.181,0
2014-11-13 21:40:19.120,7978,265.9333,40.10425,-88.22172,231,-1,-1,10,165,1415935777,-0.3232117,-0.9283142,-0.172699,-14.70963,-28.97868,1.290924,122.3047,125.3879,10,-0.06180371,-0.04794595,-0.02125069,2.886887,-1.084703,1.19534,0.006274622,0.02148371,-0.005141396,0.005311671,-0.005267407,0.002366405,172.17.160.76,0.0.0.0,1,stationary,1,2014-11-13 21:40:18.584,657,2014-11-13 21:38:15.181,0
2014-11-13 21:40:19.153,7979,265.9667,40.10425,-88.22172,231,-1,-1,10,165,1415935777,-0.3189697,-0.9239044,-0.1792297,-14.77855,-29.32317,1.491852,122.3812,125.4644,10,-0.06086548,-0.08169407,0.0125355,2.886964,-1.084436,1.195374,0.001937683,-0.001755754,0.01279711,0.003025938,0.007028161,-0.003954989,172.17.160.76,0.0.0.0,1,stationary,1,2014-11-13 21:40:18.584,657,2014-11-13 21:38:15.181,0
2014-11-13 21:40:19.186,7980,266,40.10425,-88.22172,231,-1,-1,10,165,1415935777,-0.3124237,-0.9460907,-0.1723175,-14.98529,-29.11649,1.558838,122.4074,125.4906,10,-0.04598054,-0.09650604,0.0219551,2.887066,-1.08465,1.194903,0.005044927,-0.01646288,0.03061248,0.005601641,0.00627545,-0.007710531,172.17.160.76,0.0.0.0,1,stationary,1,2014-11-13 21:40:18.584,657,2014-11-13 21:38:15.181,0
2014-11-13 21:40:19.220,7981,266.0334,40.10425,-88.22172,231,-1,-1,10,165,1415935777,-0.3137054,-0.940094,-0.1781921,-14.67516,-28.53086,1.190491,122.4344,125.5176,10,-0.07687481,-0.1359347,0.004879444,2.888703,-1.087377,1.194612,0.004992761,-0.05466011,0.0378369,0.01285365,-0.01601764,-0.001558193,172.17.160.76,0.0.0.0,1,stationary,1,2014-11-13 21:40:18.584,657,2014-11-13 21:38:15.181,0
2014-11-13 21:40:19.253,7982,266.0667,40.10425,-88.22172,231,-1,-1,10,165,1415935777,-0.309845,-0.9322357,-0.1863708,-14.813,-28.32417,0.7886353,122.4185,125.5016,10,-0.0864566,-0.1359618,0.0006692524,2.88671,-1.087967,1.194227,-0.01734904,-0.07180137,0.01765745,0.01377467,-0.009033087,-0.01188406,172.17.160.76,0.0.0.0,1,stationary,1,2014-11-13 21:40:18.584,657,2014-11-13 21:38:15.181,0
2014-11-13 21:40:19.287,7983,266.1,40.10425,-88.22172,231,-1,-1,10,165,1415935777,-0.3123322,-0.940094,-0.1837463,-14.98528,-28.49641,0.755188,122.3943,125.4775,10,-0.09818569,-0.130627,0.00286423,2.882965,-1.086245,1.193752,-0.0344201,-0.07283016,0.02089633,0.01580906,-0.003211231,-0.01754163,172.17.160.76,0.0.0.0,1,unknown,1,2014-11-13 21:40:19.203,657,2014-11-13 21:38:15.181,0
2014-11-13 21:40:19.320,7984,266.1334,40.10425,-88.22172,231,-1,-1,10,165,1415935777,-0.3005219,-0.9781342,-0.188446,-15.32986,-28.70309,1.223999,122.3614,125.4445,10,-0.09392463,-0.1178459,0.007161506,2.879282,-1.084527,1.193087,-0.02802842,-0.06218229,0.02410935,0.01371061,-0.01058212,-0.01139845,172.17.160.76,0.0.0.0,1,unknown,1,2014-11-13 21:40:19.203,657,2014-11-13 21:38:15.181,0
2014-11-13 21:40:19.353,7985,266.1667,40.10425,-88.22172,231,-1,-1,10,165,1415935777,-0.3090363,-0.9156189,-0.207428,-15.08865,-29.01314,1.324493,122.3761,125.4593,10,-0.1674455,-0.1402596,-0.01072641,2.877234,-1.083456,1.192929,-0.03657364,-0.04508514,0.02833787,0.01757717,-0.03206382,-0.008950888,172.17.160.76,0.0.0.0,1,unknown,1,2014-11-13 21:40:19.203,657,2014-11-13 21:38:15.181,0
2014-11-13 21:40:19.386,7986,266.2,40.10425,-88.22172,231,-1,-1,10,165,1415935777,-0.2888336,-0.9173584,-0.2103119,-14.77853,-28.90979,1.22403,122.4012,125.4844,10,-0.2132311,-0.2074443,-0.04593766,2.855032,-1.066351,1.19137,-0.1697269,-0.1315328,-0.03107343,0.01732295,0.02062822,-0.03195137,172.17.160.76,0.0.0.0,1,unknown,1,2014-11-13 21:40:19.203,657,2014-11-13 21:38:15.181,0
2014-11-13 21:40:19.419,7987,266.2333,40.10425,-88.22172,231,-1,-1,10,165,1415935777,-0.3209534,-0.9613647,-0.1642151,-14.60623,-28.94424,0.9226685,124.2583,127.3414,10,-0.1633018,-0.2921978,-0.009419068,2.840055,-1.056388,1.190577,-0.1037185,-0.1792682,-0.01671796,0.03711459,0.00692187,-0.01844944,172.17.160.76,0.0.0.0,1,unknown,1,2014-11-13 21:40:19.203,657,2014-11-13 21:38:15.181,0
2014-11-13 21:40:19.453,7988,266.2667,40.10425,-88.22172,231,-1,-1,10,165,1415935777,-0.344574,-0.936142,-0.1624146,-14.77853,-28.6342,0.8891296,123.7653,126.8485,10,-0.197479,-0.3165087,0.005441637,2.830077,-1.056186,1.189109,-0.1231057,-0.2607351,0.02856471,-0.01033521,-0.03329688,0.01884696,172.17.160.76,0.0.0.0,1,unknown,1,2014-11-13 21:40:19.203,657,2014-11-13 21:38:15.181,0
2014-11-13 21:40:19.486,7989,266.3,40.10425,-88.22172,231,-1,-1,10,165,1415935777,-0.3386536,-0.9193268,-0.1689606,-14.70961,-28.7031,1.023102,124.6187,127.7019,10,-0.1739441,-0.2805278,-0.01250221,2.825796,-1.057552,1.187298,-0.1316095,-0.2512084,0.02334057,-0.01861644,-0.008780496,0.02130368,172.17.160.76,0.0.0.0,1,unknown,1,2014-11-13 21:40:19.203,657,2014-11-13 21:38:15.181,0
2014-11-13 21:40:19.520,7990,266.3333,40.10425,-88.22172,231,-1,-1,10,165,1415935777,-0.3308716,-0.8967896,-0.1738281,-14.67515,-28.80644,0.7886963,124.9052,127.9884,10,-0.1226205,-0.2564491,-0.05714984,2.817208,-1.058242,1.18512,-0.07494405,-0.1919531,-0.01809223,-0.01080931,0.007217343,0.01552284,172.17.160.76,0.0.0.0,1,unknown,1,2014-11-13 21:40:19.203,657,2014-11-13 21:38:15.181,0
2014-11-13 21:40:19.553,7991,266.3667,40.10425,-88.22172,231,-1,-1,10,165,1415935777,-0.3521729,-0.8788147,-0.1510925,-14.64068,-28.9098,0.8221741,124.1226,127.2058,10,-0.08203655,-0.2438779,-0.07846525,2.811711,-1.058849,1.185214,-0.04712366,-0.1869019,-0.05107583,-0.002992002,0.02979019,0.01041348,172.17.160.76,0.0.0.0,1,unknown,1,2014-11-13 21:40:19.203,657,2014-11-13 21:38:15.181,0
2014-11-13 21:40:19.587,7992,266.4,40.10425,-88.22172,231,-1,-1,10,165,1415935777,-0.3832855,-0.9302673,-0.1149445,-14.84742,-28.7031,1.090027,124.1365,127.2197,10,0.005271195,-0.227679,-0.03837056,2.812773,-1.069288,1.186946,0.06369565,-0.1697909,-0.02910372,-0.03392683,0.03460559,0.0433186,172.17.160.76,0.0.0.0,1,unknown,1,2014-11-13 21:40:19.203,657,2014-11-13 21:38:15.181,0
2014-11-13 21:40:19.621,7993,266.4333,40.10425,-88.22172,231,-1,-1,10,165,1415935777,-0.3897858,-0.9291992,-0.1313324,-14.9508,-28.32417,1.257446,123.916,126.9991,10,-0.03839666,-0.2288236,-0.05201234,2.816265,-1.077432,1.188321,0.04235162,-0.1654663,-0.02050927,-0.06092323,-0.01492914,0.06139651,172.17.160.76,0.0.0.0,1,unknown,1,2014-11-13 21:40:19.203,657,2014-11-13 21:38:15.181,0
2014-11-13 21:40:19.653,7994,266.4667,40.10425,-88.22172,231,-1,-1,10,165,1415935777,-0.4054565,-0.8986053,-0.1408691,-14.67513,-28.73755,1.190491,124.5761,127.6593,10,-0.006370015,-0.2119178,-0.06265806,2.82086,-1.087078,1.189492,0.03926576,-0.1539153,-0.0534673,-0.06034792,-0.001019373,0.0417366,172.17.160.76,0.0.0.0,1,unknown,1,2014-11-13 21:40:19.203,657,2014-11-13 21:38:15.181,0
2014-11-13 21:40:19.687,7995,266.5,40.10425,-88.22172,231,-1,-1,10,165,1415935777,-0.4263458,-0.9113007,-0.1256409,-14.43393,-28.772,1.023041,124.6089,127.6921,10,0.05633198,-0.1571654,0.01594514,2.828276,-1.098498,1.190176,0.1052065,-0.1194921,0.006978246,-0.08213673,0.0305003,0.03109768,172.17.160.76,0.0.0.0,1,unknown,1,2014-11-13 21:40:19.203,657,2014-11-13 21:38:15.181,0
2014-11-13 21:40:19.720,7996,266.5334,40.10425,-88.22172,231,-1,-1,10,165,1415935777,-0.4190674,-0.921814,-0.131424,-14.15826,-28.90979,1.424927,124.7656,127.8488,10,0.0638128,0.0333481,0.05831817,2.843285,-1.114805,1.18927,0.1349773,-0.002200602,0.0637523,-0.09882721,0.009854184,0.03714366,172.17.160.76,0.0.0.0,1,unknown,1,2014-11-13 21:40:19.203,657,2014-11-13 21:38:15.181,0
2014-11-13 21:40:19.753,7997,266.5667,40.10425,-88.22172,231,-1,-1,10,165,1415935777,-0.3924713,-0.9214783,-0.1313324,-14.39948,-28.46197,2.061218,124.9365,128.0197,10,0.1065185,0.2322489,0.08786567,2.863301,-1.129331,1.187597,0.1489362,0.2093991,0.08499047,-0.07061772,0.001524258,0.02571658,172.17.160.76,0.0.0.0,1,unknown,1,2014-11-13 21:40:19.203,657,2014-11-13 21:38:15.181,0
2014-11-13 21:40:19.787,7998,266.6,40.10425,-88.22172,231,-1,-1,10,165,1415935777,-0.3672485,-0.9056396,-0.1244812,-14.50285,-28.42752,2.161713,127.6412,130.7244,10,0.1470097,0.3046694,0.1125095,2.881639,-1.138152,1.186218,0.1873221,0.3232758,0.1119886,-0.04593485,0.01445043,0.02744575,172.17.160.76,0.0.0.0,1,unknown,1,2014-11-13 21:40:19.203,657,2014-11-13 21:38:15.181,0
2014-11-13 21:40:19.820,7999,266.6334,40.10425,-88.22172,231,-1,-1,10,165,1415935777,-0.3448029,-0.9076843,-0.1079865,-14.95081,-27.97969,1.793335,124.4439,127.5271,10,0.1598208,0.3333612,0.1136741,2.898535,-1.147387,1.184512,0.2128936,0.3702697,0.1301448,-0.03068078,0.02325433,0.02846776,172.17.160.76,0.0.0.0,1,unknown,1,2014-11-13 21:40:19.203,657,2014-11-13 21:38:15.181,0
2014-11-13 21:40:19.853,8000,266.6667,40.10425,-88.22172,231,-1,-1,10,165,1415935777,-0.3242035,-0.89505,-0.1061249,-15.26093,-28.22083,1.425018,121.8978,124.981,10,0.1078857,0.3134695,0.008677111,2.927351,-1.158391,1.183286,0.221547,0.4104109,0.09954353,0.001399515,0.01816842,0.04347515,172.17.160.76,0.0.0.0,1,unknown,1,2014-11-13 21:40:19.203,657,2014-11-13 21:38:15.181,0
2014-11-13 21:40:19.887,8001,266.7,40.10425,-88.22172,231,-1,-1,10,165,1415935777,-0.3053436,-0.7866364,-0.1028748,-15.63998,-28.32417,1.123657,119.0448,122.128,10,-0.0417589,0.2511867,-0.2288625,2.946941,-1.158628,1.187729,0.05911746,0.3300273,-0.1433521,0.03204079,0.06741522,0.04151468,172.17.160.76,0.0.0.0,1,unknown,1,2014-11-13 21:40:19.203,657,2014-11-13 21:38:15.181,0
2014-11-13 21:40:19.920,8002,266.7333,40.10425,-88.22172,231,-1,-1,10,165,1415935777,-0.2818298,-0.6056824,-0.1244812,-15.67444,-28.90981,1.023163,118.8282,121.9114,10,-0.1967937,0.2965808,-0.4191096,2.937733,-1.140623,1.194807,-0.06394148,0.3211244,-0.3456813,0.03521617,0.190353,0.05080444,172.17.160.76,0.0.0.0,1,unknown,1,2014-11-13 21:40:19.203,657,2014-11-13 21:38:15.181,0
2014-11-13 21:40:19.953,8003,266.7667,40.10425,-88.22172,231,-1,-1,10,165,1415935777,-0.2568207,-0.6101379,-0.1188812,-15.12311,-28.77202,0.2194519,116.7231,119.8063,10,-0.3105565,0.4694024,-0.4761551,2.909645,-1.102511,1.204057,-0.2308632,0.4606082,-0.4589619,0.03814057,0.3278193,0.03736312,172.17.160.76,0.0.0.0,1,unknown,1,2014-11-13 21:40:19.203,657,2014-11-13 21:38:15.181,0
2014-11-13 21:40:19.987,8004,266.8,40.10425,-88.22172,231,-1,-1,10,165,1415935777,-0.233017,-0.7089691,-0.1252747,-15.01973,-29.21985,-0.01495361,116.8842,119.9674,10,-0.2767078,0.7851697,-0.3079664,2.875041,-1.051801,1.211992,-0.2202466,0.7429959,-0.3695393,0.05561617,0.2973707,0.05453172,172.17.160.76,0.0.0.0,1,unknown,1,2014-11-13 21:40:19.203,657,2014-11-13 21:38:15.181,0
2014-11-13 21:40:20.020,8005,266.8333,40.10425,-88.22172,231,-1,-1,10,165,1415935777,-0.1942291,-0.9818115,-0.1825867,-14.33056,-29.08205,-0.3498535,117.9526,121.0358,10,-0.2947962,0.8441805,0.04907008,2.844207,-0.9859727,1.213766,-0.2008101,0.9962758,-0.03391161,0.07671981,0.1065708,0.05783736,172.17.160.76,0.0.0.0,1,unknown,1,2014-11-13 21:40:19.203,657,2014-11-13 21:38:15.181,0
2014-11-13 21:40:20.053,8006,266.8667,40.10425,-88.22172,231,-1,-1,10,165,1415935777,-0.152832,-0.9273224,-0.3171234,-14.39948,-28.87536,-0.6177673,118.0543,121.1375,10,-0.518787,0.3218681,-0.04412911,2.830282,-0.9456015,1.208598,-0.2993741,0.7803607,0.07253004,0.1098036,-0.0699459,-0.01192516,172.17.160.76,0.0.0.0,1,unknown,1,2014-11-13 21:40:19.203,657,2014-11-13 21:38:15.181,0
2014-11-13 21:40:20.087,8007,266.9,40.10425,-88.22172,231,-1,-1,10,165,1415935777,-0.109787,-0.9612122,-0.444519,-13.98598,-28.39308,-0.6177673,119.6136,122.6968,10,-0.3540313,-0.2795669,-0.03729837,2.800803,-0.9048765,1.201376,-0.4539718,0.1608855,-0.07876205,0.1402696,0.05378304,-0.1413749,172.17.160.76,0.0.0.0,1,unknown,1,2014-11-13 21:40:19.203,657,2014-11-13 21:38:15.181,0
2014-11-13 21:40:20.120,8008,266.9333,40.10425,-88.22172,231,-1,-1,10,165,1415935777,-0.1552582,-1.232819,-0.5314636,-13.74478,-28.63422,-1.320984,120.65,123.7332,10,-0.2145621,-0.6235685,0.2894273,2.760826,-0.8696918,1.195619,-0.1968832,-0.3257028,0.08541037,0.1702191,-0.03076958,-0.208144,172.17.160.76,0.0.0.0,1,unknown,1,2014-11-13 21:40:19.203,657,2014-11-13 21:38:15.181,0
2014-11-13 21:40:20.153,8009,266.9667,40.10425,-88.22172,231,-1,-1,10,165,1415935777,-0.0736084,-1.64299,-0.7006073,-14.0549,-28.87536,-1.22049,120.3074,123.3905,10,-0.3859464,-0.9227294,0.4838063,2.764981,-0.8895136,1.186056,-0.2130683,-0.7153827,0.4039864,0.1362765,-0.3059228,-0.2950917,172.17.160.76,0.0.0.0,1,unknown,1,2014-11-13 21:40:19.203,657,2014-11-13 21:38:15.181,0
2014-11-13 21:40:20.187,8010,267,40.10425,-88.22172,231,-1,-1,10,165,1415935777,0.1190033,-1.608215,-0.8766785,-14.53733,-28.66865,-0.6177063,123.2522,126.3354,10,-0.7654985,-1.559086,0.3343306,2.760422,-0.9248211,1.159489,-0.6015537,-1.237877,0.4175503,0.3110732,-0.80975,-0.5182052,172.17.160.76,0.0.0.0,1,unknown,1,2014-11-13 21:40:19.203,657,2014-11-13 21:38:15.181,0
2014-11-13 21:40:20.220,8011,267.0334,40.10425,-88.22172,231,-1,-1,10,165,1415935777,0.1801147,-1.426926,-0.8282623,-15.43324,-28.11749,0.520813,123.7,126.7832,10,-1.20088,-2.73258,0.5325243,2.715039,-0.9574559,1.126338,-1.07275,-2.381561,0.4801653,0.4963587,-0.6239203,-0.6494204,172.17.160.76,0.0.0.0,1,unknown,1,2014-11-13 21:40:19.203,657,2014-11-13 21:38:15.181,0
2014-11-13 21:40:20.253,8012,267.0667,40.10425,-88.22172,231,-1,-1,10,165,1415935777,0.1121826,-1.389755,-0.669632,-15.53662,-27.73855,0.8222046,126.8877,129.9709,10,-1.463972,-3.215805,0.6891257,2.670964,-1.001989,1.091717,-1.281676,-3.015479,0.6654916,0.5684962,-0.5395061,-0.5799752,172.17.160.76,0.0.0.0,1,unknown,1,2014-11-13 21:40:19.203,657,2014-11-13 21:38:15.181,0
2014-11-13 21:40:20.287,8013,267.1,40.10425,-88.22172,231,-1,-1,10,165,1415935777,0.1279907,-1.194702,-0.4746094,-16.467,-27.70409,0.7887573,129.4333,132.5164,10,-2.069197,-3.809761,0.7944124,2.613945,-1.049502,1.049705,-1.686303,-3.422613,0.7582731,0.5369888,-0.4683712,-0.35523,172.17.160.76,0.0.0.0,1,unknown,1,2014-11-13 21:40:19.203,657,2014-11-13 21:38:15.181,0
2014-11-13 21:40:20.320,8014,267.1334,40.10425,-88.22172,231,-1,-1,10,165,1415935777,0.2012787,-0.9715881,-0.2082214,-17.32845,-27.46296,0.8892517,133.1683,136.2515,10,-2.518364,-4.628922,1.058213,2.507581,-1.111333,0.9824101,-2.261897,-4.150177,0.9020201,0.6688148,-0.2221176,-0.08687498,172.17.160.76,0.0.0.0,1,unknown,1,2014-11-13 21:40:19.203,657,2014-11-13 21:38:15.181,0
2014-11-13 21:40:20.353,8015,267.1667,40.10425,-88.22172,231,-1,-1,10,165,1415935777,0.1936493,-0.8402863,-0.01925659,-18.12098,-26.94623,1.592499,139.885,142.9682,10,-2.757949,-5.172975,1.1815,2.415939,-1.172012,0.9234466,-2.537101,-4.769769,1.151359,0.7541788,-0.1343982,0.09632464,172.17.160.76,0.0.0.0,1,unknown,1,2014-11-13 21:40:19.203,657,2014-11-13 21:38:15.181,0
2014-11-13 21:40:20.387,8016,267.2,40.10425,-88.22172,231,-1,-1,10,165,1415935777,0.2019196,-0.7992859,0.220993,-18.70676,-26.15392,2.027863,141.8348,144.918,10,-2.881356,-5.372634,1.046102,2.316842,-1.246588,0.8617939,-2.741107,-5.20944,1.168914,0.8123179,-0.0402284,0.2577448,172.17.160.76,0.0.0.0,1,unknown,1,2014-11-13 21:40:19.203,657,2014-11-13 21:38:15.181,0
2014-11-13 21:40:20.419,8017,267.2333,40.10425,-88.22172,231,-1,-1,10,165,1415935777,0.2166595,-0.8562012,0.301712,-19.22363,-25.77499,2.865021,144.7781,147.8613,10,-2.931352,-5.394173,1.004778,2.24649,-1.299593,0.8243077,-2.815489,-5.306891,1.063593,0.8518615,-0.04190789,0.3489384,172.17.160.76,0.0.0.0,1,unknown,1,2014-11-13 21:40:19.203,657,2014-11-13 21:38:15.181,0
2014-11-13 21:40:20.453,8018,267.2667,40.10425,-88.22172,231,-1,-1,10,165,1415935777,0.1355743,-0.8347473,0.450592,-19.84389,-25.29269,3.668732,147.1425,150.2257,10,-3.421579,-5.647178,0.535045,2.049572,-1.430258,0.7493644,-3.273979,-5.51033,0.687412,0.9507796,-0.1941163,0.4716168,172.17.160.76,0.0.0.0,1,unknown,1,2014-11-13 21:40:19.203,657,2014-11-13 21:38:15.181,0
2014-11-13 21:40:20.487,8019,267.3,40.10425,-88.22172,231,-1,-1,10,165,1415935777,-0.009490967,-0.8441772,0.5144806,-19.22364,-25.4994,4.67337,164.7695,167.8527,10,-3.605101,-5.705776,0.2201635,1.914533,-1.507939,0.7252094,-3.485135,-5.653228,0.3233618,0.882457,-0.1714551,0.4976012,172.17.160.76,0.0.0.0,1,unknown,1,2014-11-13 21:40:19.203,657,2014-11-13 21:38:15.181,0
2014-11-13 21:40:20.520,8020,267.3333,40.10425,-88.22172,231,-1,-1,10,165,1415935777,-0.2642212,-0.9086914,0.5947723,-18.63785,-25.80944,5.376587,171.086,174.1692,10,-3.836662,-5.114782,0.09251902,1.723897,-1.603469,0.7161606,-3.682513,-5.293443,0.1136989,0.6871262,-0.2105873,0.5213938,172.17.160.76,0.0.0.0,1,unknown,1,2014-11-13 21:40:19.203,657,2014-11-13 21:38:15.181,0
2014-11-13 21:40:20.553,8021,267.3667,40.10425,-88.22172,231,-1,-1,10,165,1415935777,-0.45224,-0.8982391,0.6617889,-17.81086,-27.18736,4.639893,193.4404,196.5236,10,-3.966886,-4.20461,0.02561881,1.571665,-1.648669,0.7196398,-3.901436,-4.487019,0.09222814,0.4855429,-0.2495776,0.5362681,172.17.160.76,0.0.0.0,1,unknown,1,2014-11-13 21:40:19.203,657,2014-11-13 21:38:15.181,0
2014-11-13 21:40:20.586,8022,267.4,40.10425,-88.22172,231,-1,-1,10,165,1415935777,-0.6675262,-1.006271,0.7774506,-17.39736,-27.80743,3.903137,201.0692,204.1524,10,-3.66982,-2.826261,-0.2102531,1.418305,-1.661918,0.7300541,-3.742143,-3.288955,-0.105864,0.2287871,-0.2681639,0.6331689,172.17.160.76,0.0.0.0,1,unknown,1,2014-11-13 21:40:19.203,657,2014-11-13 21:38:15.181,0
2014-11-13 21:40:20.620,8023,267.4333,40.10425,-88.22172,231,-1,-1,10,165,1415935777,-0.9536896,-0.7771149,0.865036,-15.50216,-28.73753,1.994385,212.6644,215.7476,10,-3.204814,-0.7568954,-0.8125107,1.278202,-1.638093,0.7470062,-3.303905,-1.653111,-0.4268888,-0.005071376,-0.3253766,0.7858499,172.17.160.76,0.0.0.0,1,unknown,1,2014-11-13 21:40:19.203,657,2014-11-13 21:38:15.181,0
2014-11-13 21:40:20.653,8024,267.4667,40.10425,-88.22172,231,-1,-1,10,165,1415935777,-0.9192657,-0.6307068,0.7982788,-15.22649,-29.4265,1.056763,215.2606,218.3438,10,-2.082813,0.4219209,-1.390074,1.108487,-1.546568,0.784676,-2.823741,-0.03998569,-1.222673,-0.2740815,-0.0006489284,0.8417127,172.17.160.76,0.0.0.0,1,unknown,1,2014-11-13 21:40:19.203,657,2014-11-13 21:38:15.181,0
2014-11-13 21:40:20.687,8025,267.5,40.10425,-88.22172,231,-1,-1,10,165,1415935777,-0.9268036,-0.615097,0.7440643,-12.9867,-30.28771,-1.18692,223.2812,226.3644,10,-1.089095,1.037462,-1.285467,1.012974,-1.465007,0.8211643,-1.59455,0.7955876,-1.374667,-0.2151247,0.1310943,0.9214653,172.17.160.76,0.0.0.0,1,unknown,1,2014-11-13 21:40:19.203,657,2014-11-13 21:38:15.181,0
2014-11-13 21:40:20.720,8026,267.5334,40.10425,-88.22172,231,-1,-1,10,165,1415935777,-0.6077118,-0.7438202,0.6414032,-11.43608,-31.08003,-3.497528,227.6043,230.6875,10,-0.3605497,1.311768,-1.358931,0.9562142,-1.390786,0.8548357,-0.8069347,1.135314,-1.222974,-0.2810665,0.1393661,0.861576,172.17.160.76,0.0.0.0,1,unknown,1,2014-11-13 21:40:19.203,657,2014-11-13 21:38:15.181,0
2014-11-13 21:40:20.753,8027,267.5667,40.10425,-88.22172,231,-1,-1,10,165,1415935777,-0.3108368,-0.8262329,0.6195221,-10.16112,-31.11447,-4.200775,228.875,231.9582,10,0.6747286,1.484983,-1.715369,0.9254897,-1.311833,0.9072483,0.3767113,1.528687,-1.573688,0.05961222,0.003952662,0.7692797,172.17.160.76,0.0.0.0,1,unknown,1,2014-11-13 21:40:19.203,657,2014-11-13 21:38:15.181,0
2014-11-13 21:40:20.787,8028,267.6,40.10425,-88.22172,231,-1,-1,10,165,1415935777,-0.06347656,-1.197113,0.6309052,-8.369286,-31.25227,-4.267761,229.2943,232.3775,10,2.086053,1.808268,-2.297459,0.9690582,-1.282962,0.9927509,1.820961,1.744737,-2.142666,0.2986293,-0.07602675,0.7706921,172.17.160.76,0.0.0.0,1,unknown,1,2014-11-13 21:40:19.203,657,2014-11-13 21:38:15.181,0
2014-11-13 21:40:20.821,8029,267.6334,40.10425,-88.22172,231,-1,-1,10,165,1415935777,0.05197144,-1.565994,0.6118774,-5.509258,-31.70009,-2.49295,229.052,232.1352,10,2.647652,1.797346,-2.584097,1.062329,-1.305454,1.079841,2.564142,1.971315,-2.486053,0.4527716,-0.4616995,0.7326162,172.17.160.76,0.0.0.0,1,unknown,1,2014-11-13 21:40:19.203,657,2014-11-13 21:38:15.181,0
2014-11-13 21:40:20.853,8030,267.6667,40.10425,-88.22172,231,-1,-1,10,165,1415935777,-0.1036835,-1.634048,0.5952606,-2.270176,-32.32017,0.7218018,226.9957,230.0789,10,2.996433,1.731786,-2.661113,1.155133,-1.351714,1.14305,2.879898,1.791801,-2.599637,0.4823595,-0.599176,0.6803188,172.17.160.76,0.0.0.0,1,unknown,1,2014-11-13 21:40:19.203,657,2014-11-13 21:38:15.181,0
2014-11-13 21:40:20.887,8031,267.7,40.10425,-88.22172,231,-1,-1,10,165,1415935777,0.1708679,-1.480316,0.7648773,-0.2026863,-32.25127,2.664093,228.4238,231.507,10,3.592292,3.910886,-3.498932,1.47407,-1.568805,1.269407,3.242208,2.527628,-3.07054,0.2417013,-0.6504522,0.5935477,172.17.160.76,0.0.0.0,1,unknown,1,2014-11-13 21:40:19.203,657,2014-11-13 21:38:15.181,0
2014-11-13 21:40:20.919,8032,267.7333,40.10425,-88.22172,231,-1,-1,10,165,1415935777,0.443634,-1.604126,1.265274,3.070854,-31.11447,7.318817,227.2459,230.3291,10,4.774139,7.379258,-3.542413,1.966929,-1.931231,1.352654,4.048396,5.036395,-3.576228,0.4716904,-0.4677296,0.8341661,172.17.160.76,0.0.0.0,1,unknown,1,2014-11-13 21:40:19.203,657,2014-11-13 21:38:15.181,0
2014-11-13 21:40:20.953,8033,267.7667,40.10425,-88.22172,231,-1,-1,10,165,1415935777,0.868927,-1.851242,1.654755,4.793766,-28.15191,13.21259,218.8553,221.9385,10,5.825955,10.83006,-3.245826,3.042177,-2.675299,1.320352,5.315844,9.473785,-3.477996,0.6507582,-0.6979457,1.115538,172.17.160.76,0.0.0.0,1,unknown,1,2014-11-13 21:40:19.203,657,2014-11-13 21:38:15.181,0
2014-11-13 21:40:20.987,8034,267.8,40.10425,-88.22172,231,-1,-1,10,165,1415935777,0.9249878,-2.190002,2.129028,4.139061,-26.32615,16.72879,213.9131,216.9963,10,6.225865,11.81641,-2.334562,-2.734812,-2.836482,1.191294,6.19636,11.53028,-2.940784,1.143069,-1.053085,1.52275,172.17.160.76,0.0.0.0,1,unknown,1,2014-11-13 21:40:19.203,657,2014-11-13 21:38:15.181,0
2014-11-13 21:40:21.020,8035,267.8333,40.10425,-88.22172,231,-1,-1,10,165,1415935777,0.7561798,-2.318344,1.808075,-0.8229294,-21.91676,22.82352,180.4916,183.5748,10,5.586767,10.73323,-1.019512,-2.436612,-2.750075,1.037354,6.167914,11.6439,-1.963516,1.119027,-1.328941,1.659006,172.17.160.76,0.0.0.0,1,unknown,1,2014-11-13 21:40:19.203,657,2014-11-13 21:38:15.181,0
2014-11-13 21:40:21.053,8036,267.8667,40.10425,-88.22172,231,-1,-1,10,165,1415935777,0.2228546,-2.476608,1.598312,-4.957928,-19.64316,24.22998,160.4839,163.567,10,4.923592,9.239633,1.104439,-2.245425,-2.580867,0.8995445,5.26458,10.25654,-0.4208598,1.086942,-1.5353,1.28135,172.17.160.76,0.0.0.0,1,unknown,1,2014-11-13 21:40:19.203,657,2014-11-13 21:38:15.181,0
2014-11-13 21:40:21.087,8037,267.9,40.10425,-88.22172,231,-1,-1,10,165,1415935777,-0.7417297,-2.349136,2.416168,-14.26167,-14.82038,23.49332,115.3472,118.4304,10,5.904937,8.130572,4.16473,-2.089738,-2.241153,0.6416361,5.639636,8.262364,3.730366,0.4021087,-1.898685,1.407551,172.17.160.76,0.0.0.0,1,unknown,1,2014-11-13 21:40:19.203,657,2014-11-13 21:38:15.181,0
2014-11-13 21:40:21.120,8038,267.9333,40.10425,-88.22172,231,-1,-1,10,165,1415935777,-1.110016,-2.128326,2.724243,-22.87624,-8.82637,19.07294,81.2925,84.37569,10,6.930413,7.836964,5.171998,-1.990141,-2.046568,0.4292557,6.654209,8.064116,4.842203,-0.1771825,-1.841176,2.171572,172.17.160.76,0.0.0.0,1,unknown,1,2014-11-13 21:40:19.203,657,2014-11-13 21:38:15.181,0
2014-11-13 21:40:21.153,8039,267.9667,40.10425,-88.22172,231,-1,-1,10,165,1415935777,-0.7500916,-2.391891,2.755539,-28.28618,-0.868782,12.67679,25.01153,28.09472,10,7.620845,7.404282,6.598011,-1.843444,-1.857457,0.1952109,7.534843,7.582323,6.108023,-0.07168955,-2.082104,2.409189,172.17.160.76,0.0.0.0,1,unknown,1,2014-11-13 21:40:19.203,657,2014-11-13 21:38:15.181,0
2014-11-13 21:40:21.187,8040,268,40.10425,-88.22172,231,-1,-1,10,165,1415935777,-0.3325958,-2.076019,2.698929,-29.5956,3.127235,8.457367,5.291403,8.374594,10,7.384992,7.879311,6.450665,-1.651051,-1.64582,-0.04935428,7.804666,7.599492,7.135678,0.3668072,-2.493594,2.699155,172.17.160.76,0.0.0.0,1,unknown,1,2014-11-13 21:40:19.203,657,2014-11-13 21:38:15.181,0
2014-11-13 21:40:21.220,8041,268.0334,40.10425,-88.22172,231,-1,-1,10,165,1415935777,0.1945343,-1.446548,2.446289,-29.25101,6.985451,3.702148,348.0832,351.1664,10,7.322485,8.132266,6.031885,-1.4131,-1.372211,-0.2333628,7.445677,8.130741,6.120798,0.8282242,-2.032902,2.821437,172.17.160.76,0.0.0.0,1,unknown,1,2014-11-13 21:40:19.203,657,2014-11-13 21:38:15.181,0
2014-11-13 21:40:21.253,8042,268.0667,40.10425,-88.22172,231,-1,-1,10,165,1415935777,-0.02909851,-1.959839,1.432205,-24.90928,12.2216,-7.884491,319.903,322.9862,10,5.128265,2.115884,9.543155,-1.032313,-0.9511426,-0.3689151,6.157156,6.337214,8.026846,0.9507749,-1.819237,2.600273,172.17.160.76,0.0.0.0,1,unknown,1,2014-11-13 21:40:19.203,657,2014-11-13 21:38:15.181,0
2014-11-13 21:40:21.286,8043,268.1,40.10425,-88.22172,231,-1,-1,10,165,1415935777,0.1329803,-1.401062,0.8384552,-17.39738,14.56409,-18.39951,295.3324,298.4156,10,5.062601,-5.608813,8.847787,-0.6961917,-0.7345813,-0.4657674,4.924227,-0.6429139,9.620895,0.4896848,-2.493603,1.875966,172.17.160.76,0.0.0.0,1,unknown,1,2014-11-13 21:40:19.203,657,2014-11-13 21:38:15.181,0
2014-11-13 21:40:21.320,8044,268.1334,40.10425,-88.22172,231,-1,-1,10,165,1415935777,-0.7324524,-1.173996,1.115509,-13.91709,14.18515,-23.9249,257.7678,260.851,10,6.958976,-8.589219,5.305117,-0.3509846,-0.7138097,-0.5218834,5.851007,-7.07448,7.857586,0.7005436,-1.899576,1.493708,172.17.160.76,0.0.0.0,1,unknown,1,2014-11-13 21:40:19.203,657,2014-11-13 21:38:15.181,0
2014-11-13 21:40:21.353,8045,268.1667,40.10425,-88.22172,231,-1,-1,10,165,1415935777,-0.5389557,-2.313431,0.3117676,-16.43254,11.67042,-24.15933,233.5869,236.6701,10,6.753302,-4.935646,1.262836,0.04082265,-0.8490871,-0.4592263,7.573671,-7.602129,2.799949,-0.07772145,-2.139498,1.623242,172.17.160.76,0.0.0.0,1,unknown,1,2014-11-13 21:40:19.203,657,2014-11-13 21:38:15.181,0
2014-11-13 21:40:21.387,8046,268.2,40.10425,-88.22172,231,-1,-1,10,165,1415935777,-0.6399078,-1.051682,-0.7281799,-19.05137,9.327927,-23.15463,224.2261,227.3093,10,6.294153,-3.167406,0.5467513,0.24869,-0.9251499,-0.3630851,6.557773,-3.771371,0.9313036,0.277508,-2.315777,0.5055102,172.17.160.76,0.0.0.0,1,unknown,1,2014-11-13 21:40:19.203,657,2014-11-13 21:38:15.181,0
2014-11-13 21:40:21.420,8047,268.2333,40.10425,-88.22172,231,-1,-1,10,165,1415935777,-0.9703827,-1.304886,-0.9273529,-23.1519,3.988426,-21.51376,210.3896,213.4728,10,5.141556,-1.953274,-0.1399329,0.4137615,-0.9574987,-0.2611347,6.002128,-2.273718,-0.02467784,0.1501228,-1.309858,-0.1721258,172.17.160.76,0.0.0.0,1,unknown,1,2014-11-13 21:40:19.203,657,2014-11-13 21:38:15.181,0
2014-11-13 21:40:21.453,8048,268.2667,40.10425,-88.22172,231,-1,-1,10,165,1415935777,-1.000198,-0.9512177,-1.049683,-24.49577,1.473694,-20.74356,205.5964,208.6796,10,3.352832,-2.077264,-0.2081916,0.5812935,-1.001187,-0.1457561,4.013258,-1.901126,-0.05666628,-0.229028,-1.403328,-0.4543454,172.17.160.76,0.0.0.0,1,unknown,1,2014-11-13 21:40:19.203,657,2014-11-13 21:38:15.181,0
2014-11-13 21:40:21.487,8049,268.3,40.10425,-88.22172,231,-1,-1,10,165,1415935777,-1.072983,-0.791748,-0.9701538,-26.77002,-2.660118,-18.93533,198.3562,201.4394,10,1.611196,-3.293478,-0.9680955,0.6532164,-1.057697,-0.08742543,2.435178,-2.477657,-0.8031995,-0.09724876,-0.9114565,-0.539453,172.17.160.76,0.0.0.0,1,unknown,2,2014-11-13 21:40:21.369,657,2014-11-13 21:38:15.181,0
2014-11-13 21:40:21.519,8050,268.3333,40.10425,-88.22172,231,-1,-1,10,165,1415935777,-1.509323,-0.6769867,-0.6675873,-28.42402,-5.20929,-16.18936,196.9097,199.9928,10,0.3899779,-2.350325,-0.5329017,0.6953493,-1.180391,-0.02782214,1.003537,-3.193088,-0.6540602,-0.3946949,-0.7992419,-0.4401557,172.17.160.76,0.0.0.0,1,unknown,2,2014-11-13 21:40:21.369,657,2014-11-13 21:38:15.181,0
2014-11-13 21:40:21.553,8051,268.3667,40.10425,-88.22172,231,-1,-1,10,165,1415935777,-1.269791,-0.6713562,-0.5963745,-29.38885,-6.311638,-14.64896,197.7744,200.8576,10,-0.3368869,-0.5342392,-0.8379996,0.704483,-1.251841,-0.006988914,0.2145397,-1.643965,-0.5739518,-0.5686787,-0.6603245,-0.3120891,172.17.160.76,0.0.0.0,1,unknown,2,2014-11-13 21:40:21.369,657,2014-11-13 21:38:15.181,0
2014-11-13 21:40:21.587,8052,268.4,40.10425,-88.22172,231,-1,-1,10,165,1415935777,-1.021408,-0.723999,-0.5393982,-30.8361,-7.827354,-12.50583,199.0745,202.1577,10,-0.8964323,0.3221621,-1.017154,0.6915002,-1.270952,0.01355474,-0.5027837,-0.07686783,-0.9249789,-0.3144959,-0.6578019,-0.3010302,172.17.160.76,0.0.0.0,1,unknown,2,2014-11-13 21:40:21.369,657,2014-11-13 21:38:15.181,0
2014-11-13 21:40:21.620,8053,268.4333,40.10425,-88.22172,231,-1,-1,10,165,1415935777,-0.8392487,-0.789917,-0.4961548,-31.38743,-9.136391,-12.50577,199.946,203.0292,10,-1.001841,0.3868257,-1.044017,0.6720098,-1.265574,0.02803062,-0.8305449,0.3881242,-0.9998527,-0.1431675,-0.6821629,-0.2653627,172.17.160.76,0.0.0.0,1,unknown,2,2014-11-13 21:40:21.369,657,2014-11-13 21:38:15.181,0
2014-11-13 21:40:21.653,8054,268.4667,40.10425,-88.22172,231,-1,-1,10,165,1415935777,-0.7775726,-0.8535004,-0.4092407,-31.42189,-9.30864,-12.74014,202.2689,205.3521,10,-1.985413,-0.5015686,-1.400609,0.5770103,-1.248778,0.0707088,-1.718179,-0.2873832,-1.300486,0.1515964,-0.7458632,-0.1282791,172.17.160.76,0.0.0.0,1,unknown,2,2014-11-13 21:40:21.369,657,2014-11-13 21:38:15.181,0
2014-11-13 21:40:21.687,8055,268.5,40.10425,-88.22172,231,-1,-1,10,165,1415935777,-0.8008118,-0.833374,-0.3203888,-30.31923,-9.928711,-13.54379,208.0231,211.1063,10,-2.452225,-0.7033888,-1.844685,0.50451,-1.257439,0.09407226,-2.235369,-0.5789886,-1.676911,0.1612092,-0.7628016,-0.06585053,172.17.160.76,0.0.0.0,1,unknown,2,2014-11-13 21:40:21.369,657,2014-11-13 21:38:15.181,0
2014-11-13 21:40:21.720,8056,268.5334,40.10425,-88.22172,231,-1,-1,10,165,1415935777,-0.8166046,-0.8550873,-0.21698,-29.35441,-10.47989,-13.87869,215.5034,218.5866,10,-2.89617,-0.7983614,-2.067495,0.4149901,-1.267668,0.1256688,-2.701396,-0.720489,-2.012401,0.1367917,-0.6998417,-0.002155496,172.17.160.76,0.0.0.0,1,unknown,2,2014-11-13 21:40:21.369,657,2014-11-13 21:38:15.181,0
2014-11-13 21:40:21.753,8057,268.5667,40.10425,-88.22172,231,-1,-1,10,165,1415935777,-0.7791901,-0.9024353,-0.1098633,-29.04427,-10.99662,-14.18015,216.2039,219.2871,10,-3.117074,-0.720497,-2.324198,0.3123026,-1.274479,0.1600254,-3.009978,-0.6852828,-2.182127,0.1417997,-0.7079206,0.1045383,172.17.160.76,0.0.0.0,1,unknown,2,2014-11-13 21:40:21.369,657,2014-11-13 21:38:15.181,0
2014-11-13 21:40:21.787,8058,268.6,40.10425,-88.22172,231,-1,-1,10,165,1415935777,-0.8271332,-0.8096161,-0.03643799,-28.59632,-11.51334,-14.88339,230.4967,233.5799,10,-3.539804,-1.195804,-2.25506,0.2009215,-1.274958,0.2015134,-3.182889,-0.7618635,-2.485467,0.1485515,-0.698392,0.1868871,172.17.160.76,0.0.0.0,1,unknown,2,2014-11-13 21:40:21.369,657,2014-11-13 21:38:15.181,0
2014-11-13 21:40:21.820,8059,268.6334,40.10425,-88.22172,231,-1,-1,10,165,1415935777,-0.8355103,-0.9525299,0.1875763,-27.90715,-12.27122,-15.62009,236.9017,239.9849,10,-3.744284,-1.574675,-2.065223,0.03867374,-1.284086,0.2457722,-3.594297,-1.352737,-1.95842,0.07593974,-0.5930746,0.3270961,172.17.160.76,0.0.0.0,1,unknown,2,2014-11-13 21:40:21.369,657,2014-11-13 21:38:15.181,0
2014-11-13 21:40:21.853,8060,268.6667,40.10425,-88.22172,231,-1,-1,10,165,1415935777,-0.7550659,-1.065979,0.3531647,-27.14908,-12.6846,-16.02194,246.4082,249.4914,10,-3.987338,-1.865746,-2.494684,-0.0883578,-1.296268,0.2741143,-3.737709,-1.59879,-2.188459,0.1094168,-0.7434657,0.5098579,172.17.160.76,0.0.0.0,1,unknown,2,2014-11-13 21:40:21.369,657,2014-11-13 21:38:15.181,0
