time,timestamp,recordtime,lat,long,alt,speed,course,verticalAccuracy,horizontalAccuracy,locTimeStamp,accelerationX,accelerationY,accelerationZ,HeadingX,HeadingY,HeadingZ,TrueHeading,MagneticHeading,HeadingAccuracy,RotationX,RotationY,RotationZ,motionYaw,motionRoll,motionPitch,motionRotationRateX,motionRotationRateY,motionRotationRateZ,motionUserAccelerationX,motionUserAccelerationY,motionUserAccelerationZ,en0,pdp_ip0,DeviceOrientation,Activity,Activity Confidence,Activity Start,Steps,Last Step Date,State
2014-11-13 21:40:51.120,8938,297.9333,40.10425,-88.22172,231,-1,-1,10,165,1415935777,-0.2715149,-0.9264221,-0.2526855,-13.15897,-27.84191,-2.893677,110.2336,113.3167,10,-0.08632477,0.05640096,0.005927664,2.802859,-0.8581016,1.191514,-0.02655937,0.0799173,0.03838394,0.001493981,0.0009675198,-0.01357681,172.17.160.76,0.0.0.0,1,unknown,2,2014-11-13 21:40:48.595,657,2014-11-13 21:38:15.181,0
2014-11-13 21:40:51.153,8939,297.9667,40.10425,-88.22172,231,-1,-1,10,165,1415935777,-0.2659912,-0.9352875,-0.2492065,-13.19344,-27.80747,-2.99411,110.6389,113.7221,10,-0.07133437,0.09668446,-0.005592638,2.799781,-0.8513075,1.190408,-0.01046433,0.1424518,0.01848255,0.01047276,-0.001350071,-0.003921885,172.17.160.76,0.0.0.0,1,walking,0,2014-11-13 21:40:51.070,657,2014-11-13 21:38:15.181,0
2014-11-13 21:40:51.187,8940,298,40.10425,-88.22172,231,-1,-1,10,165,1415935777,-0.2445984,-0.9495392,-0.253067,-13.2968,-28.11751,-3.027588,114.1999,117.2831,10,-0.07983091,0.0455081,-0.02918292,2.793823,-0.8372143,1.191675,-0.01890994,0.1358584,-0.01124978,0.02667618,-0.01888564,-0.004796564,172.17.160.76,0.0.0.0,1,walking,0,2014-11-13 21:40:51.070,657,2014-11-13 21:38:15.181,0
2014-11-13 21:40:51.220,8941,298.0334,40.10425,-88.22172,231,-1,-1,10,165,1415935777,-0.2388153,-0.9592133,-0.2513885,-13.36572,-28.18641,-3.16153,114.5369,117.6201,10,-0.07666548,0.01897343,-0.02508857,2.793823,-0.8372143,1.191675,-0.01890994,0.1358584,-0.01124978,0.02667618,-0.01888564,-0.004796564,172.17.160.76,0.0.0.0,1,walking,0,2014-11-13 21:40:51.070,657,2014-11-13 21:38:15.181,0
2014-11-13 21:40:51.253,8942,298.0667,40.10425,-88.22172,231,-1,-1,10,165,1415935777,-0.2367249,-0.9253387,-0.2667084,-13.46909,-27.94527,-3.462921,111.7592,114.8423,10,-0.1172686,-0.1340768,-0.03317287,2.781214,-0.8216183,1.194759,-0.04889578,-0.04263984,-0.01209329,0.033451,-0.01155377,-0.01121952,172.17.160.76,0.0.0.0,1,walking,0,2014-11-13 21:40:51.070,657,2014-11-13 21:38:15.181,0
2014-11-13 21:40:51.287,8943,298.1,40.10425,-88.22172,231,-1,-1,10,165,1415935777,-0.2368164,-0.9438019,-0.2621002,-13.95151,-27.73857,-3.462921,109.1674,112.2506,10,-0.09174617,-0.162676,-0.01961977,2.772705,-0.8153931,1.194791,-0.0318335,-0.09887716,-0.003892615,0.02707556,0.003930599,-0.01457602,172.17.160.76,0.0.0.0,1,walking,0,2014-11-13 21:40:51.070,657,2014-11-13 21:38:15.181,0
2014-11-13 21:40:51.320,8944,298.1334,40.10425,-88.22172,231,-1,-1,10,165,1415935777,-0.2272491,-0.9462433,-0.2711792,-13.74476,-27.80747,-3.061096,111.8819,114.9651,10,-0.1301524,-0.1828143,-0.01533608,2.766697,-0.8121627,1.195364,-0.02758837,-0.1041587,0.000303443,0.02834647,-0.01995304,-0.01047891,172.17.160.76,0.0.0.0,1,walking,0,2014-11-13 21:40:51.070,657,2014-11-13 21:38:15.181,0
2014-11-13 21:40:51.353,8945,298.1667,40.10425,-88.22172,231,-1,-1,10,165,1415935777,-0.197937,-0.9212494,-0.2872467,-13.74477,-28.42754,-2.65921,115.625,118.7082,10,-0.1366918,-0.2750736,0.008616658,2.754623,-0.8047912,1.195088,-0.08415771,-0.1465519,0.01089678,0.04265584,-0.007953936,-0.02464264,172.17.160.76,0.0.0.0,1,walking,0,2014-11-13 21:40:51.070,657,2014-11-13 21:38:15.181,0
2014-11-13 21:40:51.387,8946,298.2,40.10425,-88.22172,231,-1,-1,10,165,1415935777,-0.1483917,-1.098312,-0.3211975,-13.64139,-28.46198,-2.625763,115.6594,118.7426,10,-0.1263755,-0.3072207,0.1145569,2.745497,-0.7990259,1.194513,-0.06933796,-0.2112479,0.02747667,0.06541751,0.008787531,-0.03097395,172.17.160.76,0.0.0.0,1,walking,0,2014-11-13 21:40:51.070,657,2014-11-13 21:38:15.181,0
2014-11-13 21:40:51.420,8947,298.2333,40.10425,-88.22172,231,-1,-1,10,165,1415935777,-0.09538269,-1.109665,-0.4588776,-13.77922,-28.1864,-2.759705,115.5209,118.6041,10,-0.5469015,-0.495267,0.2329659,2.747396,-0.809714,1.188082,-0.1629321,-0.2389001,0.3004777,0.1381254,-0.2577245,-0.1013081,172.17.160.76,0.0.0.0,1,walking,0,2014-11-13 21:40:51.070,657,2014-11-13 21:38:15.181,0
2014-11-13 21:40:51.453,8948,298.2667,40.10425,-88.22172,231,-1,-1,10,165,1415935777,0.03355408,-1.00737,-0.5494385,-14.19273,-27.63522,-2.491852,114.9103,117.9935,10,-0.7603834,-1.08321,0.1733492,2.736909,-0.8125882,1.173635,-0.6019406,-0.64774,0.15676,0.2163308,-0.09218043,-0.2311123,172.17.160.76,0.0.0.0,1,walking,0,2014-11-13 21:40:51.070,657,2014-11-13 21:38:15.181,0
2014-11-13 21:40:51.487,8949,298.3,40.10425,-88.22172,231,-1,-1,10,165,1415935777,0.1035156,-1.111237,-0.5910339,-14.15827,-27.53188,-2.391388,116.3565,119.4397,10,-1.034952,-2.076463,0.4706077,2.702718,-0.8237293,1.147163,-0.7621755,-1.386209,0.4305179,0.4035589,-0.2319837,-0.3068603,172.17.160.76,0.0.0.0,1,walking,0,2014-11-13 21:40:51.070,657,2014-11-13 21:38:15.181,0
2014-11-13 21:40:51.520,8950,298.3333,40.10425,-88.22172,231,-1,-1,10,165,1415935777,0.08529663,-1.054489,-0.5635681,-14.84744,-27.53188,-2.19046,118.4028,121.486,10,-1.337489,-2.769391,0.5742399,2.675733,-0.857285,1.117203,-1.129961,-2.360679,0.5350346,0.4255311,-0.1932238,-0.3154362,172.17.160.76,0.0.0.0,1,walking,0,2014-11-13 21:40:51.070,657,2014-11-13 21:38:15.181,0
2014-11-13 21:40:51.553,8951,298.3667,40.10425,-88.22172,231,-1,-1,10,165,1415935777,0.2172852,-0.9116821,-0.3951111,-15.84673,-27.15294,-2.089966,123.44,126.5232,10,-1.715721,-3.676257,0.6250162,2.615144,-0.9258842,1.06149,-1.608846,-3.477179,0.6795557,0.5258286,-0.1313571,-0.2007884,172.17.160.76,0.0.0.0,1,walking,0,2014-11-13 21:40:51.070,657,2014-11-13 21:38:15.181,0
2014-11-13 21:40:51.587,8952,298.4,40.10425,-88.22172,231,-1,-1,10,165,1415935777,0.2054138,-0.8371735,-0.2482758,-16.5359,-26.87735,-1.955994,121.3164,124.3996,10,-1.725009,-3.946361,0.454853,2.555111,-0.984413,1.01872,-1.653401,-3.79815,0.5251768,0.6642923,-0.02719441,-0.0622383,172.17.160.76,0.0.0.0,1,walking,0,2014-11-13 21:40:51.070,657,2014-11-13 21:38:15.181,0
2014-11-13 21:40:51.620,8953,298.4333,40.10425,-88.22172,231,-1,-1,10,165,1415935777,0.204422,-0.8225403,-0.04673767,-17.67301,-26.36063,-1.587646,124.2306,127.3138,10,-1.745942,-4.285863,0.2397857,2.511968,-1.026169,0.9932712,-1.659584,-3.986051,0.4063858,0.6723779,0.000642929,0.03458158,172.17.160.76,0.0.0.0,1,walking,0,2014-11-13 21:40:51.070,657,2014-11-13 21:38:15.181,0
2014-11-13 21:40:51.653,8954,298.4667,40.10425,-88.22172,231,-1,-1,10,165,1415935777,0.1278687,-0.8226471,0.1894379,-17.98314,-26.18839,-0.8844299,131.7992,134.8824,10,-1.842861,-5.056816,0.01317759,2.390179,-1.142514,0.9440762,-1.719947,-4.655597,0.1026865,0.7035177,-0.009853468,0.3257439,172.17.160.76,0.0.0.0,1,walking,0,2014-11-13 21:40:51.070,657,2014-11-13 21:38:15.181,0
2014-11-13 21:40:51.687,8955,298.5,40.10425,-88.22172,231,-1,-1,10,165,1415935777,0.03015137,-0.8285828,0.3911285,-17.81085,-26.01614,-0.315155,140.5114,143.5946,10,-1.974886,-5.481942,-0.149912,2.308547,-1.225322,0.9229838,-1.796712,-5.143125,-0.01847946,0.6794682,-0.02933071,0.4527344,172.17.160.76,0.0.0.0,1,walking,0,2014-11-13 21:40:51.070,657,2014-11-13 21:38:15.181,0
2014-11-13 21:40:51.719,8956,298.5334,40.10425,-88.22172,231,-1,-1,10,165,1415935777,-0.1533356,-0.788208,0.4296112,-17.05277,-26.36061,1.694122,149.2159,152.2991,10,-2.18187,-5.916842,-0.2045012,2.218059,-1.31513,0.9094566,-1.974621,-5.574508,-0.1686925,0.5705293,-0.02792279,0.569915,172.17.160.76,0.0.0.0,1,walking,0,2014-11-13 21:40:51.070,657,2014-11-13 21:38:15.181,0
2014-11-13 21:40:51.753,8957,298.5667,40.10425,-88.22172,231,-1,-1,10,165,1415935777,-0.373291,-0.8308105,0.4443512,-15.77782,-26.67065,3.870789,160.9606,164.0438,10,-2.246855,-6.014864,-0.2440489,2.116779,-1.409806,0.902016,-2.162383,-5.936043,-0.2155371,0.3754244,0.01237698,0.5320202,172.17.160.76,0.0.0.0,1,walking,0,2014-11-13 21:40:51.070,657,2014-11-13 21:38:15.181,0
2014-11-13 21:40:51.787,8958,298.6,40.10425,-88.22172,231,-1,-1,10,165,1415935777,-0.5755157,-0.9318848,0.4925842,-15.12312,-26.98068,4.373077,167.6239,170.7071,10,-2.374416,-5.284338,-0.1792198,1.975102,-1.530789,0.9005946,-2.236947,-5.500739,-0.1248628,0.146648,-0.1333568,0.5057552,172.17.160.76,0.0.0.0,1,walking,0,2014-11-13 21:40:51.070,657,2014-11-13 21:38:15.181,0
2014-11-13 21:40:51.820,8959,298.6334,40.10425,-88.22172,231,-1,-1,10,165,1415935777,-0.7440186,-0.8485413,0.4669495,-13.19344,-27.60076,4.841919,182.9521,186.0353,10,-2.493606,-4.222867,-0.3313446,1.900385,-1.57512,0.9033589,-2.349207,-4.922332,-0.2232989,0.04345378,-0.1464743,0.4899082,172.17.160.76,0.0.0.0,1,walking,0,2014-11-13 21:40:51.070,657,2014-11-13 21:38:15.181,0
2014-11-13 21:40:51.853,8960,298.6667,40.10425,-88.22172,231,-1,-1,10,165,1415935777,-0.7630463,-0.8644409,0.439209,-11.95295,-28.15193,4.707947,198.4417,201.5249,10,-2.1451,-2.92133,-0.3226113,1.705082,-1.618205,0.923397,-2.287866,-3.240145,-0.3399253,-0.1701619,-0.007734408,0.3796667,172.17.160.76,0.0.0.0,1,walking,0,2014-11-13 21:40:51.070,657,2014-11-13 21:38:15.181,0
2014-11-13 21:40:51.886,8961,298.7,40.10425,-88.22172,231,-1,-1,10,165,1415935777,-0.8256683,-0.9060364,0.5294342,-11.26379,-28.63421,4.707947,200.4279,203.5111,10,-1.60372,-1.581356,-0.277246,1.610215,-1.618032,0.9339516,-1.644462,-1.965433,-0.2061212,-0.1791492,-0.105341,0.4535497,172.17.160.76,0.0.0.0,1,walking,0,2014-11-13 21:40:51.070,657,2014-11-13 21:38:15.181,0
2014-11-13 21:40:51.920,8962,298.7333,40.10425,-88.22172,231,-1,-1,10,165,1415935777,-0.8002167,-0.8287506,0.2728882,-10.19558,-28.94424,3.803772,208.2489,211.3321,10,-1.74074,-0.9145088,-0.6266948,1.558353,-1.604593,0.9412987,-1.554702,-1.110602,-0.4121293,-0.2372657,-0.09771303,0.5095405,172.17.160.76,0.0.0.0,1,walking,0,2014-11-13 21:40:51.070,657,2014-11-13 21:38:15.181,0
2014-11-13 21:40:51.953,8963,298.7667,40.10425,-88.22172,231,-1,-1,10,165,1415935777,-0.5418701,-1.036316,0.1308136,-8.782791,-29.73656,2.497772,213.9696,217.0528,10,-1.23269,-0.6309599,-0.7566049,1.410303,-1.520887,0.9774478,-1.515904,-0.6278173,-0.7823126,-0.06412979,-0.04360762,0.1870287,172.17.160.76,0.0.0.0,1,walking,0,2014-11-13 21:40:51.070,657,2014-11-13 21:38:15.181,0
2014-11-13 21:40:51.987,8964,298.8,40.10425,-88.22172,231,-1,-1,10,165,1415935777,-0.5906067,-1.071533,0.2019196,-8.369286,-29.87435,1.828033,216.0441,219.1273,10,-1.285439,-0.8431099,-0.994235,1.340323,-1.479837,0.9972893,-1.117265,-0.5660985,-0.7452672,0.005090504,-0.2835319,0.2178945,172.17.160.76,0.0.0.0,1,walking,0,2014-11-13 21:40:51.070,657,2014-11-13 21:38:15.181,0
2014-11-13 21:40:52.020,8965,298.8333,40.10425,-88.22172,231,-1,-1,10,165,1415935777,-0.5791931,-1.039383,0.233902,-7.438915,-30.25327,1.124756,218.9417,222.0248,10,-1.122992,-0.951728,-1.156761,1.292764,-1.453469,1.012202,-1.21801,-0.7792315,-0.9752924,-0.0642558,-0.2235322,0.2639598,172.17.160.76,0.0.0.0,1,walking,0,2014-11-13 21:40:51.070,657,2014-11-13 21:38:15.181,0
2014-11-13 21:40:52.054,8966,298.8667,40.10425,-88.22172,231,-1,-1,10,165,1415935777,-0.7818146,-0.9116364,0.2884521,-6.336246,-30.32217,0.388031,222.6795,225.7627,10,-0.825532,-1.203187,-0.5244324,1.169129,-1.405598,1.060864,-0.7513496,-1.118532,-0.5806273,-0.285403,-0.1227976,0.3728267,172.17.160.76,0.0.0.0,1,walking,0,2014-11-13 21:40:51.070,657,2014-11-13 21:38:15.181,0
2014-11-13 21:40:52.087,8967,298.9,40.10425,-88.22172,231,-1,-1,10,165,1415935777,-0.603714,-0.8387146,0.4758759,-5.681538,-30.14993,-0.1812439,225.345,228.4281,10,-0.4454574,-0.8811287,-0.6281849,1.136283,-1.399175,1.068686,-0.6352585,-1.06828,-0.5319693,-0.2782044,0.03341372,0.4065488,172.17.160.76,0.0.0.0,1,walking,0,2014-11-13 21:40:51.070,657,2014-11-13 21:38:15.181,0
2014-11-13 21:40:52.120,8968,298.9333,40.10425,-88.22172,231,-1,-1,10,165,1415935777,-0.5473175,-0.9231567,0.4289703,-4.613327,-30.87334,-0.8845215,229.9004,232.9836,10,0.4776348,0.3270202,-0.9914906,1.119768,-1.398848,1.080314,-0.04252699,-0.4207731,-0.7229074,-0.1701265,0.06139645,0.5178234,172.17.160.76,0.0.0.0,1,walking,0,2014-11-13 21:40:51.070,657,2014-11-13 21:38:15.181,0
2014-11-13 21:40:52.153,8969,298.9667,40.10425,-88.22172,231,-1,-1,10,165,1415935777,-0.3456726,-1.044968,0.5259247,-3.200542,-31.18337,-0.3822021,232.5366,235.6198,10,1.200043,1.273509,-0.9796582,1.17285,-1.420823,1.133452,1.040412,1.040825,-1.00162,-0.07244545,-0.07844943,0.5039243,172.17.160.76,0.0.0.0,1,walking,0,2014-11-13 21:40:51.070,657,2014-11-13 21:38:15.181,0
2014-11-13 21:40:52.187,8970,299,40.10425,-88.22172,231,-1,-1,10,165,1415935777,-0.1701813,-0.9672089,0.491272,-2.683662,-31.49341,0.5220032,231.3904,234.4736,10,1.440324,2.198013,-1.236814,1.262657,-1.454466,1.168432,1.487006,2.042068,-1.073385,0.04327582,-0.12483,0.5713765,172.17.160.76,0.0.0.0,1,walking,0,2014-11-13 21:40:51.070,657,2014-11-13 21:38:15.181,0
2014-11-13 21:40:52.220,8971,299.0334,40.10425,-88.22172,231,-1,-1,10,165,1415935777,0.02326965,-1.021423,0.8282471,-1.029663,-31.14893,2.129425,229.4424,232.5256,10,2.39111,3.29336,-1.620986,1.434802,-1.514044,1.229331,2.080821,2.946629,-1.558066,0.2551821,-0.03956192,0.5862246,172.17.160.76,0.0.0.0,1,walking,0,2014-11-13 21:40:51.070,657,2014-11-13 21:38:15.181,0
2014-11-13 21:40:52.253,8972,299.0667,40.10425,-88.22172,231,-1,-1,10,165,1415935777,-0.0001983643,-1.16835,0.8371887,0.5209656,-30.42551,4.641022,225.7845,228.8677,10,3.032976,4.076872,-1.809269,1.592048,-1.593771,1.262656,2.774721,3.792369,-1.66342,0.3364712,-0.06240534,0.7903045,172.17.160.76,0.0.0.0,1,walking,0,2014-11-13 21:40:51.070,657,2014-11-13 21:38:15.181,0
2014-11-13 21:40:52.287,8973,299.1,40.10425,-88.22172,231,-1,-1,10,165,1415935777,0.1266022,-1.064041,1.200562,0.9689178,-30.11547,6.415863,221.8975,224.9807,10,3.666462,5.48281,-1.888094,2.081056,-1.898131,1.310521,3.398766,4.356362,-1.654295,0.2434838,-0.2020311,0.7544465,172.17.160.76,0.0.0.0,1,walking,0,2014-11-13 21:40:51.070,657,2014-11-13 21:38:15.181,0
2014-11-13 21:40:52.320,8974,299.1334,40.10425,-88.22172,231,-1,-1,10,165,1415935777,0.2649994,-1.149185,1.653519,1.244587,-28.73754,10.97015,214.1202,217.2034,10,4.727446,7.513966,-2.164787,2.564684,-2.20375,1.307676,4.033655,6.270861,-2.069061,0.3889554,-0.03487473,1.165986,172.17.160.76,0.0.0.0,1,walking,0,2014-11-13 21:40:51.070,657,2014-11-13 21:38:15.181,0
2014-11-13 21:40:52.353,8975,299.1667,40.10425,-88.22172,231,-1,-1,10,165,1415935777,0.3608398,-1.29213,1.870941,-0.6506233,-26.29169,15.42404,200.6678,203.7509,10,5.42314,8.825252,-1.686004,3.07754,-2.474142,1.253763,5.121064,8.057182,-1.979869,0.4579679,-0.1990208,1.40867,172.17.160.76,0.0.0.0,1,walking,0,2014-11-13 21:40:51.070,657,2014-11-13 21:38:15.181,0
2014-11-13 21:40:52.387,8976,299.2,40.10425,-88.22172,231,-1,-1,10,165,1415935777,0.2413788,-2.026779,1.692139,-2.028957,-24.63816,17.5672,191.4772,194.5604,10,5.419832,9.101266,-0.8725046,-2.729056,-2.559775,1.110342,5.525097,9.337174,-1.300601,0.634024,-0.5156787,1.342762,172.17.160.76,0.0.0.0,1,walking,0,2014-11-13 21:40:51.070,657,2014-11-13 21:38:15.181,0
2014-11-13 21:40:52.420,8977,299.2333,40.10425,-88.22172,231,-1,-1,10,165,1415935777,-0.01847839,-1.927643,2.130981,-7.301079,-20.74549,20.48059,165.007,168.0901,10,5.507875,9.028346,1.021527,-2.576538,-2.511666,1.027181,5.477524,8.924211,-0.1243524,0.646431,-0.9929871,1.108879,172.17.160.76,0.0.0.0,1,walking,0,2014-11-13 21:40:51.070,657,2014-11-13 21:38:15.181,0
2014-11-13 21:40:52.453,8978,299.2667,40.10425,-88.22172,231,-1,-1,10,165,1415935777,-0.5201874,-2.186356,2.086166,-14.60623,-16.54279,21.08337,129.46,132.5432,10,6.187582,7.815487,2.977398,-2.326799,-2.259861,0.7711703,6.275909,8.550931,2.283441,0.2574783,-1.327027,1.766624,172.17.160.76,0.0.0.0,1,walking,0,2014-11-13 21:40:51.070,657,2014-11-13 21:38:15.181,0
2014-11-13 21:40:52.487,8979,299.3,40.10425,-88.22172,231,-1,-1,10,165,1415935777,-1.081024,-2.050644,1.99411,-18.32773,-13.58023,20.48059,109.2006,112.2838,10,5.960236,5.799427,5.030092,-2.209759,-2.113409,0.5772665,6.054633,6.471806,4.428129,0.1192219,-1.647655,1.646401,172.17.160.76,0.0.0.0,1,walking,0,2014-11-13 21:40:51.070,657,2014-11-13 21:38:15.181,0
2014-11-13 21:40:52.520,8980,299.3333,40.10425,-88.22172,231,-1,-1,10,165,1415935777,-1.507675,-1.716446,2.023148,-24.32346,-6.414963,17.66763,58.73126,61.81445,10,5.880725,3.683017,6.464983,-2.084442,-1.96107,0.2696062,5.812582,4.073009,6.310087,-0.3749143,-1.704016,1.550614,172.17.160.76,0.0.0.0,1,walking,0,2014-11-13 21:40:51.070,657,2014-11-13 21:38:15.181,0
2014-11-13 21:40:52.553,8981,299.3667,40.10425,-88.22172,231,-1,-1,10,165,1415935777,-1.087341,-1.423859,2.799515,-27.59701,2.162697,13.07986,29.16752,32.25071,10,8.258482,7.141735,5.072075,-1.967427,-1.855037,0.02697138,7.059175,4.778896,6.010859,-0.4726183,-1.506388,1.991311,172.17.160.76,0.0.0.0,1,walking,0,2014-11-13 21:40:51.070,657,2014-11-13 21:38:15.181,0
2014-11-13 21:40:52.587,8982,299.4,40.10425,-88.22172,231,-1,-1,10,165,1415935777,-0.5856628,-1.574493,3.282562,-27.90714,5.917564,9.295807,4.053593,7.136783,10,8.651102,8.233574,4.892719,-1.837263,-1.722593,-0.1128363,8.326018,7.205701,5.09116,-0.1051265,-1.536456,2.649262,172.17.160.76,0.0.0.0,1,walking,0,2014-11-13 21:40:51.070,657,2014-11-13 21:38:15.181,0
2014-11-13 21:40:52.620,8983,299.4333,40.10425,-88.22172,231,-1,-1,10,165,1415935777,-0.03437805,-2.594238,1.48291,-25.87409,11.80824,-1.721588,330.8791,333.9622,10,6.813964,6.443573,7.37404,-1.463652,-1.27366,-0.2968481,8.763097,9.812698,5.755002,0.7088228,-2.10928,3.314371,172.17.160.76,0.0.0.0,1,walking,0,2014-11-13 21:40:51.070,657,2014-11-13 21:38:15.181,0
2014-11-13 21:40:52.654,8984,299.4667,40.10425,-88.22172,231,-1,-1,10,165,1415935777,1.21489,-1.562057,0.4264832,-20.46414,15.28752,-13.07382,312.4386,315.5218,10,4.537721,-3.610415,10.19031,-1.155069,-0.9662101,-0.3956566,5.698355,3.229786,8.622228,0.7247977,-2.979652,2.007418,172.17.160.76,0.0.0.0,1,walking,0,2014-11-13 21:40:51.070,657,2014-11-13 21:38:15.181,0
2014-11-13 21:40:52.687,8985,299.5,40.10425,-88.22172,231,-1,-1,10,165,1415935777,-0.996582,-0.8629456,1.53302,-18.22435,16.35542,-16.79086,297.0331,300.1162,10,8.816677,-11.04186,5.529386,-0.5647108,-0.9243628,-0.5732825,8.300464,-10.17602,7.017601,0.1867933,-0.8183022,1.252153,172.17.160.76,0.0.0.0,1,walking,0,2014-11-13 21:40:51.070,657,2014-11-13 21:38:15.181,0
2014-11-13 21:40:52.720,8986,299.5334,40.10425,-88.22172,231,-1,-1,10,165,1415935777,-1.592209,-2.14151,0.8955994,-17.1906,15.87315,-19.00101,262.7035,265.7867,10,8.876964,-8.986045,2.67717,-0.3205635,-1.007608,-0.5571777,9.055337,-10.35233,4.109631,-0.2789147,-1.391738,1.986156,172.17.160.76,0.0.0.0,1,walking,0,2014-11-13 21:40:51.070,657,2014-11-13 21:38:15.181,0
2014-11-13 21:40:52.753,8987,299.5667,40.10425,-88.22172,231,-1,-1,10,165,1415935777,-1.095764,-1.165619,-0.3088684,-20.53304,12.18717,-18.43179,232.4058,235.489,10,7.055452,-0.8659194,0.7332876,0.05263259,-1.075903,-0.4492657,7.584536,-2.468672,0.6983452,-0.7621638,-2.331384,0.9249854,172.17.160.76,0.0.0.0,1,walking,0,2014-11-13 21:40:51.070,657,2014-11-13 21:38:15.181,0
2014-11-13 21:40:52.787,8988,299.6,40.10425,-88.22172,231,-1,-1,10,165,1415935777,-0.7303925,-1.005692,-0.7079773,-22.11813,9.500206,-19.03458,223.5955,226.6787,10,6.085122,0.5217319,0.8068558,0.2589356,-1.000594,-0.3663511,6.409546,0.5952269,0.8377653,-0.3098332,-1.52383,0.1951131,172.17.160.76,0.0.0.0,1,walking,0,2014-11-13 21:40:51.070,657,2014-11-13 21:38:15.181,0
2014-11-13 21:40:52.820,8989,299.6334,40.10425,-88.22172,231,-1,-1,10,165,1415935777,-0.6561432,-0.8673859,-0.7572632,-23.80658,4.367401,-19.80472,209.5945,212.6777,10,4.84935,-1.21403,0.7906664,0.3753899,-0.9523432,-0.3117876,5.854985,0.2212843,0.8134586,-0.05312002,-1.32971,-0.05682,172.17.160.76,0.0.0.0,1,walking,0,2014-11-13 21:40:51.070,657,2014-11-13 21:38:15.181,0
2014-11-13 21:40:52.853,8990,299.6667,40.10425,-88.22172,231,-1,-1,10,165,1415935777,-1.017639,-0.640686,-0.7000122,-25.01262,0.681427,-19.90518,197.793,200.8762,10,2.737624,-3.375001,0.5536683,0.5541223,-0.9577317,-0.2262742,3.73581,-2.499164,0.7826539,0.1408966,-1.091734,-0.1965535,172.17.160.76,0.0.0.0,1,walking,0,2014-11-13 21:40:51.070,657,2014-11-13 21:38:15.181,0
2014-11-13 21:40:52.887,8991,299.7,40.10425,-88.22172,231,-1,-1,10,165,1415935777,-1.366119,-0.4900055,-0.5818787,-26.04636,-0.6965179,-18.69968,192.9403,196.0235,10,1.970247,-3.331977,0.1512822,0.6614752,-1.066428,-0.1845065,2.237662,-3.489271,0.2915836,-0.1570187,-0.8241475,-0.2249603,172.17.160.76,0.0.0.0,1,walking,0,2014-11-13 21:40:51.070,657,2014-11-13 21:38:15.181,0
2014-11-13 21:40:52.920,8992,299.7333,40.10425,-88.22172,231,-1,-1,10,165,1415935777,-1.397263,-0.3490601,-0.5837402,-28.45844,-2.074455,-15.95364,188.4256,191.5088,10,1.080698,-1.203876,-0.2141909,0.7139741,-1.144531,-0.1617185,1.607397,-2.275833,-0.0308489,-0.4674833,-0.65102,-0.1738009,172.17.160.76,0.0.0.0,1,walking,0,2014-11-13 21:40:51.070,657,2014-11-13 21:38:15.181,0
2014-11-13 21:40:52.953,8993,299.7667,40.10425,-88.22172,231,-1,-1,10,165,1415935777,-1.207382,-0.3166656,-0.5825958,-29.83678,-3.245689,-14.01144,188.7152,191.7984,10,0.5861588,-0.2942175,-0.3720785,0.7456846,-1.178909,-0.142547,0.9547564,-0.7355812,-0.2739885,-0.4824466,-0.4911248,-0.2056803,172.17.160.76,0.0.0.0,1,walking,0,2014-11-13 21:40:51.070,657,2014-11-13 21:38:15.181,0
2014-11-13 21:40:52.987,8994,299.8,40.10425,-88.22172,231,-1,-1,10,165,1415935777,-1.070129,-0.4247437,-0.6235352,-30.25027,-3.590172,-13.54263,188.3291,191.4123,10,-0.1015208,0.006514625,-0.2702634,0.7651782,-1.183452,-0.1176578,0.1707227,0.1214026,-0.2484947,-0.1928211,-0.5311286,-0.2444642,172.17.160.76,0.0.0.0,1,walking,0,2014-11-13 21:40:51.070,657,2014-11-13 21:38:15.181,0
2014-11-13 21:40:53.020,8995,299.8333,40.10425,-88.22172,231,-1,-1,10,165,1415935777,-1.024567,-0.4483795,-0.5951233,-30.35365,-4.451385,-13.30826,188.2537,191.3369,10,-0.4636236,-0.09959637,-0.4148893,0.7616276,-1.182813,-0.1132732,-0.2225583,-0.001071653,-0.3102945,-0.1503879,-0.5377747,-0.2476369,172.17.160.76,0.0.0.0,1,walking,0,2014-11-13 21:40:51.070,657,2014-11-13 21:38:15.181,0
2014-11-13 21:40:53.053,8996,299.8667,40.10425,-88.22172,231,-1,-1,10,165,1415935777,-1.02478,-0.4342804,-0.5978546,-30.11243,-5.037003,-13.14072,189.2852,192.3684,10,-1.167521,0.04787405,-0.6301423,0.7316085,-1.185755,-0.1046714,-0.9134658,0.07704678,-0.5746669,-0.0969202,-0.5645328,-0.2194916,172.17.160.76,0.0.0.0,1,walking,0,2014-11-13 21:40:51.070,657,2014-11-13 21:38:15.181,0
2014-11-13 21:40:53.087,8997,299.9,40.10425,-88.22172,231,-1,-1,10,165,1415935777,-0.97229,-0.4822388,-0.554245,-29.5611,-4.899208,-13.27469,190.1513,193.2345,10,-1.803376,0.3618512,-0.7418094,0.6898931,-1.186044,-0.1009094,-1.451446,0.1764329,-0.6740314,-0.1026039,-0.5350186,-0.2244344,172.17.160.76,0.0.0.0,1,walking,0,2014-11-13 21:40:51.070,657,2014-11-13 21:38:15.181,0
2014-11-13 21:40:53.120,8998,299.9333,40.10425,-88.22172,231,-1,-1,10,165,1415935777,-0.7830048,-0.5459442,-0.5142975,-28.9064,-4.520264,-13.91098,194.6694,197.7525,10,-2.293813,0.5841804,-1.021156,0.6341489,-1.180017,-0.1001613,-1.886907,0.5553119,-0.7616932,-0.0523117,-0.5822327,-0.1752449,172.17.160.76,0.0.0.0,1,walking,0,2014-11-13 21:40:51.070,657,2014-11-13 21:38:15.181,0
2014-11-13 21:40:53.153,8999,299.9667,40.10425,-88.22172,231,-1,-1,10,165,1415935777,-0.7721252,-0.4871368,-0.429245,-28.87195,-4.003555,-15.01602,199.5416,202.6248,10,-2.916214,0.4312696,-1.470761,0.5619212,-1.168141,-0.09862518,-2.437793,0.6491283,-1.178422,0.1037395,-0.6415715,-0.1691998,172.17.160.76,0.0.0.0,1,walking,0,2014-11-13 21:40:51.070,657,2014-11-13 21:38:15.181,0
2014-11-13 21:40:53.187,9000,300,40.10425,-88.22172,231,-1,-1,10,165,1415935777,-0.6430054,-0.6529236,-0.296463,-29.00978,-3.934654,-15.28397,201.4212,204.5044,10,-3.340896,0.2935198,-1.728898,0.4332193,-1.160276,-0.09018647,-3.140232,0.408101,-1.622883,0.1681612,-0.5895913,-0.01391226,172.17.160.76,0.0.0.0,1,walking,0,2014-11-13 21:40:51.070,657,2014-11-13 21:38:15.181,0
2014-11-13 21:40:53.220,9001,300.0334,40.10425,-88.22172,231,-1,-1,10,165,1415935777,-0.652298,-0.7271118,-0.1352234,-28.21725,-4.106895,-16.72391,211.9564,215.0396,10,-3.616009,-0.2752015,-2.203222,0.3192067,-1.161506,-0.08056603,-3.462423,0.1496265,-1.961651,0.2714222,-0.7334025,0.1002047,172.17.160.76,0.0.0.0,1,walking,0,2014-11-13 21:40:51.070,657,2014-11-13 21:38:15.181,0
2014-11-13 21:40:53.253,9002,300.0667,40.10425,-88.22172,231,-1,-1,10,165,1415935777,-0.5624542,-0.8106079,0.06253052,-27.76928,-3.934654,-17.29324,218.0816,221.1648,10,-4.120498,-0.8252806,-2.615023,0.1951424,-1.175209,-0.06294237,-3.702719,-0.3990431,-2.310745,0.2649832,-0.8268169,0.3048138,172.17.160.76,0.0.0.0,1,walking,0,2014-11-13 21:40:51.070,657,2014-11-13 21:38:15.181,0
2014-11-13 21:40:53.287,9003,300.1,40.10425,-88.22172,231,-1,-1,10,165,1415935777,-0.7099915,-0.8634186,0.2001801,-27.76928,-4.072449,-17.62814,228.7043,231.7875,10,-4.420082,-1.639499,-2.814563,0.004673886,-1.217631,-0.02519133,-4.319049,-1.277203,-2.837434,0.3755307,-0.8357966,0.4082903,172.17.160.76,0.0.0.0,1,walking,0,2014-11-13 21:40:51.070,657,2014-11-13 21:38:15.181,0
2014-11-13 21:40:53.320,9004,300.1334,40.10425,-88.22172,231,-1,-1,10,165,1415935777,-0.7580414,-0.8305206,0.4000397,-28.21725,-4.313583,-16.79092,234.5814,237.6646,10,-4.457729,-2.323708,-2.523994,-0.1936983,-1.293341,0.02021217,-4.368905,-2.226354,-2.454805,0.2096975,-0.8349985,0.5460548,172.17.160.76,0.0.0.0,1,walking,0,2014-11-13 21:40:51.070,657,2014-11-13 21:38:15.181,0
2014-11-13 21:40:53.353,9005,300.1667,40.10425,-88.22172,231,-1,-1,10,165,1415935777,-0.761795,-0.9051819,0.5035706,-28.18279,-4.69252,-15.68576,255.944,259.0272,10,-4.44766,-1.968796,-2.944633,-0.3408937,-1.352846,0.06384695,-4.413621,-2.041775,-2.780602,0.2296633,-0.7783595,0.6484822,172.17.160.76,0.0.0.0,1,walking,0,2014-11-13 21:40:51.070,657,2014-11-13 21:38:15.181,0
2014-11-13 21:40:53.387,9006,300.2,40.10425,-88.22172,231,-1,-1,10,165,1415935777,-0.8085938,-0.9169464,0.5995178,-27.94157,-4.933655,-15.04953,256.022,259.1052,10,-4.44667,-2.274146,-2.997196,-0.4874305,-1.395761,0.1261695,-4.349777,-1.886611,-3.054948,0.215098,-0.7793468,0.6763291,172.17.160.76,0.0.0.0,1,walking,0,2014-11-13 21:40:51.070,657,2014-11-13 21:38:15.181,0
2014-11-13 21:40:53.420,9007,300.2333,40.10425,-88.22172,231,-1,-1,10,165,1415935777,-0.882843,-0.9954224,0.783783,-28.42399,-5.691521,-13.91098,278.8611,281.9443,10,-4.410778,-2.617145,-2.967292,-0.6327353,-1.437423,0.1946399,-4.392066,-2.363882,-2.94054,0.1638102,-0.7235332,0.7299855,172.17.160.76,0.0.0.0,1,walking,0,2014-11-13 21:40:51.070,657,2014-11-13 21:38:15.181,0
2014-11-13 21:40:53.453,9008,300.2667,40.10425,-88.22172,231,-1,-1,10,165,1415935777,-0.9853668,-1.015793,0.8710938,-28.56183,-6.311592,-12.97336,278.7198,281.803,10,-4.355591,-3.015776,-2.986582,-0.7760183,-1.480598,0.2679937,-4.289815,-2.625597,-2.97733,0.1110494,-0.6974525,0.821648,172.17.160.76,0.0.0.0,1,walking,0,2014-11-13 21:40:51.070,657,2014-11-13 21:38:15.181,0
2014-11-13 21:40:53.487,9009,300.3,40.10425,-88.22172,231,-1,-1,10,165,1415935777,-0.957077,-1.007477,1.014252,-29.11316,-7.758423,-11.36588,301.9269,305.0101,10,-4.453404,-3.396978,-2.817324,-0.9649912,-1.540621,0.3746903,-4.380302,-3.280067,-2.832891,-0.06417215,-0.6432015,0.9172375,172.17.160.76,0.0.0.0,1,walking,0,2014-11-13 21:40:51.070,657,2014-11-13 21:38:15.181,0
2014-11-13 21:40:53.520,9010,300.3333,40.10425,-88.22172,231,-1,-1,10,165,1415935777,-0.9920044,-0.9423828,1.115448,-28.76858,-9.34304,-8.954803,320.5413,323.6245,10,-4.233754,-3.312023,-2.810269,-1.109358,-1.582038,0.4576623,-4.320664,-3.272491,-2.810784,-0.06004586,-0.5656246,1.004167,172.17.160.76,0.0.0.0,1,walking,0,2014-11-13 21:40:51.070,657,2014-11-13 21:38:15.181,0
2014-11-13 21:40:53.553,9011,300.3667,40.10425,-88.22172,231,-1,-1,10,165,1415935777,-0.9661102,-0.936264,1.100021,-28.45846,-10.47984,-8.117645,328.902,331.9852,10,-4.166212,-3.435966,-2.6148,-1.297302,-1.620864,0.5734797,-4.117535,-3.381027,-2.677308,-0.1457147,-0.3613571,1.082075,172.17.160.76,0.0.0.0,1,walking,0,2014-11-13 21:40:51.070,657,2014-11-13 21:38:15.181,0
2014-11-13 21:40:53.587,9012,300.4,40.10425,-88.22172,231,-1,-1,10,165,1415935777,-0.9565125,-1.052917,1.120193,-27.59699,-12.5123,-6.007904,346.858,349.9412,10,-3.842129,-2.926183,-2.485951,-1.487768,-1.638184,0.6838047,-3.857827,-2.990488,-2.442698,-0.1730263,-0.4183324,1.069476,172.17.160.76,0.0.0.0,1,walking,0,2014-11-13 21:40:51.070,657,2014-11-13 21:38:15.181,0
2014-11-13 21:40:53.619,9013,300.4333,40.10425,-88.22172,231,-1,-1,10,165,1415935777,-0.8950195,-0.8414307,1.005646,-27.25242,-13.82133,-5.137238,355.4698,358.5529,10,-3.836515,-2.957768,-2.588041,-1.582744,-1.633352,0.7383155,-3.740184,-2.822216,-2.525048,-0.2183557,-0.3798745,1.073958,172.17.160.76,0.0.0.0,1,walking,0,2014-11-13 21:40:51.070,657,2014-11-13 21:38:15.181,0
2014-11-13 21:40:53.653,9014,300.4667,40.10425,-88.22172,231,-1,-1,10,165,1415935777,-0.8448486,-0.9521484,0.9500885,-26.35651,-15.68155,-3.998627,4.669716,7.752906,10,-3.514473,-3.003398,-2.277411,-1.736506,-1.61432,0.8204889,-3.776783,-3.070432,-2.471021,-0.1766922,-0.05238,0.9315291,172.17.160.76,0.0.0.0,1,walking,0,2014-11-13 21:40:53.545,657,2014-11-13 21:38:15.181,0
2014-11-13 21:40:53.687,9015,300.5,40.10425,-88.22172,231,-1,-1,10,165,1415935777,-0.7138824,-0.9676514,0.7830048,-25.11601,-17.67956,-3.127991,28.95373,32.03692,10,-3.206514,-2.843531,-2.193866,-1.945159,-1.572114,0.9141793,-3.184812,-2.802681,-2.153383,-0.2339964,-0.2197942,0.9294019,172.17.160.76,0.0.0.0,1,walking,0,2014-11-13 21:40:53.545,657,2014-11-13 21:38:15.181,0
2014-11-13 21:40:53.720,9016,300.5334,40.10425,-88.22172,231,-1,-1,10,165,1415935777,-0.5955963,-1.058243,0.6367188,-23.42756,-19.91871,-2.692627,43.65612,46.73931,10,-2.904965,-2.763467,-2.125577,-2.166234,-1.502515,0.9970443,-3.038702,-2.758189,-2.162188,-0.118161,-0.1294442,0.7673495,172.17.160.76,0.0.0.0,1,walking,0,2014-11-13 21:40:53.545,657,2014-11-13 21:38:15.181,0
2014-11-13 21:40:53.753,9017,300.5667,40.10425,-88.22172,231,-1,-1,10,165,1415935777,-0.5829315,-1.021408,0.5668793,-21.67017,-21.60668,-2.592194,52.3343,55.41749,10,-2.803895,-2.81517,-2.071031,-2.283691,-1.456939,1.034189,-2.837342,-2.699424,-2.106375,-0.09551086,-0.1707034,0.7183589,172.17.160.76,0.0.0.0,1,walking,0,2014-11-13 21:40:53.545,657,2014-11-13 21:38:15.181,0
2014-11-13 21:40:53.787,9018,300.6,40.10425,-88.22172,231,-1,-1,10,165,1415935777,-0.5943298,-1.140945,0.5085144,-20.29185,-22.64014,-2.592194,64.35509,67.43828,10,-2.643496,-2.611534,-1.828541,-2.469402,-1.377055,1.082644,-2.719308,-2.743449,-2.018945,-0.1227116,-0.1382069,0.6571754,172.17.160.76,0.0.0.0,1,walking,0,2014-11-13 21:40:53.545,657,2014-11-13 21:38:15.181,0
2014-11-13 21:40:53.819,9019,300.6334,40.10425,-88.22172,231,-1,-1,10,165,1415935777,-0.5559998,-1.085312,0.3598175,-18.63784,-23.94918,-2.726135,72.11121,75.1944,10,-2.353564,-1.96271,-1.298653,-2.726792,-1.24633,1.124398,-2.325138,-2.189904,-1.435814,-0.1878679,-0.3016209,0.6266932,172.17.160.76,0.0.0.0,1,walking,0,2014-11-13 21:40:53.545,657,2014-11-13 21:38:15.181,0
2014-11-13 21:40:53.853,9020,300.6667,40.10425,-88.22172,231,-1,-1,10,165,1415935777,-0.4467621,-0.9933319,0.184433,-17.8453,-24.3281,-2.759674,82.83214,85.91533,10,-2.225438,-1.818484,-1.328095,-2.910248,-1.13869,1.135566,-2.286916,-1.847798,-1.297225,-0.1731338,-0.1785388,0.5363851,172.17.160.76,0.0.0.0,1,walking,0,2014-11-13 21:40:53.545,657,2014-11-13 21:38:15.181,0
2014-11-13 21:40:53.887,9021,300.7,40.10425,-88.22172,231,-1,-1,10,165,1415935777,-0.3871918,-0.9767609,0.04707336,-16.98386,-25.396,-3.529846,92.0639,95.14709,10,-1.758908,-1.910324,-1.21887,3.084536,-0.965682,1.140251,-1.811637,-1.801793,-1.22552,-0.05238752,-0.05293163,0.3272347,172.17.160.76,0.0.0.0,1,walking,0,2014-11-13 21:40:53.545,657,2014-11-13 21:38:15.181,0
2014-11-13 21:40:53.919,9022,300.7333,40.10425,-88.22172,231,-1,-1,10,165,1415935777,-0.4720917,-0.9334564,0.008102417,-16.05349,-26.395,-4.567963,99.84984,102.933,10,-1.594791,-1.986914,-1.219888,2.987324,-0.9147211,1.140268,-1.596455,-1.887723,-1.193873,-0.05648573,-0.06801564,0.3016625,172.17.160.76,0.0.0.0,1,walking,0,2014-11-13 21:40:53.545,657,2014-11-13 21:38:15.181,0
