time,timestamp,recordtime,lat,long,alt,speed,course,verticalAccuracy,horizontalAccuracy,locTimeStamp,accelerationX,accelerationY,accelerationZ,HeadingX,HeadingY,HeadingZ,TrueHeading,MagneticHeading,HeadingAccuracy,RotationX,RotationY,RotationZ,motionYaw,motionRoll,motionPitch,motionRotationRateX,motionRotationRateY,motionRotationRateZ,motionUserAccelerationX,motionUserAccelerationY,motionUserAccelerationZ,en0,pdp_ip0,DeviceOrientation,Activity,Activity Confidence,Activity Start,Steps,Last Step Date,State
2014-11-13 14:12:23.832,61509,2050.3,40.11403,-88.22443,225.0587,-1,-1,10,79.21869,1415909526,0.0027771,-0.0329895,-1.000824,9.358994,-32.57604,7.912415,193.1617,196.244,25,-0.05970115,-0.06597129,-0.01604608,-0.2716643,0.001725801,0.03436585,0.0002609809,0.0001103209,-0.0005154741,-0.000702442,-0.00146855,0.001056013,172.17.160.76,10.175.81.193,5,stationary,2,2014-11-13 14:11:00.783,15,2014-11-13 13:57:29.604,0
2014-11-13 14:12:23.866,61510,2050.333,40.11403,-88.22443,225.0587,-1,-1,10,79.21869,1415909526,0.001907349,-0.03494263,-1.001801,9.152267,-32.50713,7.979492,193.1489,196.2313,25,-0.05863509,-0.06597183,-0.01605007,-0.2716649,0.001747814,0.03434148,0.0002515451,-0.003061935,0.001590665,0.0005725536,0.0002313319,-0.0006063958,172.17.160.76,10.175.81.193,5,stationary,2,2014-11-13 14:11:00.783,15,2014-11-13 13:57:29.604,0
2014-11-13 14:12:23.899,61511,2050.367,40.11403,-88.22443,225.0587,-1,-1,10,79.21869,1415909526,-0.0003356934,-0.03410339,-0.9983521,9.186722,-33.09286,7.811829,193.1281,196.2104,25,-0.05970434,-0.06596331,-0.01498454,-0.2716548,0.00177133,0.03435042,0.0002606563,0.00117211,-0.0005101754,0.0005795698,-0.0003548223,-0.002529352,172.17.160.76,10.175.81.193,5,stationary,2,2014-11-13 14:11:00.783,15,2014-11-13 13:57:29.604,0
2014-11-13 14:12:23.932,61512,2050.4,40.11403,-88.22443,225.0587,-1,-1,10,79.21869,1415909526,0.002243042,-0.0353241,-0.9993744,9.186722,-33.43742,7.610718,193.1181,196.2005,25,-0.05863269,-0.06704242,-0.0171172,-0.27163,0.001689308,0.0343173,-0.001872784,0.0001201486,0.0005551059,-0.0007422679,-0.0002658498,0.002369998,172.17.160.76,10.175.81.193,5,stationary,2,2014-11-13 14:11:00.783,15,2014-11-13 13:57:29.604,0
2014-11-13 14:12:23.966,61513,2050.433,40.11403,-88.22443,225.0587,-1,-1,10,79.21869,1415909526,0.0002593994,-0.03358459,-0.9989471,9.221176,-33.26514,8.247559,193.1024,196.1848,25,-0.05863588,-0.06703443,-0.01605567,-0.2716344,0.001691406,0.03433729,0.0002631721,0.001173269,-0.0005089259,0.0002169405,-0.001130883,-0.0005756376,172.17.160.76,10.175.81.193,5,stationary,2,2014-11-13 14:11:00.783,15,2014-11-13 13:57:29.604,0
2014-11-13 14:12:23.999,61514,2050.467,40.11403,-88.22443,225.0587,-1,-1,10,79.21869,1415909526,0.001602173,-0.03434753,-0.9971466,9.462364,-32.95505,8.348145,193.096,196.1784,25,-0.05969795,-0.06597929,-0.01710761,-0.2716452,0.001693184,0.03435807,0.002394191,0.0001093395,-0.0005225918,0.001893631,-0.0003166591,0.0005527962,172.17.160.76,10.175.81.193,5,stationary,2,2014-11-13 14:11:00.783,15,2014-11-13 13:57:29.604,0
2014-11-13 14:12:24.032,61515,2050.5,40.11403,-88.22443,225.0587,-1,-1,10,79.21869,1415909526,0.003295898,-0.03517151,-0.9997559,9.393456,-33.2996,8.616272,193.0905,196.1729,25,-0.05863509,-0.06597183,-0.01605007,-0.2716391,0.001676494,0.03433733,0.0002615167,0.0001098503,-0.0005147349,-0.001339812,0.000486585,0.0007824185,172.17.160.76,10.175.81.193,5,stationary,2,2014-11-13 14:11:00.783,15,2014-11-13 13:57:29.604,0
2014-11-13 14:12:24.066,61516,2050.533,40.11403,-88.22443,225.0587,-1,-1,10,79.21869,1415909526,0.003173828,-0.03552246,-0.9989471,9.496826,-33.26514,7.644287,193.0804,196.1628,25,-0.05862869,-0.0659878,-0.01817315,-0.27163,0.001724959,0.0343508,-0.0008047143,0.0001103772,-0.0005108145,0.001571958,-0.0008274613,-0.000347277,172.17.160.76,10.175.81.193,5,stationary,2,2014-11-13 14:11:00.783,15,2014-11-13 13:57:29.604,0
2014-11-13 14:12:24.099,61517,2050.567,40.11403,-88.22443,225.0587,-1,-1,10,79.21869,1415909526,0.001052856,-0.03485107,-1.001556,9.359024,-33.40296,7.77832,193.069,196.1513,25,-0.05969795,-0.06597929,-0.01710761,-0.271645,0.001731721,0.03436125,-0.0008015542,0.0001121654,-0.0005092138,-0.0001590424,-3.882469e-05,0.002322641,172.17.160.76,10.175.81.193,5,stationary,2,2014-11-13 14:11:00.783,15,2014-11-13 13:57:29.604,0
2014-11-13 14:12:24.132,61518,2050.6,40.11403,-88.22443,225.0587,-1,-1,10,79.21869,1415909526,0.00100708,-0.03433228,-0.9999084,9.462387,-32.88613,7.610779,193.0671,196.1495,25,-0.05970195,-0.06703389,-0.01605167,-0.2716705,0.001727049,0.03436746,-0.0008050707,0.0001195344,0.0005521725,-4.756188e-05,-0.0003988213,0.001696825,172.17.160.76,10.175.81.193,5,stationary,2,2014-11-13 14:11:00.783,15,2014-11-13 13:57:29.604,0
2014-11-13 14:12:24.166,61519,2050.634,40.11403,-88.22443,225.0587,-1,-1,10,79.21869,1415909526,0.00138855,-0.03475952,-0.9979248,9.496849,-33.47187,7.711426,193.0633,196.1457,25,-0.06076641,-0.06490816,-0.01603649,-0.2716542,0.001721008,0.0343589,0.0002573662,0.0001266034,0.001609614,-0.000712911,1.98688e-05,-0.0005001364,172.17.160.76,10.175.81.193,5,stationary,2,2014-11-13 14:11:00.783,15,2014-11-13 13:57:29.604,0
2014-11-13 14:12:24.199,61520,2050.667,40.11403,-88.22443,225.0587,-1,-1,10,79.21869,1415909526,0.003158569,-0.03334045,-0.999176,9.565758,-33.33405,7.577393,193.0611,196.1434,25,-0.05969875,-0.06704188,-0.01711321,-0.2716485,0.001741582,0.03435173,-0.0008034791,-0.0009518925,-0.0005151909,0.00262346,-0.0008570486,0.0001409434,172.17.160.76,10.175.81.193,5,stationary,2,2014-11-13 14:11:00.783,15,2014-11-13 13:57:29.604,0
2014-11-13 14:12:24.232,61521,2050.7,40.11403,-88.22443,225.0587,-1,-1,10,79.21869,1415909526,0.0009765625,-0.03451538,-0.9972992,9.496849,-33.26515,7.510376,193.0572,196.1396,25,-0.05863509,-0.06597183,-0.01605007,-0.2716759,0.001752008,0.03430866,0.0002657993,-0.000950834,-0.0005174452,6.482001e-05,0.000137498,-0.001230887,172.17.160.76,10.175.81.193,5,stationary,2,2014-11-13 14:11:00.783,15,2014-11-13 13:57:29.604,0
2014-11-13 14:12:24.266,61522,2050.733,40.11403,-88.22443,225.0587,-1,-1,10,79.21869,1415909526,0.0008850098,-0.03497314,-0.9986572,9.255661,-32.74832,7.543884,193.0495,196.1319,25,-0.05863269,-0.06704242,-0.0171172,-0.2716863,0.00173848,0.03437639,0.0002625699,-0.0009431583,0.0005440082,0.0006886953,-0.002190442,-0.0007754255,172.17.160.76,10.175.81.193,5,stationary,2,2014-11-13 14:11:00.783,15,2014-11-13 13:57:29.604,0
2014-11-13 14:12:24.299,61523,2050.767,40.11403,-88.22443,225.0587,-1,-1,10,79.21869,1415909526,0.001113892,-0.03436279,-1.000443,8.945557,-32.85169,8.180664,193.0332,196.1156,25,-0.05969875,-0.06704188,-0.01711321,-0.2716796,0.001705082,0.03438397,-0.0008029217,0.0001194836,0.0005534993,0.001134061,-0.000687498,0.002550787,172.17.160.76,10.175.81.193,5,stationary,2,2014-11-13 14:11:00.783,15,2014-11-13 13:57:29.604,0
2014-11-13 14:12:24.332,61524,2050.8,40.11403,-88.22443,225.0587,-1,-1,10,79.21869,1415909526,0.003921509,-0.03399658,-0.9989624,8.980003,-32.95506,8.28125,193.0231,196.1054,25,-0.05969795,-0.06597929,-0.01710761,-0.2716787,0.00170253,0.03435315,-0.0008033339,0.000119058,0.0005534006,-0.0005876328,-1.640179e-05,-0.001033965,172.17.160.76,10.175.81.193,5,stationary,2,2014-11-13 14:11:00.783,15,2014-11-13 13:57:29.604,0
2014-11-13 14:12:24.366,61525,2050.833,40.11403,-88.22443,225.0587,-1,-1,10,79.21869,1415909526,0.001373291,-0.03509521,-0.9985199,8.807724,-33.05843,8.851074,192.9941,196.0764,25,-0.05969795,-0.06597929,-0.01710761,-0.2716899,0.001748309,0.03432147,-0.001866643,0.0001113831,-0.0005042464,0.00217423,0.0003181497,0.0004471464,172.17.160.76,10.175.81.193,5,stationary,2,2014-11-13 14:11:00.783,15,2014-11-13 13:57:29.604,0
2014-11-13 14:12:24.399,61526,2050.867,40.11403,-88.22443,225.0587,-1,-1,10,79.21869,1415909526,0.0007476807,-0.03379822,-0.9997711,9.496841,-32.98952,8.381836,192.9855,196.0678,25,-0.05970115,-0.06597129,-0.01604608,-0.2717067,0.001808273,0.03434544,0.0002711303,-0.0009591524,-0.001577736,0.001748092,-0.0005581625,0.00154485,172.17.160.76,10.175.81.193,5,stationary,2,2014-11-13 14:11:00.783,15,2014-11-13 13:57:29.604,0
2014-11-13 14:12:24.432,61527,2050.9,40.11403,-88.22443,225.0587,-1,-1,10,79.21869,1415909526,0.002883911,-0.03413391,-0.9978485,9.738022,-32.6105,7.879089,192.9907,196.073,25,-0.05863588,-0.06703443,-0.01605567,-0.2717227,0.001814214,0.03433438,0.0013376,0.0001026033,-0.001576241,0.001925259,-0.0002793004,-0.0001485067,172.17.160.76,10.175.81.193,5,stationary,2,2014-11-13 14:11:00.783,15,2014-11-13 13:57:29.604,0
2014-11-13 14:12:24.466,61528,2050.933,40.11403,-88.22443,225.0587,-1,-1,10,79.21869,1415909526,0.0003356934,-0.03527832,-1.001068,10.42713,-32.26595,7.812073,193.0238,196.1062,25,-0.05969795,-0.06597929,-0.01710761,-0.271734,0.001855322,0.0343315,-0.0008005268,0.001182036,0.0005603061,-0.0005419718,0.001014825,0.001102737,172.17.160.76,10.175.81.193,5,stationary,2,2014-11-13 14:11:00.783,15,2014-11-13 13:57:29.604,0
2014-11-13 14:12:24.499,61529,2050.967,40.11403,-88.22443,225.0587,-1,-1,10,79.21869,1415909526,0.002548218,-0.0342865,-1.000336,10.11703,-32.71386,7.912598,193.0345,196.1169,25,-0.05863588,-0.06703443,-0.01605567,-0.2717228,0.001860381,0.03436028,0.001330575,0.0001179811,0.0005466242,-0.001523588,-0.0009248027,-0.001660101,172.17.160.76,10.175.81.193,5,stationary,2,2014-11-13 14:11:00.783,15,2014-11-13 13:57:29.604,0
2014-11-13 14:12:24.532,61530,2051,40.11403,-88.22443,225.0587,-1,-1,10,79.21869,1415909526,0.001052856,-0.03436279,-0.9994659,9.806931,-33.02396,8.214294,193.0456,196.1279,25,-0.05863189,-0.06597982,-0.01711161,-0.2717319,0.001809613,0.03436602,0.0002705105,0.0001019775,-0.001572547,3.77701e-05,0.0005305231,0.001177929,172.17.160.76,10.175.81.193,5,stationary,2,2014-11-13 14:11:00.783,15,2014-11-13 13:57:29.604,0
2014-11-13 14:12:24.566,61531,2051.033,40.11403,-88.22443,225.0587,-1,-1,10,79.21869,1415909526,0.0008239746,-0.03465271,-1.000092,9.496826,-33.54079,8.180725,193.0401,196.1224,25,-0.05756423,-0.06811354,-0.01818833,-0.2717432,0.0018647,0.03434719,0.0002696716,-0.0009516893,-0.0005148463,0.0007761709,-5.287172e-05,0.001392098,172.17.160.76,10.175.81.193,5,stationary,2,2014-11-13 14:11:00.783,15,2014-11-13 13:57:29.604,0
2014-11-13 14:12:24.599,61532,2051.067,40.11403,-88.22443,225.0587,-1,-1,10,79.21869,1415909526,0.000793457,-0.03575134,-0.9994812,9.772461,-33.19624,8.784119,193.048,196.1304,25,-0.05756982,-0.06703496,-0.01605966,-0.2717627,0.00179152,0.03435877,0.002401383,-0.0009533436,-0.0005229283,-0.0009664872,-0.0003007041,-0.0006833609,172.17.160.76,10.175.81.193,5,stationary,2,2014-11-13 14:11:00.783,15,2014-11-13 13:57:29.604,0
2014-11-13 14:12:24.632,61533,2051.1,40.11403,-88.22443,225.0587,-1,-1,10,79.21869,1415909526,0.001281738,-0.03440857,-0.9996796,9.84137,-33.05842,9.052246,193.0518,196.1342,25,-0.05650695,-0.0670275,-0.01500212,-0.2717562,0.001751881,0.03442573,-0.0007961271,0.0001103587,-0.0005054459,-0.0009573853,-0.001332414,-7.524166e-05,172.17.160.76,10.175.81.193,5,stationary,2,2014-11-13 14:11:00.783,15,2014-11-13 13:57:29.604,0
2014-11-13 14:12:24.666,61534,2051.134,40.11403,-88.22443,225.0587,-1,-1,10,79.21869,1415909526,0.004592896,-0.03482056,-1.001099,10.28928,-32.67941,9.085754,193.0742,196.1565,25,-0.05969795,-0.06597929,-0.01710761,-0.2717406,0.001749531,0.03446699,-0.0007963965,0.0001100653,-0.0005055489,-0.000466753,5.160133e-05,-0.000275023,172.17.160.76,10.175.81.193,5,stationary,2,2014-11-13 14:11:00.783,15,2014-11-13 13:57:29.604,0
2014-11-13 14:12:24.699,61535,2051.167,40.11403,-88.22443,225.0587,-1,-1,10,79.21869,1415909526,0.001815796,-0.034729,-0.997406,10.01365,-32.74832,8.884644,193.0877,196.17,25,-0.06076721,-0.06597076,-0.01604208,-0.2717473,0.001826879,0.03446056,0.001332001,0.000116724,0.0005478357,0.0003409543,-0.0009771647,-0.001770301,172.17.160.76,10.175.81.193,5,stationary,2,2014-11-13 14:11:00.783,15,2014-11-13 13:57:29.604,0
2014-11-13 14:12:24.732,61536,2051.2,40.11403,-88.22443,225.0587,-1,-1,10,79.21869,1415909526,0.003326416,-0.03436279,-0.9994812,9.806923,-32.74832,8.616516,193.092,196.1744,25,-0.05863509,-0.06597183,-0.01605007,-0.2717256,0.001799839,0.03442011,0.001335104,-0.0009450166,0.0005440247,-0.0008222099,0.001210186,-0.0002734976,172.17.160.76,10.175.81.193,5,stationary,2,2014-11-13 14:11:00.783,15,2014-11-13 13:57:29.604,0
2014-11-13 14:12:24.766,61537,2051.233,40.11403,-88.22443,225.0587,-1,-1,10,79.21869,1415909526,0.002471924,-0.03382874,-0.9990234,9.669106,-33.36852,8.415466,193.0915,196.1739,25,-0.05757062,-0.06809756,-0.01606525,-0.2717266,0.001854373,0.03439857,-0.0007942701,-0.0009520889,-0.0005096312,0.001473141,2.89944e-05,-7.4492e-05,172.17.160.76,10.175.81.193,5,stationary,2,2014-11-13 14:11:00.783,15,2014-11-13 13:57:29.604,0
2014-11-13 14:12:24.799,61538,2051.267,40.11403,-88.22443,225.0587,-1,-1,10,79.21869,1415909526,0.002441406,-0.0329895,-0.9968414,9.875832,-33.29961,7.812134,193.0956,196.178,25,-0.05969795,-0.06597929,-0.01710761,-0.2717203,0.001791818,0.03439525,-0.0007970521,0.0001180166,0.0005574001,0.0006811669,0.0005597324,0.0003834999,172.17.160.76,10.175.81.193,5,stationary,2,2014-11-13 14:11:00.783,15,2014-11-13 13:57:29.604,0
2014-11-13 14:12:24.832,61539,2051.3,40.11403,-88.22443,225.0587,-1,-1,10,79.21869,1415909526,0.001571655,-0.03361511,-0.998291,9.910278,-33.19624,7.644531,193.0995,196.1819,25,-0.05863588,-0.06703443,-0.01605567,-0.2717043,0.00182876,0.03429234,-0.0007976017,0.0001178267,0.0005573116,0.00215486,0.0006705111,0.0004327428,172.17.160.76,10.175.81.193,5,stationary,2,2014-11-13 14:11:00.783,15,2014-11-13 13:57:29.604,0
2014-11-13 14:12:24.866,61540,2051.333,40.11403,-88.22443,225.0587,-1,-1,10,79.21869,1415909526,0.002304077,-0.03379822,-0.999527,9.358994,-32.64495,7.644531,193.0972,196.1795,25,-0.05969875,-0.06704188,-0.01711321,-0.2717034,0.001824159,0.0342334,0.0002701516,-0.0009539057,-0.0005139801,-0.0005718683,-0.0004565165,-0.001014814,172.17.160.76,10.175.81.193,5,stationary,2,2014-11-13 14:11:00.783,15,2014-11-13 13:57:29.604,0
2014-11-13 14:12:24.899,61541,2051.367,40.11403,-88.22443,225.0587,-1,-1,10,79.21869,1415909526,0.003326416,-0.03494263,-0.9982758,9.048904,-32.81723,8.0802,193.0881,196.1705,25,-0.05863189,-0.06597982,-0.01711161,-0.2717085,0.001829422,0.0341821,-0.000795271,-0.0009445665,0.000553411,0.0004757247,0.0003772286,-0.0001128011,172.17.160.76,10.175.81.193,5,stationary,2,2014-11-13 14:11:00.783,15,2014-11-13 13:57:29.604,0
2014-11-13 14:12:24.933,61542,2051.4,40.11403,-88.22443,225.0587,-1,-1,10,79.21869,1415909526,0.002929688,-0.03587341,-0.9998627,8.945541,-32.92059,8.113708,193.0706,196.153,25,-0.05863428,-0.06490923,-0.01604448,-0.2717085,0.001839268,0.03419459,0.0002729862,-0.00201598,-0.0005178152,0.001488224,-0.0007547004,0.001137975,172.17.160.76,10.175.81.193,5,stationary,2,2014-11-13 14:11:00.783,15,2014-11-13 13:57:29.604,0
2014-11-13 14:12:24.966,61543,2051.433,40.11403,-88.22443,225.0587,-1,-1,10,79.21869,1415909526,0.001190186,-0.0344696,-0.9980469,9.496826,-33.19624,8.247803,193.0585,196.1409,25,-0.05970115,-0.06597129,-0.01604608,-0.2717369,0.001983389,0.03416435,0.001340767,0.001171143,-0.0005051967,-0.0003190225,0.0009698439,0.0002689816,172.17.160.76,10.175.81.193,5,stationary,2,2014-11-13 14:11:00.783,15,2014-11-13 13:57:29.604,0
2014-11-13 14:12:24.998,61544,2051.467,40.11403,-88.22443,225.0587,-1,-1,10,79.21869,1415909526,0.001419067,-0.03399658,-1.003036,9.772461,-33.26515,8.113708,193.0601,196.1425,25,-0.05863269,-0.06704242,-0.0171172,-0.2717302,0.001971384,0.0341924,-0.0007954023,0.0001172084,0.0005586734,-0.0007800448,-0.000283869,0.00136668,172.17.160.76,10.175.81.193,5,stationary,2,2014-11-13 14:11:00.783,15,2014-11-13 13:57:29.604,0
2014-11-13 14:12:25.032,61545,2051.5,40.11403,-88.22443,225.0587,-1,-1,10,79.21869,1415909526,0.0009460449,-0.0349884,-0.9991455,10.117,-33.12733,8.247803,193.0679,196.1503,25,-0.05863189,-0.06597982,-0.01711161,-0.2717272,0.001895566,0.03418048,0.0002685347,-0.002009344,0.0005433716,-0.002138598,0.0006350082,-8.235129e-05,172.17.160.76,10.175.81.193,5,stationary,2,2014-11-13 14:11:00.783,15,2014-11-13 13:57:29.604,0
2014-11-13 14:12:25.066,61546,2051.533,40.11403,-88.22443,225.0587,-1,-1,10,79.21869,1415909526,6.103516e-05,-0.0335083,-0.9990845,10.08254,-33.02397,7.543884,193.0883,196.1707,25,-0.05970115,-0.06597129,-0.01604608,-0.2717274,0.001918779,0.03420861,0.002406294,0.0001156763,0.000548717,-0.00097161,-0.0007864638,0.0002675949,172.17.160.76,10.175.81.193,5,stationary,2,2014-11-13 14:11:00.783,15,2014-11-13 13:57:29.604,0
2014-11-13 14:12:25.099,61547,2051.567,40.11403,-88.22443,225.0587,-1,-1,10,79.21869,1415909526,0.002410889,-0.03398132,-1.001495,9.910271,-33.19624,7.309265,193.0924,196.1748,25,-0.05863269,-0.06704242,-0.0171172,-0.2717383,0.001937034,0.0341706,-0.0007939176,-0.002008176,0.0005494113,-0.001874867,0.000655646,0.0003298944,172.17.160.76,10.175.81.193,5,stationary,2,2014-11-13 14:11:00.783,15,2014-11-13 13:57:29.604,0
2014-11-13 14:12:25.132,61548,2051.6,40.11403,-88.22443,225.0587,-1,-1,10,79.21869,1415909526,0.002944946,-0.03450012,-0.9952698,10.15145,-33.43744,7.409851,193.107,196.1893,25,-0.06076242,-0.06385355,-0.01709243,-0.2717737,0.001928623,0.03418675,0.001342644,0.0001074199,-0.0005090417,0.0004833938,0.0001987649,-0.00208153,172.17.160.76,10.175.81.193,5,stationary,2,2014-11-13 14:11:00.783,15,2014-11-13 13:57:29.604,0
2014-11-13 14:12:25.166,61549,2051.634,40.11403,-88.22443,225.0587,-1,-1,10,79.21869,1415909526,0.002075195,-0.0335083,-1.00116,9.841362,-33.67862,7.845642,193.1112,196.1935,25,-0.05970115,-0.06597129,-0.01604608,-0.2717855,0.002005948,0.03417237,0.0002728683,0.0001157367,0.0005563459,0.001962509,-0.0003954402,0.0002381453,172.17.160.76,10.175.81.193,5,stationary,2,2014-11-13 14:11:00.783,15,2014-11-13 13:57:29.604,0
2014-11-13 14:12:25.199,61550,2051.667,40.11403,-88.22443,225.0587,-1,-1,10,79.21869,1415909526,0.003387451,-0.03466797,-0.9968567,10.22038,-33.50634,7.67804,193.1185,196.2009,25,-0.05969875,-0.06704188,-0.01711321,-0.2717893,0.002003973,0.03413987,-0.0007856407,0.001171591,-0.0004933331,7.239149e-05,0.0006249371,-0.001744383,172.17.160.76,10.175.81.193,5,stationary,2,2014-11-13 14:11:00.783,15,2014-11-13 13:57:29.604,0
2014-11-13 14:12:25.232,61551,2051.7,40.11403,-88.22443,225.0587,-1,-1,10,79.21869,1415909526,0.002670288,-0.03485107,-0.9964752,9.738007,-33.02397,7.409912,193.122,196.2043,25,-0.05969795,-0.06597929,-0.01710761,-0.2717938,0.002005101,0.03416248,-0.001850456,-0.0009615978,-0.00156221,-0.0002644275,-0.00072576,-0.002614909,172.17.160.76,10.175.81.193,5,stationary,2,2014-11-13 14:11:00.783,15,2014-11-13 13:57:29.604,0
2014-11-13 14:12:25.266,61552,2051.733,40.11403,-88.22443,225.0587,-1,-1,10,79.21869,1415909526,0.00289917,-0.03527832,-1.001068,10.0481,-32.36932,7.443359,193.1359,196.2182,25,-0.05863349,-0.06810502,-0.01712279,-0.2717878,0.001974454,0.03417787,0.0002749869,-0.000947095,0.0005527727,0.0001629309,6.784142e-06,-0.0004333666,172.17.160.76,10.175.81.193,5,stationary,2,2014-11-13 14:11:00.783,15,2014-11-13 13:57:29.604,0
2014-11-13 14:12:25.299,61553,2051.767,40.11403,-88.22443,225.0587,-1,-1,10,79.21869,1415909526,0.0004425049,-0.03460693,-1.000458,9.462364,-32.47268,7.812134,193.1352,196.2176,25,-0.05863509,-0.06597183,-0.01605007,-0.2717879,0.001985841,0.03420387,0.0002773021,-0.002017852,-0.0005144246,0.0009144921,-0.00108112,-0.001654981,172.17.160.76,10.175.81.193,5,stationary,2,2014-11-13 14:11:00.783,15,2014-11-13 13:57:29.604,0
2014-11-13 14:12:25.332,61554,2051.8,40.11403,-88.22443,225.0587,-1,-1,10,79.21869,1415909526,0.002090454,-0.03495789,-0.9981384,9.083359,-32.85168,8.046753,193.1241,196.2065,25,-0.05969476,-0.06598727,-0.01816915,-0.2717858,0.001953174,0.03427367,-0.0007865748,0.001169798,-0.000493779,-0.001509521,-0.0003399765,-0.001046955,172.17.160.76,10.175.81.193,5,stationary,2,2014-11-13 14:11:00.783,15,2014-11-13 13:57:29.604,0
2014-11-13 14:12:25.366,61555,2051.833,40.11403,-88.22443,225.0587,-1,-1,10,79.21869,1415909526,0.001586914,-0.03445435,-1.000061,8.807724,-33.12733,8.31488,193.0989,196.1813,25,-0.06076801,-0.06703337,-0.01604768,-0.271801,0.00197091,0.03427669,-0.0007828525,0.001171025,-0.0004914324,0.0001207029,-0.0006879031,0.001272243,172.17.160.76,10.175.81.193,5,stationary,2,2014-11-13 14:11:00.783,15,2014-11-13 13:57:29.604,0
2014-11-13 14:12:25.399,61556,2051.867,40.11403,-88.22443,225.0587,-1,-1,10,79.21869,1415909526,0.001022339,-0.03378296,-0.9971313,9.117821,-33.16179,8.281311,193.0894,196.1718,25,-0.05863588,-0.06703443,-0.01605567,-0.271778,0.001936996,0.03426506,0.001344806,0.0001147236,0.0005563734,3.252583e-05,-0.0006842748,-0.001031369,172.17.160.76,10.175.81.193,5,stationary,2,2014-11-13 14:11:00.783,15,2014-11-13 13:57:29.604,0
2014-11-13 14:12:25.432,61557,2051.9,40.11403,-88.22443,225.0587,-1,-1,10,79.21869,1415909526,0.002944946,-0.03385925,-1.000381,9.393471,-33.16179,8.348328,193.077,196.1593,25,-0.05862949,-0.0670504,-0.01817874,-0.2717756,0.001875142,0.03426095,0.0002808814,-0.0009558592,-0.0005068185,-0.0008517015,0.000471295,0.002280046,172.17.160.76,10.175.81.193,5,stationary,2,2014-11-13 14:11:00.783,15,2014-11-13 13:57:29.604,0
2014-11-13 14:12:25.466,61558,2051.933,40.11403,-88.22443,225.0587,-1,-1,10,79.21869,1415909526,0.003204346,-0.0330658,-0.9977875,9.634659,-33.12733,8.314758,193.075,196.1574,25,-0.05969715,-0.06491669,-0.01710202,-0.2717964,0.001879953,0.03429093,0.0002812469,0.0001062911,-0.0005013605,8.953664e-05,-1.754523e-05,0.001119342,172.17.160.76,10.175.81.193,5,stationary,2,2014-11-13 14:11:00.783,15,2014-11-13 13:57:29.604,0
2014-11-13 14:12:25.499,61559,2051.967,40.11403,-88.22443,225.0587,-1,-1,10,79.21869,1415909526,0.00189209,-0.03399658,-1.001129,9.97921,-33.12733,8.381836,193.0806,196.163,25,-0.05969795,-0.06597929,-0.01710761,-0.2717917,0.00190889,0.03430036,0.0002769001,-0.000948582,0.0005544592,-0.0007786155,-0.00267841,0.001469916,172.17.160.76,10.175.81.193,5,stationary,2,2014-11-13 14:11:00.783,15,2014-11-13 13:57:29.604,0
2014-11-13 14:12:25.532,61560,2052,40.11403,-88.22443,225.0587,-1,-1,10,79.21869,1415909526,0.0006256104,-0.03443909,-0.9989929,10.11703,-33.33405,8.247803,193.0917,196.1741,25,-0.05969795,-0.06597929,-0.01710761,-0.2717786,0.001857113,0.03429683,0.0002799864,-0.002009866,0.0005511286,-0.002191713,-0.0005609738,0.003865764,172.17.160.76,10.175.81.193,5,stationary,2,2014-11-13 14:11:00.783,15,2014-11-13 13:57:29.604,0
2014-11-13 14:12:25.566,61561,2052.033,40.11403,-88.22443,225.0587,-1,-1,10,79.21869,1415909526,0.0009307861,-0.03387451,-0.9964142,9.97921,-33.12732,8.247803,193.0987,196.1811,25,-0.05863269,-0.06704242,-0.0171172,-0.2717924,0.001823323,0.03431717,0.0002804327,-0.0009479356,0.0005565924,-0.0007236161,-0.0007084854,-4.112119e-05,172.17.160.76,10.175.81.193,5,stationary,2,2014-11-13 14:11:00.783,15,2014-11-13 13:57:29.604,0
2014-11-13 14:12:25.599,61562,2052.067,40.11403,-88.22443,225.0587,-1,-1,10,79.21869,1415909526,0.0025177,-0.03385925,-0.9990692,9.703568,-32.71385,8.247803,193.1014,196.1838,25,-0.05863668,-0.06809703,-0.01606126,-0.2717961,0.001795045,0.0343043,0.000283381,-0.0009563094,-0.0005050061,-0.000863202,0.000423064,0.00299587,172.17.160.76,10.175.81.193,5,stationary,2,2014-11-13 14:11:00.783,15,2014-11-13 13:57:29.604,0
2014-11-13 14:12:25.632,61563,2052.1,40.11403,-88.22443,225.0587,-1,-1,10,79.21869,1415909526,0.002807617,-0.03343201,-1.001801,9.806931,-32.33484,7.812012,193.1151,196.1974,25,-0.05969875,-0.06704188,-0.01711321,-0.2717986,0.001869016,0.03426712,-0.0007864815,-0.0009477954,0.0005603741,0.0006497821,0.000401159,0.0003419803,172.17.160.76,10.175.81.193,5,stationary,2,2014-11-13 14:11:00.783,15,2014-11-13 13:57:29.604,0
2014-11-13 14:12:25.666,61564,2052.134,40.11403,-88.22443,225.0587,-1,-1,10,79.21869,1415909526,0.000289917,-0.03463745,-0.9986877,9.806931,-33.02394,7.812012,193.1224,196.2047,25,-0.05863668,-0.06809703,-0.01606126,-0.2718044,0.001887773,0.03425637,0.001346056,0.0001135905,0.0005578873,0.0009209528,0.0008176618,-0.00238901,172.17.160.76,10.175.81.193,5,stationary,2,2014-11-13 14:11:00.783,15,2014-11-13 13:57:29.604,0
2014-11-13 14:12:25.699,61565,2052.167,40.11403,-88.22443,225.0587,-1,-1,10,79.21869,1415909526,0.001907349,-0.03417969,-1.000748,9.772476,-33.47187,7.84552,193.1222,196.2046,25,-0.05970195,-0.06703389,-0.01605167,-0.2718073,0.001849069,0.03426905,0.0002839584,0.0001151193,0.0005639847,-0.001558065,-0.000375114,0.0007234211,172.17.160.76,10.175.81.193,5,stationary,2,2014-11-13 14:11:00.783,15,2014-11-13 13:57:29.604,0
2014-11-13 14:12:25.732,61566,2052.2,40.11403,-88.22443,225.0587,-1,-1,10,79.21869,1415909526,0.003616333,-0.03453064,-1.001923,9.910294,-33.6786,8.44873,193.1213,196.2037,25,-0.05863509,-0.06597183,-0.01605007,-0.2717914,0.001869466,0.03425403,-0.0007823405,0.0001155064,0.0005679078,0.001366495,-0.000329083,-0.002755106,172.17.160.76,10.175.81.193,5,stationary,2,2014-11-13 14:11:00.783,15,2014-11-13 13:57:29.604,0
2014-11-13 14:12:25.766,61567,2052.233,40.11403,-88.22443,225.0587,-1,-1,10,79.21869,1415909526,0.003295898,-0.03286743,-0.9974365,10.01366,-33.09285,8.147156,193.1322,196.2145,25,-0.05863588,-0.06703443,-0.01605567,-0.2718016,0.001915451,0.03424761,0.0002864098,0.0001065169,-0.0004977948,0.001702007,-0.0002897202,-0.002510833,172.17.160.76,10.175.81.193,5,stationary,2,2014-11-13 14:11:00.783,15,2014-11-13 13:57:29.604,0
2014-11-13 14:12:25.799,61568,2052.267,40.11403,-88.22443,225.0587,-1,-1,10,79.21869,1415909526,0.002151489,-0.03527832,-1.001221,10.18594,-32.64493,8.247681,193.1431,196.2254,25,-0.05863269,-0.06704242,-0.0171172,-0.2718182,0.00195079,0.03422237,-0.0007801266,0.0001068238,-0.0004939241,0.0006443476,-0.0005896107,0.0003433564,172.17.160.76,10.175.81.193,5,stationary,2,2014-11-13 14:11:00.783,15,2014-11-13 13:57:29.604,0
2014-11-13 14:12:25.832,61569,2052.3,40.11403,-88.22443,225.0587,-1,-1,10,79.21869,1415909526,0.002883911,-0.03398132,-0.9962616,9.806931,-32.33483,8.080078,193.1592,196.2416,25,-0.05969795,-0.06597929,-0.01710761,-0.2718319,0.001893196,0.03426371,0.0002841235,-0.00201951,-0.000509197,-0.002044672,1.628067e-05,-0.0002835586,172.17.160.76,10.175.81.193,5,stationary,2,2014-11-13 14:11:00.783,15,2014-11-13 13:57:29.604,0
2014-11-13 14:12:25.866,61570,2052.333,40.11403,-88.22443,225.0587,-1,-1,10,79.21869,1415909526,0.002914429,-0.03500366,-0.9987488,9.255653,-32.54156,8.013062,193.1579,196.2403,25,-0.05969875,-0.06704188,-0.01711321,-0.2718215,0.001919543,0.03423112,0.0002862748,0.000114876,0.0005655406,0.0009654942,0.000243111,0.003150735,172.17.160.76,10.175.81.193,5,stationary,2,2014-11-13 14:11:00.783,15,2014-11-13 13:57:29.604,0
2014-11-13 14:12:25.899,61571,2052.367,40.11403,-88.22443,225.0587,-1,-1,10,79.21869,1415909526,0.001617432,-0.03421021,-1.000961,9.117821,-32.81721,7.946045,193.1494,196.2317,25,-0.05863269,-0.06704242,-0.0171172,-0.2718359,0.001883697,0.03422913,0.001354248,-0.0009568128,-0.0005057143,-0.0007229248,-0.0003997498,0.004814079,172.17.160.76,10.175.81.193,5,stationary,2,2014-11-13 14:11:00.783,15,2014-11-13 13:57:29.604,0
2014-11-13 14:12:25.932,61572,2052.4,40.11403,-88.22443,225.0587,-1,-1,10,79.21869,1415909526,0.002426147,-0.03442383,-0.996933,9.531273,-33.29958,7.744934,193.1369,196.2193,25,-0.05756822,-0.06490976,-0.01604847,-0.2718346,0.001851328,0.03420359,0.0002878567,-0.0009565728,-0.000501768,-0.001331445,0.00116164,0.001839549,172.17.160.76,10.175.81.193,5,stationary,2,2014-11-13 14:11:00.783,15,2014-11-13 13:57:29.604,0
2014-11-13 14:12:25.966,61573,2052.433,40.11403,-88.22443,225.0587,-1,-1,10,79.21869,1415909526,0.00378418,-0.03512573,-1.001129,9.910278,-33.40295,7.912537,193.1356,196.218,25,-0.05863269,-0.06704242,-0.0171172,-0.2718486,0.001841685,0.03421293,-0.0007779428,0.0001059407,-0.0004923089,0.0005855412,-0.0002175748,0.002480117,172.17.160.76,10.175.81.193,5,stationary,2,2014-11-13 14:11:00.783,15,2014-11-13 13:57:29.604,0
2014-11-13 14:12:25.998,61574,2052.467,40.11403,-88.22443,225.0587,-1,-1,10,79.21869,1415909526,0.001113892,-0.03346252,-0.9979095,10.01365,-33.16176,7.878967,193.141,196.2233,25,-0.05863509,-0.06597183,-0.01605007,-0.2718524,0.001822127,0.03422836,-0.0007778983,-0.0009478061,0.000565562,-0.001683729,-0.0006904318,0.0007553812,172.17.160.76,10.175.81.193,5,stationary,2,2014-11-13 14:11:00.783,15,2014-11-13 13:57:29.604,0
2014-11-13 14:12:26.032,61575,2052.5,40.11403,-88.22443,225.0587,-1,-1,10,79.21869,1415909526,0.002304077,-0.03462219,-0.9989471,9.669106,-33.16176,7.879028,193.1471,196.2294,25,-0.06076162,-0.06704934,-0.01817075,-0.2718461,0.001797896,0.03426898,0.0002890026,0.000114032,0.0005671306,-0.001201747,-0.001885797,0.002020514,172.17.160.76,10.175.81.193,5,stationary,2,2014-11-13 14:11:00.783,15,2014-11-13 13:57:29.604,0
2014-11-13 14:12:26.066,61576,2052.533,40.11403,-88.22443,225.0587,-1,-1,10,79.21869,1415909526,0.002288818,-0.03463745,-0.9995575,9.565735,-32.71385,7.778503,193.1457,196.2281,25,-0.06183407,-0.06703283,-0.01604368,-0.2718727,0.001817717,0.03426006,-0.0007777218,0.0001140884,0.0005709328,0.001753907,-3.314378e-05,0.001318879,172.17.160.76,10.175.81.193,5,stationary,2,2014-11-13 14:11:00.783,15,2014-11-13 13:57:29.604,0
2014-11-13 14:12:26.099,61577,2052.567,40.11403,-88.22443,225.0587,-1,-1,10,79.21869,1415909526,0.004104614,-0.03443909,-0.999939,9.393456,-32.81721,7.610901,193.1421,196.2245,25,-0.05969955,-0.06810448,-0.0171188,-0.2718843,0.001873534,0.03426715,0.00029128,0.0001054756,-0.0004947073,0.002171146,-0.0005906324,-0.001611154,172.17.160.76,10.175.81.193,5,stationary,2,2014-11-13 14:11:00.783,15,2014-11-13 13:57:29.604,0
2014-11-13 14:12:26.132,61578,2052.6,40.11403,-88.22443,225.0587,-1,-1,10,79.21869,1415909526,0.003128052,-0.03308105,-0.9984589,9.324547,-32.6794,7.879028,193.1323,196.2146,25,-0.05863588,-0.06703443,-0.01605567,-0.2718949,0.00190377,0.03426345,-0.0007783407,0.0001137601,0.0005707174,0.002201963,-0.0001823348,-0.0005277107,172.17.160.76,10.175.81.193,5,stationary,2,2014-11-13 14:11:00.783,15,2014-11-13 13:57:29.604,0
2014-11-13 14:12:26.166,61579,2052.634,40.11403,-88.22443,225.0587,-1,-1,10,79.21869,1415909526,0.001968384,-0.03492737,-0.999527,9.290092,-33.33404,7.845459,193.1168,196.1992,25,-0.05863509,-0.06597183,-0.01605007,-0.2718957,0.001924139,0.03423424,0.0002918302,0.0001147833,0.0005686766,0.001205041,0.001146497,0.0009533534,172.17.160.76,10.175.81.193,5,stationary,2,2014-11-13 14:11:00.783,15,2014-11-13 13:57:29.604,0
2014-11-13 14:12:26.199,61580,2052.667,40.11403,-88.22443,225.0587,-1,-1,10,79.21869,1415909526,0.003143311,-0.03459167,-0.9986115,9.221176,-33.26513,8.113586,193.1084,196.1908,25,-0.05862869,-0.0659878,-0.01817315,-0.2718942,0.00192722,0.03425178,-0.0007744679,0.0001148758,0.0005725538,-0.000659609,0.0006604866,0.001120594,172.17.160.76,10.175.81.193,5,stationary,2,2014-11-13 14:11:00.783,15,2014-11-13 13:57:29.604,0
2014-11-13 14:12:26.232,61581,2052.7,40.11403,-88.22443,225.0587,-1,-1,10,79.21869,1415909526,0.0006256104,-0.0345459,-1.000214,9.393448,-33.43741,8.214111,193.0948,196.1772,25,-0.05756662,-0.06704295,-0.0171212,-0.2718937,0.001945234,0.0342421,0.0002912846,0.0001140401,0.0005684574,0.001199219,-0.0003562673,0.0008004556,172.17.160.76,10.175.81.193,5,stationary,2,2014-11-13 14:11:00.783,15,2014-11-13 13:57:29.604,0
2014-11-13 14:12:26.266,61582,2052.733,40.11403,-88.22443,225.0587,-1,-1,10,79.21869,1415909526,0.002426147,-0.0340271,-0.9997406,9.703537,-33.47187,8.381775,193.0935,196.1758,25,-0.05969715,-0.06491669,-0.01710202,-0.2718969,0.001903434,0.03426363,0.0002901121,-0.0009491866,0.0005627346,0.0001728793,0.0001382767,0.001669549,172.17.160.76,10.175.81.193,5,stationary,2,2014-11-13 14:11:00.783,15,2014-11-13 13:57:29.604,0
2014-11-13 14:12:26.299,61583,2052.767,40.11403,-88.22443,225.0587,-1,-1,10,79.21869,1415909526,0.002456665,-0.03414917,-0.9986115,9.841354,-33.60969,8.381775,193.0941,196.1765,25,-0.05863189,-0.06597982,-0.01711161,-0.2719056,0.001880949,0.03420271,-0.000771615,0.001168146,-0.0004836833,-0.00158993,0.001359132,0.0006035618,172.17.160.76,10.175.81.193,5,stationary,2,2014-11-13 14:11:00.783,15,2014-11-13 13:57:29.604,0
2014-11-13 14:12:26.332,61584,2052.8,40.11403,-88.22443,225.0587,-1,-1,10,79.21869,1415909526,0.001068115,-0.03594971,-1.002869,9.841354,-33.60969,8.04657,193.0966,196.1789,25,-0.05863349,-0.06810502,-0.01712279,-0.2719053,0.001887526,0.0341742,-0.0007719571,-0.0009472787,0.0005685019,-0.0001926969,0.0005219176,-0.002920256,172.17.160.76,10.175.81.193,5,stationary,2,2014-11-13 14:11:00.783,15,2014-11-13 13:57:29.604,0
2014-11-13 14:12:26.366,61585,2052.833,40.11403,-88.22443,225.0587,-1,-1,10,79.21869,1415909526,0.00138855,-0.0324707,-0.9972382,9.703537,-33.19621,7.979492,193.0992,196.1816,25,-0.05969875,-0.06704188,-0.01711321,-0.2719139,0.001847428,0.03419133,-0.0007708414,0.001177181,0.0005795055,-0.0007019383,-0.0002544208,-0.001227041,172.17.160.76,10.175.81.193,5,stationary,2,2014-11-13 14:11:00.783,15,2014-11-13 13:57:29.604,0
2014-11-13 14:12:26.399,61586,2052.867,40.11403,-88.22443,225.0587,-1,-1,10,79.21869,1415909526,0.002838135,-0.03414917,-0.9989624,9.531265,-32.95503,7.677856,193.0979,196.1802,25,-0.05970115,-0.06597129,-0.01604608,-0.2719221,0.001782951,0.0341371,-0.0007697481,-0.0009565815,-0.0004933102,-0.0005917258,0.0004848413,-0.0001111803,172.17.160.76,10.175.81.193,5,stationary,2,2014-11-13 14:11:00.783,15,2014-11-13 13:57:29.604,0
2014-11-13 14:12:26.432,61587,2052.9,40.11403,-88.22443,225.0587,-1,-1,10,79.21869,1415909526,0.0009613037,-0.03323364,-0.9976501,9.393448,-33.02394,7.543762,193.0884,196.1708,25,-0.05970115,-0.06597129,-0.01604608,-0.2719117,0.001797882,0.03411324,-0.0007723178,0.0001139699,0.0005737812,0.001178629,0.0006746112,0.0006220291,172.17.160.76,10.175.81.193,5,stationary,2,2014-11-13 14:11:00.783,15,2014-11-13 13:57:29.604,0
2014-11-13 14:12:26.466,61588,2052.933,40.11403,-88.22443,225.0587,-1,-1,10,79.21869,1415909526,0.001037598,-0.03440857,-0.997879,9.669083,-33.43739,7.409668,193.085,196.1674,25,-0.05863269,-0.06704242,-0.0171172,-0.2718985,0.00180086,0.03407353,0.0002961094,0.0001046371,-0.0004919479,-0.0008385103,-0.0005552529,-0.001772253,172.17.160.76,10.175.81.193,5,stationary,2,2014-11-13 14:11:00.783,15,2014-11-13 13:57:29.604,0
2014-11-13 14:12:26.499,61589,2052.967,40.11403,-88.22443,225.0587,-1,-1,10,79.21869,1415909526,0.002212524,-0.03440857,-1.000458,9.496803,-33.40294,7.242126,193.0811,196.1635,25,-0.05969875,-0.06704188,-0.01711321,-0.2719119,0.001763689,0.03405846,0.0003049469,0.001161142,-0.001546125,-0.0007250676,-0.0003566952,0.001539484,172.17.160.76,10.175.81.193,5,stationary,2,2014-11-13 14:11:00.783,15,2014-11-13 13:57:29.604,0
2014-11-13 14:12:26.532,61590,2053,40.11403,-88.22443,225.0587,-1,-1,10,79.21869,1415909526,0.001480103,-0.03453064,-0.9986572,9.669083,-32.88612,7.476746,193.0799,196.1622,25,-0.05863189,-0.06597982,-0.01711161,-0.2719167,0.001775697,0.03410433,0.0002975812,0.00011421,0.0005712516,0.0004378613,-0.0003108523,-0.001040836,172.17.160.76,10.175.81.193,5,stationary,2,2014-11-13 14:11:00.783,15,2014-11-13 13:57:29.604,0
2014-11-13 14:12:26.566,61591,2053.033,40.11403,-88.22443,225.0587,-1,-1,10,79.21869,1415909526,0.001831055,-0.03459167,-0.9963837,9.772461,-32.23147,7.443176,193.0872,196.1696,25,-0.06076721,-0.06597076,-0.01604208,-0.2719048,0.001737687,0.03416634,0.0002958867,-0.002011427,0.0005599688,-0.0002565693,-0.0003709517,0.0007576521,172.17.160.76,10.175.81.193,5,stationary,2,2014-11-13 14:11:00.783,15,2014-11-13 13:57:29.604,0
2014-11-13 14:12:26.599,61592,2053.067,40.11403,-88.22443,225.0587,-1,-1,10,79.21869,1415909526,0.003067017,-0.03457642,-0.9987488,9.66909,-32.33483,7.543701,193.0915,196.1738,25,-0.05970195,-0.06703389,-0.01605167,-0.2719008,0.001796899,0.03414787,-0.001831753,0.0001068285,-0.0004825063,0.002476611,-0.0003436275,0.0001173089,172.17.160.76,10.175.81.193,5,stationary,2,2014-11-13 14:11:00.783,15,2014-11-13 13:57:29.604,0
2014-11-13 14:12:26.632,61593,2053.1,40.11403,-88.22443,225.0587,-1,-1,10,79.21869,1415909526,0.002059937,-0.03334045,-0.9960175,9.56572,-32.4382,7.845398,193.099,196.1814,25,-0.05969875,-0.06704188,-0.01711321,-0.2719097,0.001802623,0.03421102,0.0003044083,-0.0009548449,-0.0004944279,-0.0001078413,-0.001730097,-0.0005409874,172.17.160.76,10.175.81.193,5,stationary,2,2014-11-13 14:11:00.783,15,2014-11-13 13:57:29.604,0
2014-11-13 14:12:26.666,61594,2053.134,40.11403,-88.22443,225.0587,-1,-1,10,79.21869,1415909526,0.003967285,-0.03381348,-1.001816,9.358986,-32.64493,7.979492,193.0959,196.1783,25,-0.05969875,-0.06704188,-0.01711321,-0.2718975,0.001775561,0.03422923,0.0003016772,0.0001152795,0.0005726048,-0.0006301111,0.0006379469,0.00486005,172.17.160.76,10.175.81.193,5,stationary,2,2014-11-13 14:11:00.783,15,2014-11-13 13:57:29.604,0
2014-11-13 14:12:26.699,61595,2053.167,40.11403,-88.22443,225.0587,-1,-1,10,79.21869,1415909526,0.002227783,-0.03251648,-0.9968262,9.875809,-32.61047,8.012939,193.1022,196.1845,25,-0.05970035,-0.06490869,-0.01604049,-0.2719039,0.001821726,0.03423314,0.00137069,0.0001067618,-0.0004930028,0.002146627,0.0004129739,-0.002403351,172.17.160.76,10.175.81.193,5,stationary,2,2014-11-13 14:11:00.783,15,2014-11-13 13:57:29.604,0
2014-11-13 14:12:26.732,61596,2053.2,40.11403,-88.22443,225.0587,-1,-1,10,79.21869,1415909526,0.0007324219,-0.03282166,-1.000031,10.01363,-32.95502,8.68335,193.1162,196.1986,25,-0.06076401,-0.06597875,-0.01710362,-0.271897,0.001854171,0.03419727,-0.001829704,0.002240992,0.000591533,0.0007103909,-0.001041935,0.0005580214,172.17.160.76,10.175.81.193,5,stationary,2,2014-11-13 14:11:00.783,15,2014-11-13 13:57:29.604,0
2014-11-13 14:12:26.766,61597,2053.233,40.11403,-88.22443,225.0587,-1,-1,10,79.21869,1415909526,0.001708984,-0.03517151,-0.9997559,9.290077,-32.78276,8.515747,193.1137,196.1961,25,-0.05969875,-0.06704188,-0.01711321,-0.2718928,0.001764167,0.03418173,0.0003013134,0.001176588,0.0005778818,-0.002419264,-8.090889e-05,0.001108032,172.17.160.76,10.175.81.193,5,stationary,2,2014-11-13 14:11:00.783,15,2014-11-13 13:57:29.604,0
2014-11-13 14:12:26.799,61598,2053.267,40.11403,-88.22443,225.0587,-1,-1,10,79.21869,1415909526,0.002685547,-0.03459167,-0.9993439,9.15226,-33.0584,8.716858,193.105,196.1874,25,-0.05756582,-0.06598035,-0.0171156,-0.2719004,0.001706486,0.034232,-0.0007631421,-0.0009566533,-0.000490899,-0.001888591,-0.001632839,0.0003434732,172.17.160.76,10.175.81.193,5,stationary,2,2014-11-13 14:11:00.783,15,2014-11-13 13:57:29.604,0
2014-11-13 14:12:26.832,61599,2053.3,40.11403,-88.22443,225.0587,-1,-1,10,79.21869,1415909526,0.0003356934,-0.03309631,-0.9981079,9.117798,-33.16177,8.214111,193.0849,196.1673,25,-0.05863189,-0.06597982,-0.01711161,-0.2718897,0.00171772,0.03431493,0.0003037683,-0.002009261,0.0005628314,0.0009688385,-0.0002834822,6.595419e-05,172.17.160.76,10.175.81.193,5,stationary,2,2014-11-13 14:11:00.783,15,2014-11-13 13:57:29.604,0
2014-11-13 14:12:26.866,61600,2053.333,40.11403,-88.22443,225.0587,-1,-1,10,79.21869,1415909526,-0.0002746582,-0.03443909,-1.000427,8.945526,-33.26513,8.381653,193.0597,196.1421,25,-0.05756582,-0.06598035,-0.0171156,-0.2718894,0.001763118,0.03431221,0.001374189,0.0001071743,-0.0004916205,0.0006335501,0.0004920066,0.001790211,172.17.160.76,10.175.81.193,5,stationary,2,2014-11-13 14:11:00.783,15,2014-11-13 13:57:29.604,0
2014-11-13 14:12:26.899,61601,2053.367,40.11403,-88.22443,225.0587,-1,-1,10,79.21869,1415909526,0.001556396,-0.03309631,-0.9982605,9.221169,-33.33404,8.381653,193.0516,196.1339,25,-0.05970195,-0.06703389,-0.01605167,-0.2718945,0.001665853,0.03431543,-0.00182708,0.001178154,0.0005873276,7.463045e-05,0.0005562576,0.0008289639,172.17.160.76,10.175.81.193,5,stationary,2,2014-11-13 14:11:00.783,15,2014-11-13 13:57:29.604,0
2014-11-13 14:12:26.932,61602,2053.4,40.11403,-88.22443,225.0587,-1,-1,10,79.21869,1415909526,0.002929688,-0.0355072,-0.9963837,8.70433,-32.95503,7.945923,193.0256,196.108,25,-0.05863189,-0.06597982,-0.01711161,-0.2718941,0.001676314,0.03429159,0.0003069511,0.0001062175,-0.0004878952,0.0006287497,-0.0004746552,-0.0009249964,172.17.160.76,10.175.81.193,5,stationary,2,2014-11-13 14:11:00.783,15,2014-11-13 13:57:29.604,0
2014-11-13 14:12:26.966,61603,2053.433,40.11403,-88.22443,225.0587,-1,-1,10,79.21869,1415909526,0.003295898,-0.03489685,-0.9992523,9.496803,-33.0584,7.77832,193.0136,196.096,25,-0.06076322,-0.06491615,-0.01709803,-0.2718886,0.001729885,0.03432495,0.001376534,0.002241868,0.0005828301,0.0004378825,0.0005505127,0.002156043,172.17.160.76,10.175.81.193,5,stationary,2,2014-11-13 14:11:00.783,15,2014-11-13 13:57:29.604,0
2014-11-13 14:12:26.998,61604,2053.467,40.11403,-88.22443,225.0587,-1,-1,10,79.21869,1415909526,0.002441406,-0.03366089,-0.9959564,9.393433,-32.88612,7.409668,193.0113,196.0936,25,-0.05756423,-0.05959675,-0.01602051,-0.2717867,0.00151469,0.03430889,-0.006146828,-0.01463729,0.01644428,-0.0115846,-0.0006557279,-0.005594521,172.17.160.76,10.175.81.193,5,stationary,2,2014-11-13 14:11:00.783,15,2014-11-13 13:57:29.604,0
2014-11-13 14:12:27.032,61605,2053.5,40.11403,-88.22443,225.0587,-1,-1,10,79.21869,1415909526,0.002487183,-0.0332489,-1.001129,9.8069,-33.09286,7.476807,193.0141,196.0965,25,-0.06183487,-0.07235382,-0.01713318,-0.2717355,0.00174187,0.03429411,-0.0007570009,0.001180027,0.0005849918,0.001555053,0.0003060671,0.004094947,172.17.160.76,10.175.81.193,5,stationary,2,2014-11-13 14:11:00.783,15,2014-11-13 13:57:29.604,0
2014-11-13 14:12:27.066,61606,2053.533,40.11403,-88.22443,225.0587,-1,-1,10,79.21869,1415909526,-0.1445923,0.0500946,-1.031784,9.875793,-32.88614,7.476807,193.0267,196.1091,25,-0.1063259,-0.1890818,-0.1407132,-0.271768,0.001522038,0.03416924,-0.007162526,-0.01902241,-0.001620479,0.001881561,-0.000123905,-0.008076935,172.17.160.76,10.175.81.193,5,stationary,2,2014-11-13 14:11:00.783,15,2014-11-13 13:57:29.604,0
2014-11-13 14:12:27.099,61607,2053.567,40.11403,-88.22443,225.0587,-1,-1,10,79.21869,1415909526,-0.007263184,0.03353882,-0.9232178,9.462326,-32.88614,7.476807,193.0253,196.1077,25,-0.2185326,-0.492826,-0.1280933,-0.2730808,-0.0004188207,0.0334953,-0.04738465,-0.1229984,-0.1240877,-0.04677685,0.01270657,-0.01734567,172.17.160.76,10.175.81.193,5,stationary,2,2014-11-13 14:11:00.783,15,2014-11-13 13:57:29.604,0
2014-11-13 14:12:27.132,61608,2053.6,40.11403,-88.22443,225.0587,-1,-1,10,79.21869,1415909526,-0.05712891,0.05331421,-1.071442,9.427872,-32.78277,7.376221,192.8819,195.9643,25,-0.106834,-0.1580027,0.0356584,-0.2779664,-0.01107116,0.02921136,-0.06879139,-0.1578909,-0.1029598,0.003803025,0.06274603,0.07629435,172.17.160.76,10.175.81.193,5,stationary,2,2014-11-13 14:11:00.783,15,2014-11-13 13:57:29.604,0
2014-11-13 14:12:27.166,61609,2053.634,40.11403,-88.22443,225.0587,-1,-1,10,79.21869,1415909526,-0.1250153,0.03799438,-1.004257,9.048866,-32.54158,7.141541,192.4316,195.5139,25,-0.2886166,-0.1208654,0.5821364,-0.2705677,-0.01286292,0.0253495,-0.1863734,-0.02237179,0.3896601,-0.1044664,0.02325633,-0.03067742,172.17.160.76,10.175.81.193,5,stationary,2,2014-11-13 14:11:00.783,15,2014-11-13 13:57:29.604,0
2014-11-13 14:12:27.199,61610,2053.667,40.11403,-88.22443,225.0587,-1,-1,10,79.21869,1415909526,0.003494263,-0.1093445,-0.9799957,9.014412,-32.78277,7.175049,192.1187,195.201,25,-0.2960426,-0.02939118,1.300208,-0.2472655,-0.01438493,0.01838431,-0.226767,-0.02796163,1.056393,-0.09831941,0.08228708,-0.002362885,172.17.160.76,10.175.81.193,5,stationary,2,2014-11-13 14:11:00.783,15,2014-11-13 13:57:29.604,0
2014-11-13 14:12:27.233,61611,2053.7,40.11403,-88.22443,225.0587,-1,-1,10,79.21869,1415909526,0.08532715,-0.1642761,-0.9888,8.290848,-32.40376,7.208618,191.2489,194.3313,25,-0.2869924,0.1747678,1.179178,-0.2352317,-0.01471091,0.01591463,-0.2390219,0.0191421,1.243507,-0.06811619,0.03962612,0.002374428,172.17.160.76,10.175.81.193,5,stationary,2,2014-11-13 14:11:00.783,15,2014-11-13 13:57:29.604,0
2014-11-13 14:12:27.266,61612,2053.733,40.11403,-88.22443,225.0587,-1,-1,10,79.21869,1415909526,0.1086426,-0.02108765,-1.008804,7.636208,-32.02476,7.041016,190.0789,193.1613,25,-0.283273,0.01589641,0.2590846,-0.1901917,-0.004769793,0.002736071,-0.2419156,0.1392025,0.1126104,0.2265715,-0.06949904,0.001663348,172.17.160.76,10.175.81.193,5,stationary,2,2014-11-13 14:11:00.783,15,2014-11-13 13:57:29.604,0
2014-11-13 14:12:27.299,61613,2053.767,40.11403,-88.22443,225.0587,-1,-1,10,79.21869,1415909526,-0.01924133,0.05252075,-1.03923,7.188293,-31.50792,6.605286,189.5297,192.6121,25,-0.2517633,0.02664226,0.4182455,-0.1802415,-0.003945048,-0.003815045,-0.213117,-0.04340878,0.4161881,-0.004905089,0.06503262,0.01538106,172.17.160.76,10.175.81.193,5,stationary,2,2014-11-13 14:11:00.783,15,2014-11-13 13:57:29.604,0
2014-11-13 14:12:27.332,61614,2053.8,40.11403,-88.22443,225.0587,-1,-1,10,79.21869,1415909526,-0.07055664,0.008560181,-0.963089,7.291664,-31.6113,5.968506,189.5504,192.6328,25,-0.1959032,0.8085618,0.1228159,-0.1681798,0.005234212,-0.01033464,-0.2411772,0.6340095,0.3487411,-0.02447524,0.04218629,-0.03929745,172.17.160.76,10.175.81.193,5,stationary,2,2014-11-13 14:11:00.783,15,2014-11-13 13:57:29.604,0
2014-11-13 14:12:27.366,61615,2053.833,40.11403,-88.22443,225.0587,-1,-1,10,79.21869,1415909526,0.1248627,-0.02592468,-0.9878082,7.532852,-31.43902,5.800903,189.9495,193.0319,25,-0.07772543,1.091539,-0.1075395,-0.1631849,0.04342762,-0.01474351,-0.04647212,1.144808,-0.1014896,-0.02825727,-0.06976616,-0.01621865,172.17.160.76,10.175.81.193,5,stationary,2,2014-11-13 14:11:00.783,15,2014-11-13 13:57:29.604,0
2014-11-13 14:12:27.399,61616,2053.867,40.11403,-88.22443,225.0587,-1,-1,10,79.21869,1415909526,0.09712219,-0.04412842,-0.9612427,8.153038,-31.50793,6.001953,191.015,194.0974,25,-0.09747622,0.7277951,-0.01384764,-0.1655188,0.06687552,-0.01544193,-0.01877708,1.157625,-0.09091107,0.04533438,-0.02595462,0.009867998,172.17.160.76,10.175.81.193,5,stationary,2,2014-11-13 14:11:00.783,15,2014-11-13 13:57:29.604,0
2014-11-13 14:12:27.432,61617,2053.9,40.11403,-88.22443,225.0587,-1,-1,10,79.21869,1415909526,0.1092377,-0.03442383,-1.014328,9.806892,-31.3701,5.666809,193.6438,196.7262,25,-0.06345834,0.5614055,-0.3778781,-0.167506,0.09979271,-0.01669804,-0.02629272,0.6531403,-0.2018108,-0.002491077,-0.06082568,0.03364345,172.17.160.76,10.175.81.193,5,stationary,2,2014-11-13 14:11:00.783,15,2014-11-13 13:57:29.604,0
2014-11-13 14:12:27.466,61618,2053.933,40.11403,-88.22443,225.0587,-1,-1,10,79.21869,1415909526,0.7886047,-0.1269379,-1.193695,10.35817,-31.23228,5.733826,194.6718,197.7542,25,-0.1093944,1.145596,-0.5508357,-0.1801558,0.1178152,-0.01774878,0.0417485,0.5582871,-0.5178254,-0.008286651,-0.05217167,-0.0214166,172.17.160.76,10.175.81.193,5,stationary,2,2014-11-13 14:11:00.783,15,2014-11-13 13:57:29.604,0
2014-11-13 14:12:27.499,61619,2053.967,40.11403,-88.22443,225.0587,-1,-1,10,79.21869,1415909526,-0.3763733,-0.143631,-1.077209,12.28767,-30.95664,5.063477,197.5061,200.5884,25,0.1540956,2.634395,-1.643678,-0.2211227,0.2162566,-0.02632787,-0.06012946,2.947187,-1.477182,0.7475966,-0.3150974,0.2183429,172.17.160.76,10.175.81.193,5,stationary,2,2014-11-13 14:11:00.783,15,2014-11-13 13:57:29.604,0
2014-11-13 14:12:27.532,61620,2054,40.11403,-88.22443,225.0587,-1,-1,10,79.21869,1415909526,0.0402832,0.2977295,-0.8819733,15.66428,-31.30119,5.733887,202.0082,205.0906,25,0.0185095,0.4243289,-0.3735994,-0.2606289,0.2841893,-0.03090008,0.06546514,1.318267,-0.7654836,-0.5397212,-0.06002419,-8.737932e-05,172.17.160.76,10.175.81.193,5,stationary,2,2014-11-13 14:11:00.783,15,2014-11-13 13:57:29.604,0
2014-11-13 14:12:27.566,61621,2054.033,40.11403,-88.22443,225.0587,-1,-1,10,79.21869,1415909526,0.365097,-0.03877258,-1.011246,17.24923,-31.43901,5.532715,206.4125,209.4949,25,-0.2493291,0.1046665,0.3379746,-0.264414,0.2911964,-0.03143292,-0.1231563,-0.1307263,0.2561682,-0.2239989,0.2550102,-0.06858835,172.17.160.76,10.175.81.193,5,unknown,2,2014-11-13 14:12:27.521,15,2014-11-13 13:57:29.604,0
2014-11-13 14:12:27.599,61622,2054.067,40.11403,-88.22443,225.0587,-1,-1,10,79.21869,1415909526,0.2383118,0.09840393,-0.9314575,19.17872,-31.30118,6.605286,209.5559,212.6383,25,-0.3239104,1.273525,0.6214558,-0.2505215,0.3076148,-0.03344583,-0.2318207,1.109399,0.5475827,0.06248014,-0.07221218,-0.05872024,172.17.160.76,10.175.81.193,5,unknown,2,2014-11-13 14:12:27.521,15,2014-11-13 13:57:29.604,0
2014-11-13 14:12:27.633,61623,2054.1,40.11403,-88.22443,225.0587,-1,-1,10,79.21869,1415909526,0.2908936,0.05981445,-1.117599,19.66109,-31.09445,6.471191,210.1544,213.2368,25,-0.1948947,1.255836,0.2557298,-0.2313029,0.3498929,-0.03432512,-0.1823987,1.423537,0.5002236,-0.1042835,0.06408555,0.007398559,172.17.160.76,10.175.81.193,5,unknown,2,2014-11-13 14:12:27.521,15,2014-11-13 13:57:29.604,0
2014-11-13 14:12:27.666,61624,2054.134,40.11403,-88.22443,225.0587,-1,-1,10,79.21869,1415909526,0.4337006,-0.01029968,-1.219498,20.21238,-30.68098,7.275635,210.9695,214.0519,25,0.3636174,-0.5790122,0.1749798,-0.2272873,0.3805993,-0.03510705,0.04139972,0.3914796,-0.09198735,-0.08035451,0.02471462,-0.1897294,172.17.160.76,10.175.81.193,5,unknown,2,2014-11-13 14:12:27.521,15,2014-11-13 13:57:29.604,0
2014-11-13 14:12:27.699,61625,2054.167,40.11403,-88.22443,225.0587,-1,-1,10,79.21869,1415909526,0.3334198,0.07189941,-1.079422,20.76366,-31.09446,7.141541,211.1197,214.202,25,1.720206,-1.457767,0.8223298,-0.2235142,0.3583487,-0.0113281,1.019426,-1.130361,0.7826737,0.08299478,-0.02162754,-0.2830805,172.17.160.76,10.175.81.193,5,unknown,2,2014-11-13 14:12:27.521,15,2014-11-13 13:57:29.604,0
2014-11-13 14:12:27.732,61626,2054.2,40.11403,-88.22443,225.0587,-1,-1,10,79.21869,1415909526,0.1082764,-0.02549744,-1.235046,19.10981,-32.47266,7.744873,208.6469,211.7293,25,3.150647,-1.516501,0.1670372,-0.2167552,0.3173652,0.04511876,2.254939,-1.500231,0.7049822,-0.09264588,0.05279388,-0.1327235,172.17.160.76,10.175.81.193,5,unknown,2,2014-11-13 14:12:27.521,15,2014-11-13 13:57:29.604,0
2014-11-13 14:12:27.766,61627,2054.233,40.11403,-88.22443,225.0587,-1,-1,10,79.21869,1415909526,0.2646637,0.04676819,-1.265335,17.76606,-34.02315,8.515747,206.3257,209.4081,25,3.701521,-2.545007,0.3495636,-0.2441629,0.2565954,0.1716654,3.702964,-1.960046,0.1260612,-0.08637759,0.2170119,-0.317801,172.17.160.76,10.175.81.193,5,unknown,2,2014-11-13 14:12:27.521,15,2014-11-13 13:57:29.604,0
2014-11-13 14:12:27.799,61628,2054.267,40.11403,-88.22443,225.0587,-1,-1,10,79.21869,1415909526,0.3815765,-0.2847443,-1.099014,14.14827,-37.84769,10.22516,200.9578,204.0401,25,3.652997,-4.044683,0.8577283,-0.2530743,0.2062717,0.2466041,3.736831,-3.008069,0.647972,0.0660478,0.2908804,-0.3161454,172.17.160.76,10.175.81.193,5,unknown,2,2014-11-13 14:12:27.521,15,2014-11-13 13:57:29.604,0
2014-11-13 14:12:27.832,61629,2054.3,40.11403,-88.22443,225.0587,-1,-1,10,79.21869,1415909526,0.1593475,-0.3633423,-0.9703827,9.083351,-42.2235,13.8786,195.2073,198.2897,25,4.632319,-2.634668,1.342338,-0.2209448,0.002128631,0.4449386,4.358182,-3.459356,1.291834,0.3201917,0.1235787,-0.09889083,172.17.160.76,10.175.81.193,5,unknown,2,2014-11-13 14:12:27.521,15,2014-11-13 13:57:29.604,0
2014-11-13 14:12:27.866,61630,2054.333,40.11403,-88.22443,225.0587,-1,-1,10,79.21869,1415909526,0.1906433,-0.3403778,-1.107727,6.326927,-44.42863,16.22485,192.5457,195.6281,25,4.925959,-2.322467,1.617806,-0.2051502,-0.03278744,0.4908098,4.691271,-2.568583,1.358967,0.2983209,0.162304,-0.07372274,172.17.160.76,10.175.81.193,5,unknown,2,2014-11-13 14:12:27.521,15,2014-11-13 13:57:29.604,0
2014-11-13 14:12:27.898,61631,2054.367,40.11403,-88.22443,225.0587,-1,-1,10,79.21869,1415909526,-0.1629791,-0.1663666,-0.5207977,0.09053802,-47.70189,23.63226,186.8024,189.8848,25,5.758235,-2.423216,2.401778,-0.03697792,-0.2582583,0.7293674,5.384171,-2.559767,2.432761,0.2336206,0.2451487,-0.2747666,172.17.160.76,10.175.81.193,5,unknown,2,2014-11-13 14:12:27.521,15,2014-11-13 13:57:29.604,0
2014-11-13 14:12:27.932,61632,2054.4,40.11403,-88.22443,225.0587,-1,-1,10,79.21869,1415909526,-0.339798,-0.7476959,-0.4192657,-5.181114,-48.83891,32.51447,183.3621,186.4445,25,5.218364,1.751905,1.846217,0.1933757,-0.4718089,0.9257946,5.915407,0.6728262,1.374636,0.2191672,0.4530904,0.1845804,172.17.160.76,10.175.81.193,5,unknown,2,2014-11-13 14:12:27.521,15,2014-11-13 13:57:29.604,0
2014-11-13 14:12:27.965,61633,2054.433,40.11403,-88.22443,225.0587,-1,-1,10,79.21869,1415909526,-0.51651,-0.7103729,-0.2176361,-7.489616,-48.66663,36.9053,181.5697,184.6521,25,4.207909,0.122083,2.084497,0.3419405,-0.5632659,1.005601,5.277314,1.817989,1.862846,0.1251916,0.1285112,0.2063514,172.17.160.76,10.175.81.193,5,unknown,2,2014-11-13 14:12:27.521,15,2014-11-13 13:57:29.604,0
2014-11-13 14:12:27.999,61634,2054.467,40.11403,-88.22443,225.0587,-1,-1,10,79.21869,1415909526,-0.6974335,-0.7554932,0.05368042,-11.93434,-47.11614,43.84348,176.9615,180.0438,25,2.23169,-1.056097,1.704621,0.5980517,-0.7701139,1.072086,3.680877,-0.554978,2.150358,-0.1835138,0.167827,0.1256981,172.17.160.76,10.175.81.193,5,unknown,2,2014-11-13 14:12:27.521,15,2014-11-13 13:57:29.604,0
2014-11-13 14:12:28.032,61635,2054.5,40.11403,-88.22443,225.0587,-1,-1,10,79.21869,1415909526,-0.7913513,-0.7391815,-0.1929474,-13.51927,-46.56487,46.05563,174.5027,177.5851,25,1.513739,0.04572701,-0.3238721,0.8254517,-1.003889,1.081247,1.38368,-0.4691001,0.7104891,-0.3283069,0.1352455,0.2759776,172.17.160.76,10.175.81.193,5,unknown,2,2014-11-13 14:12:27.521,15,2014-11-13 13:57:29.604,0
2014-11-13 14:12:28.066,61636,2054.533,40.11403,-88.22443,225.0587,-1,-1,10,79.21869,1415909526,-0.6185608,-0.850174,-0.07395935,-15.3454,-45.29002,49.23981,179.9722,183.0546,26,1.201041,-0.4946198,-1.407197,0.9045652,-1.074482,1.10863,1.537737,-0.09581056,-0.7890576,-0.4023601,0.1623159,-0.05384795,172.17.160.76,10.175.81.193,5,unknown,2,2014-11-13 14:12:27.521,15,2014-11-13 13:57:29.604,0
2014-11-13 14:12:28.099,61637,2054.567,40.11403,-88.22443,225.0587,-1,-1,10,79.21869,1415909526,-0.3862915,-0.9105377,-0.1750031,-14.27729,-45.11774,50.81516,180.7275,183.8099,26,1.081297,-0.03379764,-1.881989,0.9474233,-1.127285,1.181324,0.9787125,-0.2749742,-1.758102,-0.185203,0.08988914,0.07060361,172.17.160.76,10.175.81.193,5,unknown,2,2014-11-13 14:12:27.521,15,2014-11-13 13:57:29.604,0
2014-11-13 14:12:28.132,61638,2054.6,40.11403,-88.22443,225.0587,-1,-1,10,79.21869,1415909526,-0.2857056,-0.9533234,-0.2075653,-12.14107,-45.80684,52.22287,185.3366,188.419,26,1.412838,0.09167133,-1.849663,0.9857168,-1.161808,1.268364,1.427116,0.2331006,-1.848394,-0.03159216,0.02720079,-0.08423587,172.17.160.76,10.175.81.193,5,unknown,2,2014-11-13 14:12:27.521,15,2014-11-13 13:57:29.604,0
2014-11-13 14:12:28.166,61639,2054.634,40.11403,-88.22443,225.0587,-1,-1,10,79.21869,1415909526,-0.2047882,-0.9251709,-0.02737427,-11.07295,-46.04803,52.79266,185.7804,188.8628,26,1.385785,-0.1947543,-1.789504,1.034508,-1.206458,1.313291,1.481177,0.001761612,-1.805232,-0.04775289,0.01370485,-0.1168187,172.17.160.76,10.175.81.193,5,unknown,2,2014-11-13 14:12:27.521,15,2014-11-13 13:57:29.604,0
2014-11-13 14:12:28.199,61640,2054.667,40.11403,-88.22443,225.0587,-1,-1,10,79.21869,1415909526,-0.03651428,-1.006149,-0.03440857,-8.178711,-46.94386,54.53558,188.7442,191.8266,26,1.068417,0.1356976,-1.809929,1.187265,-1.359459,1.397721,1.23176,0.0496868,-1.806169,0.01332094,0.04348577,0.05596101,172.17.160.76,10.175.81.193,5,unknown,2,2014-11-13 14:12:27.521,15,2014-11-13 13:57:29.604,0
2014-11-13 14:12:28.232,61641,2054.7,40.11403,-88.22443,225.0587,-1,-1,10,79.21869,1415909526,0.06640625,-1.032639,-0.05197144,-5.043289,-47.46069,55.90979,192.3332,195.4156,26,1.041005,-0.5724699,-1.031243,1.365603,-1.531338,1.452677,1.030467,0.009383719,-1.526458,0.08123866,-0.01311725,-0.0297598,172.17.160.76,10.175.81.193,5,unknown,2,2014-11-13 14:12:27.521,15,2014-11-13 13:57:29.604,0
2014-11-13 14:12:28.266,61642,2054.733,40.11403,-88.22443,225.0587,-1,-1,10,79.21869,1415909526,-0.01495361,-0.9234924,0.1303558,-3.596169,-47.52961,56.71417,195.3576,198.44,26,0.7482524,-0.4935082,-0.4406083,1.85089,-2.032227,1.48256,0.9973212,-0.5285019,-0.570648,0.1377289,0.0104987,0.04444456,172.17.160.76,10.175.81.193,5,unknown,2,2014-11-13 14:12:27.521,15,2014-11-13 13:57:29.604,0
2014-11-13 14:12:28.299,61643,2054.767,40.11403,-88.22443,225.0587,-1,-1,10,79.21869,1415909526,-0.01853943,-0.9043732,0.2066803,-2.252403,-47.56406,57.95432,197.0642,200.1466,26,0.4705955,-0.1318052,-0.5416891,2.163495,-2.356324,1.478864,0.6825493,-0.3296228,-0.425122,0.04610734,0.0585671,0.1165956,172.17.160.76,10.175.81.193,5,unknown,2,2014-11-13 14:12:27.521,15,2014-11-13 13:57:29.604,0
2014-11-13 14:12:28.332,61644,2054.8,40.11403,-88.22443,225.0587,-1,-1,10,79.21869,1415909526,0.05357361,-0.9583435,0.09115601,-1.563301,-47.42624,58.42355,198.1018,201.1842,26,0.3163846,0.07281882,-0.6111534,2.398533,-2.593207,1.475369,0.4551864,0.07523005,-0.5781766,0.04211847,0.07853441,0.1380192,172.17.160.76,10.175.81.193,1,unknown,2,2014-11-13 14:12:27.521,15,2014-11-13 13:57:29.604,0
2014-11-13 14:12:28.366,61645,2054.833,40.11403,-88.22443,225.0587,-1,-1,10,79.21869,1415909526,0.1016998,-0.9602509,0.1675568,-0.8052826,-47.35733,58.82574,199.6062,202.6886,26,0.3011053,-0.3302996,-0.2427618,2.652707,-2.795155,1.47336,0.3076986,-0.06429708,-0.4902562,0.1109342,0.02875004,-0.00688212,172.17.160.76,10.175.81.193,1,unknown,2,2014-11-13 14:12:27.521,15,2014-11-13 13:57:29.604,0
2014-11-13 14:12:28.399,61646,2054.867,40.11403,-88.22443,225.0587,-1,-1,10,79.21869,1415909526,0.004364014,-0.9125519,0.2617493,0.159462,-47.63298,59.36203,200.8296,203.912,26,0.01331075,-0.4478973,0.06764935,2.712482,-2.913595,1.463126,0.2569135,-0.2994435,0.02882174,0.1222966,0.03919207,0.09108898,172.17.160.76,10.175.81.193,1,unknown,2,2014-11-13 14:12:27.521,15,2014-11-13 13:57:29.604,0
2014-11-13 14:12:28.433,61647,2054.9,40.11403,-88.22443,225.0587,-1,-1,10,79.21869,1415909526,-0.00642395,-0.9068604,0.2736816,0.40065,-47.80525,59.5296,201.767,204.8493,26,-0.09637554,-0.4566549,0.02661617,2.704195,-2.912539,1.459812,0.07225583,-0.381819,0.08427642,0.05490269,0.05875842,0.1369479,172.17.160.76,10.175.81.193,1,unknown,2,2014-11-13 14:12:27.521,15,2014-11-13 13:57:29.604,0
2014-11-13 14:12:28.466,61648,2054.933,40.11403,-88.22443,225.0587,-1,-1,10,79.21869,1415909526,0.01277161,-0.9399719,0.1143036,1.158669,-47.80525,59.39554,202.8448,205.9272,26,-0.1817224,-0.08757752,-0.2120771,2.718641,-2.94117,1.468925,-0.2274031,-0.1073027,-0.1668502,0.04910015,0.06621152,0.1189841,172.17.160.76,10.175.81.193,1,unknown,2,2014-11-13 14:12:27.521,15,2014-11-13 13:57:29.604,0
2014-11-13 14:12:28.499,61649,2054.967,40.11403,-88.22443,225.0587,-1,-1,10,79.21869,1415909526,0.03871155,-0.9437408,0.1529083,1.778854,-47.73634,59.26144,204.1856,207.268,26,0.2021147,-0.1432642,-0.2456521,2.779263,-3.002017,1.470531,0.149163,-0.02293837,-0.2283206,0.02669748,0.05500572,0.01517965,172.17.160.76,10.175.81.193,1,unknown,0,2014-11-13 14:12:28.447,15,2014-11-13 13:57:29.604,0
2014-11-13 14:12:28.532,61650,2055,40.11403,-88.22443,225.0587,-1,-1,10,79.21869,1415909526,0.0509491,-0.9313507,0.2600403,1.882217,-47.42624,59.29495,204.2983,207.3806,26,0.4108099,-0.06714895,-0.143069,2.828859,-3.053023,1.465322,0.3675891,-0.1100533,-0.2126136,0.03519121,0.05759888,0.0009994139,172.17.160.76,10.175.81.193,1,unknown,0,2014-11-13 14:12:28.447,15,2014-11-13 13:57:29.604,0
2014-11-13 14:12:28.566,61651,2055.033,40.11403,-88.22443,225.0587,-1,-1,10,79.21869,1415909526,-0.01766968,-0.9000854,0.2702942,1.847763,-48.01198,59.79773,205.4259,208.5083,26,-0.001223722,0.07544576,-0.2819523,2.892084,-3.114048,1.445281,0.2726425,0.1339522,-0.1281778,0.006942084,0.09737314,0.1604448,172.17.160.76,10.175.81.193,1,unknown,0,2014-11-13 14:12:28.447,15,2014-11-13 13:57:29.604,0
