time,timestamp,recordtime,lat,long,alt,speed,course,verticalAccuracy,horizontalAccuracy,locTimeStamp,accelerationX,accelerationY,accelerationZ,HeadingX,HeadingY,HeadingZ,TrueHeading,MagneticHeading,HeadingAccuracy,RotationX,RotationY,RotationZ,motionYaw,motionRoll,motionPitch,motionRotationRateX,motionRotationRateY,motionRotationRateZ,motionUserAccelerationX,motionUserAccelerationY,motionUserAccelerationZ,en0,pdp_ip0,DeviceOrientation,Activity,Activity Confidence,Activity Start,Steps,Last Step Date,State
2014-11-15 18:18:45.503,48497,1616.567,40.10489,-88.22191,235.5959,1.51,254.1797,12,10,1416097125,-0.1178436,-0.6412201,0.7687531,-3.104031,-34.1297,-8.19873,185.8365,188.9188,15,0.05808381,0.03967045,0.1921196,0.5957223,-2.91013,0.6702678,0.08795953,0.1123067,0.2326912,-0.007804899,0.0410567,0.04363968,172.17.160.76,10.64.29.0,1,unknown,2,2014-11-15 18:18:36.027,134,2014-11-15 18:16:20.024,3
2014-11-15 18:18:45.536,48498,1616.6,40.10489,-88.22191,235.5959,1.51,254.1797,12,10,1416097125,-0.1071777,-0.6430664,0.7529449,-3.104031,-33.99205,-7.797424,185.9149,188.9972,15,0.04321325,0.01825011,0.1687099,0.5932068,-2.907415,0.6686878,0.1135665,0.1154337,0.2262429,0.02472098,0.01416771,0.03132084,172.17.160.76,10.64.29.0,1,unknown,2,2014-11-15 18:18:36.027,134,2014-11-15 18:16:20.024,3
2014-11-15 18:18:45.570,48499,1616.633,40.10489,-88.22191,235.5959,1.51,254.1797,12,10,1416097125,-0.1015472,-0.6276093,0.7287292,-2.89785,-33.71675,-7.797424,185.762,188.8443,15,-0.08550398,-0.02283128,0.06707331,0.5836781,-2.898207,0.6628039,0.02315187,0.0212903,0.1358596,0.07636315,-0.02325076,-0.03202087,172.17.160.76,10.64.29.0,1,unknown,2,2014-11-15 18:18:36.027,134,2014-11-15 18:16:20.024,3
2014-11-15 18:18:45.603,48500,1616.667,40.10489,-88.22191,235.5959,1.51,254.1797,12,10,1416097125,-0.09938049,-0.6249237,0.7640686,-3.138397,-33.75117,-7.496338,185.9798,189.0621,15,-0.1024356,-0.009296563,0.02899463,0.581037,-2.89588,0.6623875,-0.02250694,0.04640789,0.08202717,0.09026016,-0.01260798,-0.0361128,172.17.160.76,10.64.29.0,1,unknown,2,2014-11-15 18:18:36.027,134,2014-11-15 18:16:20.024,3
2014-11-15 18:18:45.636,48501,1616.7,40.10489,-88.22191,235.5959,1.51,254.1797,12,10,1416097125,-0.1149139,-0.6131592,0.7395782,-2.760399,-33.44146,-7.46283,185.5496,188.6319,15,-0.1319777,-0.05156998,-0.08363444,0.579875,-2.89334,0.6642588,-0.0648248,0.01900075,-0.03259886,0.09020974,0.001348185,0.002938722,172.17.160.76,10.64.29.0,1,unknown,2,2014-11-15 18:18:36.027,134,2014-11-15 18:16:20.024,3
2014-11-15 18:18:45.669,48502,1616.733,40.10489,-88.22191,235.5959,1.51,254.1797,12,10,1416097125,-0.1499939,-0.6126556,0.7254944,-3.172764,-33.51028,-7.396057,186.0714,189.1537,15,-0.1382559,-0.04334561,-0.1207195,0.5808035,-2.893627,0.6658461,-0.06898145,0.01766836,-0.06868076,0.08415053,0.01318675,-0.01382161,172.17.160.76,10.64.29.0,1,unknown,2,2014-11-15 18:18:36.027,134,2014-11-15 18:16:20.024,3
2014-11-15 18:18:45.704,48503,1616.767,40.10489,-88.22191,235.5959,1.51,254.1797,12,10,1416097125,-0.2652893,-0.6433868,0.7714233,-2.932217,-33.20058,-7.964661,185.9387,189.021,15,-0.062547,-0.1041115,-0.1425526,0.5853064,-2.895779,0.6695951,-0.05708749,-0.01043707,-0.1315009,0.008686719,0.0133382,-0.03348339,172.17.160.76,10.64.29.0,1,unknown,2,2014-11-15 18:18:36.027,134,2014-11-15 18:16:20.024,3
2014-11-15 18:18:45.736,48504,1616.8,40.10489,-88.22191,235.5959,1.51,254.1797,12,10,1416097125,-0.2480011,-0.6445312,0.7657318,-2.554207,-33.23499,-8.131836,185.4724,188.5547,15,-0.01474273,-0.004706338,-0.06153553,0.5924737,-2.900462,0.6701813,0.05684478,0.05159145,-0.07109653,-0.07055548,-0.03217698,0.01412645,172.17.160.76,10.64.29.0,1,unknown,2,2014-11-15 18:18:36.027,134,2014-11-15 18:16:20.024,3
2014-11-15 18:18:45.769,48505,1616.833,40.10489,-88.22191,235.5959,1.51,254.1797,12,10,1416097125,-0.2090302,-0.6115875,0.7463074,-2.726028,-33.40705,-8.031433,185.4728,188.5551,15,-0.03304876,-0.04788843,-0.01180473,0.5939533,-2.899696,0.6692522,0.02785376,0.04041215,-0.005235052,-0.0369974,-0.006339854,-0.01490014,172.17.160.76,10.64.29.0,1,unknown,2,2014-11-15 18:18:36.027,134,2014-11-15 18:16:20.024,3
2014-11-15 18:18:45.803,48506,1616.867,40.10489,-88.22191,235.5959,1.51,254.1797,12,10,1416097125,-0.2299347,-0.6243896,0.7701569,-2.760395,-33.44145,-7.663513,185.47,188.5523,15,0.003095126,-0.06042606,0.01877688,0.5939699,-2.899251,0.6680397,0.05334064,0.007642074,0.01891094,-0.0222109,0.00918826,-0.006634925,172.17.160.76,10.64.29.0,1,unknown,2,2014-11-15 18:18:36.027,134,2014-11-15 18:16:20.024,3
2014-11-15 18:18:45.836,48507,1616.9,40.10489,-88.22191,235.5959,1.51,254.1797,12,10,1416097125,-0.2280884,-0.6324463,0.7710724,-2.863487,-33.13176,-7.496277,185.483,188.5653,15,-0.000186155,-0.0005992113,0.0615635,0.5934562,-2.898655,0.6665728,0.07138436,0.02167027,0.04863868,-0.04087158,-0.006093615,0.007290454,172.17.160.76,10.64.29.0,1,unknown,2,2014-11-15 18:18:36.027,134,2014-11-15 18:16:20.024,3
2014-11-15 18:18:45.870,48508,1616.933,40.10489,-88.22191,235.5959,1.51,254.1797,12,10,1416097125,-0.2053223,-0.6322479,0.7617493,-2.622936,-33.16616,-7.59668,185.4788,188.5611,15,-0.07253945,0.009735452,0.01836809,0.5897996,-2.892348,0.6632938,0.01384833,0.1110448,0.06100094,-0.0232969,-0.0169443,-0.006020597,172.17.160.76,10.64.29.0,1,unknown,2,2014-11-15 18:18:36.027,134,2014-11-15 18:16:20.024,3
2014-11-15 18:18:45.903,48509,1616.967,40.10489,-88.22191,235.5959,1.51,254.1797,12,10,1416097125,-0.2042999,-0.6159515,0.7585602,-2.485477,-33.30382,-7.46283,185.4632,188.5455,15,-0.07574084,-0.02006372,0.01185426,0.5891837,-2.890944,0.6631368,2.214202e-05,0.0992591,0.04719136,-0.01466321,-0.0200893,-0.005932181,172.17.160.76,10.64.29.0,1,unknown,2,2014-11-15 18:18:36.027,134,2014-11-15 18:16:20.024,3
2014-11-15 18:18:45.936,48510,1617,40.10489,-88.22191,235.5959,1.51,254.1797,12,10,1416097125,-0.1986694,-0.6260529,0.7185669,-2.622936,-34.1297,-7.128357,185.4431,188.5254,15,-0.06084631,-0.06045003,0.01158582,0.5871593,-2.887698,0.6635077,0.002148563,0.005581622,0.02439903,0.008752782,0.01233801,-0.01218314,172.17.160.76,10.64.29.0,1,unknown,2,2014-11-15 18:18:36.027,134,2014-11-15 18:16:20.024,3
2014-11-15 18:18:45.970,48511,1617.033,40.10489,-88.22191,235.5959,1.51,254.1797,12,10,1416097125,-0.2073975,-0.6355743,0.7136536,-2.176208,-33.95764,-7.563171,184.8461,187.9284,15,-0.0897211,-0.08362912,0.03598597,0.5856678,-2.886039,0.6670772,-0.002164681,0.001408034,0.03394442,-7.614498e-05,-0.00736045,-0.04155179,172.17.160.76,10.64.29.0,1,unknown,2,2014-11-15 18:18:36.027,134,2014-11-15 18:16:20.024,3
2014-11-15 18:18:46.002,48512,1617.067,40.10489,-88.22191,235.5959,1.51,254.1797,12,10,1416097125,-0.1937408,-0.6189117,0.7625427,-2.210571,-33.92323,-7.396057,184.6725,187.7548,15,-0.1579595,-0.01649935,0.05676315,0.5827811,-2.883649,0.6698506,-0.04488549,0.001600943,0.05639683,-0.002329982,-0.01893213,-0.03158516,172.17.160.76,10.64.29.0,1,unknown,2,2014-11-15 18:18:36.027,134,2014-11-15 18:16:20.024,3
2014-11-15 18:18:46.036,48513,1617.1,40.10489,-88.22191,235.5959,1.51,254.1797,12,10,1416097125,-0.1867371,-0.5827332,0.7940369,-2.554211,-33.16616,-7.864258,185.5061,188.5884,15,-0.193134,-0.009043562,0.05693412,0.5770687,-2.878119,0.6732242,-0.1536333,0.06769218,0.07838032,0.0137168,0.03241499,0.03147997,172.17.160.76,10.64.29.0,1,unknown,2,2014-11-15 18:18:36.027,134,2014-11-15 18:16:20.024,3
2014-11-15 18:18:46.069,48514,1617.133,40.10489,-88.22191,235.5959,1.51,254.1797,12,10,1416097125,-0.1830444,-0.5822754,0.7947388,-3.344585,-33.13176,-7.697021,186.6997,189.782,15,-0.1344438,-0.006020875,0.03868508,0.5757025,-2.876649,0.6743557,-0.1301665,0.06019417,0.07188404,0.01780026,0.04166099,0.04018248,172.17.160.76,10.64.29.0,1,unknown,2,2014-11-15 18:18:36.027,134,2014-11-15 18:16:20.024,3
2014-11-15 18:18:46.103,48515,1617.167,40.10489,-88.22192,234.7134,0.9,263.3203,12,10,1416097126,-0.1943207,-0.6492157,0.7558289,-3.516407,-33.09734,-8.265625,187.4038,190.4861,15,-0.1161713,-0.05431038,-0.02320359,0.5734656,-2.873879,0.6750679,-0.04897238,0.03840143,0.004618341,0.03855325,-0.01874169,0.005826319,172.17.160.76,10.64.29.0,1,unknown,2,2014-11-15 18:18:36.027,134,2014-11-15 18:16:20.024,3
2014-11-15 18:18:46.136,48516,1617.2,40.10489,-88.22192,234.7134,0.9,263.3203,12,10,1416097126,-0.228241,-0.6309967,0.7296906,-3.55077,-33.61351,-8.165222,187.3702,190.4525,15,-0.1384956,-0.04700479,-0.0421882,0.5733777,-2.87351,0.6762189,-0.06277553,0.0105887,-0.02095206,0.01227318,-0.02336728,0.00374327,172.17.160.76,10.64.29.0,1,unknown,2,2014-11-15 18:18:36.027,134,2014-11-15 18:16:20.024,3
2014-11-15 18:18:46.170,48517,1617.233,40.10489,-88.22192,234.7134,0.9,263.3203,12,10,1416097126,-0.2345734,-0.6029205,0.694519,-3.344585,-33.81999,-7.830688,186.9473,190.0296,15,-0.05768647,-0.0986813,0.0145571,0.5733418,-2.87309,0.6791363,-0.05966645,-0.01793584,0.001177106,-0.02943024,0.009423128,-0.04239498,172.17.160.76,10.64.29.0,1,unknown,2,2014-11-15 18:18:36.027,134,2014-11-15 18:16:20.024,3
2014-11-15 18:18:46.202,48518,1617.267,40.10489,-88.22192,234.7134,0.9,263.3203,12,10,1416097126,-0.2265472,-0.6337585,0.732605,-3.653862,-33.64792,-7.59668,187.3483,190.4306,15,0.040365,-0.03159468,0.04001879,0.5719839,-2.872915,0.6781793,0.0798611,0.01424737,0.05071365,-0.0309704,0.01263019,-0.04746989,172.17.160.76,10.64.29.0,1,unknown,2,2014-11-15 18:18:36.027,134,2014-11-15 18:16:20.024,3
2014-11-15 18:18:46.236,48519,1617.3,40.10489,-88.22192,234.7134,0.9,263.3203,12,10,1416097126,-0.212326,-0.6265259,0.7571411,-3.722595,-33.3038,-7.797363,187.6398,190.7221,15,0.03392627,-0.0495838,0.04950151,0.5713612,-2.871809,0.6759626,0.103319,0.03764456,0.05499488,-0.01863144,-0.008110047,-0.01928263,172.17.160.76,10.64.29.0,1,unknown,2,2014-11-15 18:18:36.027,134,2014-11-15 18:16:20.024,3
2014-11-15 18:18:46.270,48520,1617.333,40.10489,-88.22192,234.7134,0.9,263.3203,12,10,1416097126,-0.1584473,-0.5778809,0.8815613,-4.031872,-32.99409,-8.098389,187.666,190.7483,15,0.01246839,0.0327425,0.1158273,0.5683907,-2.86935,0.6717462,0.07754847,0.030666,0.1144975,0.02777804,0.03167074,0.05439563,172.17.160.76,10.64.29.0,1,unknown,2,2014-11-15 18:18:36.027,134,2014-11-15 18:16:20.024,3
2014-11-15 18:18:46.303,48521,1617.367,40.10489,-88.22192,234.7134,0.9,263.3203,12,10,1416097126,-0.129715,-0.5419922,0.8517151,-3.963139,-32.99409,-8.098389,187.6912,190.7735,15,-0.03125379,-0.0491758,0.09963738,0.5658115,-2.866165,0.6696067,0.07541133,0.1019823,0.1308272,0.054786,0.0427968,0.1270476,172.17.160.76,10.64.29.0,1,unknown,2,2014-11-15 18:18:36.027,134,2014-11-15 18:16:20.024,3
2014-11-15 18:18:46.336,48522,1617.4,40.10489,-88.22192,234.7134,0.9,263.3203,12,10,1416097126,-0.129715,-0.5419922,0.8517151,-3.963139,-32.99409,-8.098389,187.6912,190.7735,15,-0.03125379,-0.0491758,0.09963738,0.5644453,-2.864409,0.6686298,0.06047832,0.08284683,0.1286593,0.06602653,0.0453875,0.1204469,172.17.160.76,10.64.29.0,1,unknown,2,2014-11-15 18:18:36.027,134,2014-11-15 18:16:20.024,3
2014-11-15 18:18:46.369,48523,1617.433,40.10489,-88.22192,234.7134,0.9,263.3203,12,10,1416097126,-0.2480164,-0.5018768,0.7927704,-4.031868,-33.13174,-7.964661,188.2475,191.3298,15,-0.2873159,-0.1454091,0.1446717,0.5560689,-2.865182,0.6726747,-0.1826753,-0.08394898,0.117015,0.02627455,0.1286802,0.07611458,172.17.160.76,10.64.29.0,1,unknown,2,2014-11-15 18:18:36.027,134,2014-11-15 18:16:20.024,3
2014-11-15 18:18:46.403,48524,1617.467,40.10489,-88.22192,234.7134,0.9,263.3203,12,10,1416097126,-0.315567,-0.47789,0.8457031,-4.169323,-33.20056,-7.763977,188.3839,191.4662,15,-0.4526676,0.02954724,0.2268848,0.5424601,-2.85883,0.6819687,-0.3844214,0.009420357,0.2275946,-0.04679309,0.1480534,0.04954008,172.17.160.76,10.64.29.0,1,unknown,2,2014-11-15 18:18:36.027,134,2014-11-15 18:16:20.024,3
2014-11-15 18:18:46.436,48525,1617.5,40.10489,-88.22192,234.7134,0.9,263.3203,12,10,1416097126,-0.3648987,-0.8686371,0.9444427,-4.856609,-33.3382,-8.165405,189.6175,192.6998,15,-0.3219365,0.3264269,0.4328247,0.5333463,-2.850465,0.6879312,-0.3759027,0.2138428,0.2827747,-0.0938165,0.1570503,0.1056508,172.17.160.76,10.64.29.0,1,unknown,2,2014-11-15 18:18:36.027,134,2014-11-15 18:16:20.024,3
2014-11-15 18:18:46.469,48526,1617.533,40.10489,-88.22192,234.7134,0.9,263.3203,12,10,1416097126,-0.3178101,-0.7706146,0.8656616,-4.994064,-33.3382,-8.432922,190.4147,193.497,15,-0.1540082,0.2786455,0.5890436,0.5065728,-2.817824,0.6912669,-0.1155048,0.4424159,0.602555,-0.1197901,-0.2311233,0.2140333,172.17.160.76,10.64.29.0,1,unknown,2,2014-11-15 18:18:36.027,134,2014-11-15 18:16:20.024,3
2014-11-15 18:18:46.503,48527,1617.567,40.10489,-88.22192,234.7134,0.9,263.3203,12,10,1416097126,-0.2682495,-0.5881958,0.7328644,-5.71571,-33.51027,-8.734009,191.8453,194.9276,15,0.09254485,-0.201278,0.3690507,0.4784194,-2.792962,0.6863174,0.01031416,-0.03677685,0.4721825,-0.008409385,0.005061107,0.05313479,172.17.160.76,10.64.29.0,1,unknown,2,2014-11-15 18:18:36.027,134,2014-11-15 18:16:20.024,3
2014-11-15 18:18:46.536,48528,1617.6,40.10489,-88.22192,234.7134,0.9,263.3203,12,10,1416097126,-0.2168427,-0.5931091,0.5789948,-6.402996,-33.51027,-8.198853,193.1761,196.2584,15,0.1856942,-0.03731621,0.2772164,0.4658693,-2.788405,0.6785034,0.1961316,-0.114328,0.3447618,0.001030318,0.03943279,0.002405128,172.17.160.76,10.64.29.0,1,unknown,2,2014-11-15 18:18:36.027,134,2014-11-15 18:16:20.024,3
2014-11-15 18:18:46.570,48529,1617.633,40.10489,-88.22192,234.7134,0.9,263.3203,12,10,1416097126,-0.1395721,-0.6333313,0.4960632,-6.677914,-33.51027,-7.529968,193.5327,196.615,15,0.2362714,0.2074006,0.1827823,0.458363,-2.783347,0.668595,0.263687,0.1199296,0.2735616,0.07948999,0.02656138,-0.2037633,172.17.160.76,10.64.29.0,1,unknown,2,2014-11-15 18:18:36.027,134,2014-11-15 18:16:20.024,3
2014-11-15 18:18:46.603,48530,1617.667,40.10489,-88.22192,234.7134,0.9,263.3203,12,10,1416097126,-0.02371216,-0.6989136,0.6101227,-7.468285,-33.61351,-7.095093,194.598,197.6803,15,0.1678785,0.1796318,-0.1228146,0.4560071,-2.771132,0.6553274,0.2891455,0.313454,0.0112377,0.2248673,-0.1171131,-0.1888301,172.17.160.76,10.64.29.0,1,unknown,2,2014-11-15 18:18:36.027,134,2014-11-15 18:16:20.024,3
2014-11-15 18:18:46.636,48531,1617.7,40.10489,-88.22192,234.7134,0.9,263.3203,12,10,1416097126,-0.03450012,-0.6271667,0.6266479,-7.640106,-33.44144,-6.526489,194.8635,197.9458,15,0.07854008,0.07694778,-0.2185542,0.4580734,-2.769713,0.6532952,0.2308219,0.2488323,-0.1077702,0.2527171,-0.1298798,-0.1548606,172.17.160.76,10.64.29.0,1,unknown,2,2014-11-15 18:18:36.027,134,2014-11-15 18:16:20.024,3
2014-11-15 18:18:46.669,48532,1617.733,40.10489,-88.22192,234.7134,0.9,263.3203,12,10,1416097126,-0.4118195,-0.7476501,0.9182587,-7.296471,-33.3038,-6.459534,194.3108,197.3931,15,-0.009495767,-0.2647981,-0.4535502,0.4767851,-2.782137,0.65657,0.01603655,-0.1857526,-0.4032851,0.07651131,0.06030896,0.01085239,172.17.160.76,10.64.29.0,1,unknown,2,2014-11-15 18:18:36.027,134,2014-11-15 18:16:20.024,3
2014-11-15 18:18:46.703,48533,1617.767,40.10489,-88.22192,234.7134,0.9,263.3203,12,10,1416097126,-0.4610291,-0.7485352,0.8765869,-6.574821,-32.85644,-6.62677,193.0919,196.1742,15,-0.1580325,-0.2457411,-0.3308232,0.4977176,-2.802536,0.6612432,-0.03627856,-0.1908563,-0.3787021,-0.1894237,-0.1542121,0.1681627,172.17.160.76,10.64.29.0,1,unknown,2,2014-11-15 18:18:36.027,134,2014-11-15 18:16:20.024,3
2014-11-15 18:18:46.736,48534,1617.8,40.10489,-88.22192,234.7134,0.9,263.3203,12,10,1416097126,-0.3994598,-0.6333771,0.783844,-5.990635,-33.16615,-6.794067,191.9548,195.0371,15,-0.09548231,-0.0309193,-0.1611505,0.5084999,-2.813189,0.6679289,-0.05481753,0.0188522,-0.1875232,-0.1538213,-0.03188385,0.04562375,172.17.160.76,10.64.29.0,1,unknown,2,2014-11-15 18:18:36.027,134,2014-11-15 18:16:20.024,3
2014-11-15 18:18:46.770,48535,1617.833,40.10489,-88.22192,234.7134,0.9,263.3203,12,10,1416097126,-0.4044342,-0.6413727,0.7499695,-6.024998,-33.26939,-7.095093,191.8604,194.9427,15,-0.08865663,-0.1453724,0.02079609,0.5133904,-2.815335,0.6704152,-0.0412475,-0.02834103,-0.1039656,-0.1585202,-0.01357635,0.0313453,172.17.160.76,10.64.29.0,1,unknown,2,2014-11-15 18:18:36.027,134,2014-11-15 18:16:20.024,3
2014-11-15 18:18:46.805,48536,1617.867,40.10489,-88.22192,234.7134,0.9,263.3203,12,10,1416097126,-0.2793732,-0.6566467,0.6416473,-5.715717,-33.64792,-6.860901,191.2615,194.3438,15,-0.03790264,0.01959288,0.2008652,0.512417,-2.816705,0.6709825,0.002862853,-0.03841459,0.1134199,-0.1263401,-0.01098038,-0.01567625,172.17.160.76,10.64.29.0,1,unknown,2,2014-11-15 18:18:36.027,134,2014-11-15 18:16:20.024,3
2014-11-15 18:18:46.836,48537,1617.9,40.10489,-88.22192,234.7134,0.9,263.3203,12,10,1416097126,-0.1671906,-0.6350861,0.6681519,-6.128086,-33.3038,-6.994751,192.0994,195.1817,15,-0.1644071,0.1880346,0.1257992,0.5054973,-2.810196,0.6685517,0.001622244,0.1600363,0.2216792,-0.02405381,-0.03679656,-0.1003754,172.17.160.76,10.64.29.0,1,unknown,2,2014-11-15 18:18:36.027,134,2014-11-15 18:16:20.024,3
2014-11-15 18:18:46.870,48538,1617.933,40.10489,-88.22192,234.7134,0.9,263.3203,12,10,1416097126,-0.1310272,-0.5960541,0.7087402,-6.128086,-33.3038,-6.994751,192.0994,195.1817,15,-0.2185446,0.1938701,0.05066744,0.5006565,-2.802652,0.6685069,-0.1014666,0.2572317,0.1408429,0.09372865,-0.01527108,-0.07194987,172.17.160.76,10.64.29.0,1,unknown,2,2014-11-15 18:18:36.027,134,2014-11-15 18:16:20.024,3
2014-11-15 18:18:46.903,48539,1617.967,40.10489,-88.22192,234.7134,0.9,263.3203,12,10,1416097126,-0.1637115,-0.6126556,0.7354279,-6.33427,-33.0285,-7.329163,192.9986,196.0809,15,-0.2703183,-0.160709,-0.1930238,0.4987856,-2.794225,0.6784036,-0.2181063,-0.0444971,-0.1437251,0.1146093,0.007433685,0.0003184963,172.17.160.76,10.64.29.0,1,unknown,2,2014-11-15 18:18:36.027,134,2014-11-15 18:16:20.024,3
2014-11-15 18:18:46.936,48540,1618,40.10489,-88.22192,234.7134,0.9,263.3203,12,10,1416097126,-0.2581482,-0.6419983,0.7297668,-6.059361,-33.57909,-7.596802,192.5007,195.583,15,-0.2266009,-0.2299517,-0.2137203,0.50146,-2.797836,0.683486,-0.1945309,-0.1161428,-0.2025722,0.09761064,0.0188442,0.005415076,172.17.160.76,10.64.29.0,1,unknown,2,2014-11-15 18:18:36.027,134,2014-11-15 18:16:20.024,3
2014-11-15 18:18:46.969,48541,1618.033,40.10489,-88.22192,234.7134,0.9,263.3203,12,10,1416097126,-0.4049225,-0.6492157,0.7429962,-5.646992,-33.64791,-7.864258,191.765,194.8473,15,-0.2098675,-0.3196422,-0.1293367,0.50784,-2.808494,0.6920534,-0.1414567,-0.2071542,-0.1501763,-0.04710978,-0.01181336,0.0100695,172.17.160.76,10.64.29.0,1,unknown,2,2014-11-15 18:18:36.027,134,2014-11-15 18:16:20.024,3
2014-11-15 18:18:47.003,48542,1618.067,40.10489,-88.22192,234.7134,0.9,263.3203,12,10,1416097126,-0.389679,-0.6449127,0.7485046,-5.543892,-33.47585,-8.09845,191.9052,194.9875,15,-0.1635088,-0.3076494,0.05525074,0.5083914,-2.819897,0.6981041,-0.1175089,-0.2855837,0.01915808,-0.1705095,-0.006067753,0.0211611,172.17.160.76,10.64.29.0,1,unknown,2,2014-11-15 18:18:36.027,134,2014-11-15 18:16:20.024,3
2014-11-15 18:18:47.036,48543,1618.1,40.10489,-88.22192,234.7134,0.9,263.3203,12,10,1416097126,-0.3364716,-0.6268463,0.7496948,-5.578255,-33.30378,-8.19873,191.8912,194.9735,15,-0.1369954,-0.1550796,0.139812,0.5072671,-2.821692,0.6989056,-0.1005703,-0.2384544,0.07029394,-0.1674755,-0.005499702,0.01927886,172.17.160.76,10.64.29.0,1,unknown,2,2014-11-15 18:18:36.027,134,2014-11-15 18:16:20.024,3
2014-11-15 18:18:47.071,48544,1618.133,40.1049,-88.22192,235.0046,0.6,259.4531,12,10,1416097127,-0.2029572,-0.5527039,0.6954346,-5.818806,-33.47585,-7.964661,192.1366,195.2189,15,-0.08456415,-0.1396221,0.07919256,0.4940493,-2.817643,0.6989605,-0.01860083,-0.05296451,0.1558822,-0.001109152,0.07109559,-0.0003520711,172.17.160.76,10.64.29.0,1,unknown,2,2014-11-15 18:18:36.027,134,2014-11-15 18:16:20.024,3
2014-11-15 18:18:47.103,48545,1618.167,40.1049,-88.22192,235.0046,0.6,259.4531,12,10,1416097127,-0.1996765,-0.5671082,0.6739197,-6.02499,-33.68232,-8.232178,192.4682,195.5505,15,-0.09406525,-0.1387864,0.04844956,0.4910094,-2.816939,0.698568,-0.02162669,-0.0704282,0.09423552,0.0413067,0.09041791,-0.03032679,172.17.160.76,10.64.29.0,1,unknown,2,2014-11-15 18:18:36.027,134,2014-11-15 18:16:20.024,3
2014-11-15 18:18:47.135,48546,1618.2,40.1049,-88.22192,235.0046,0.6,259.4531,12,10,1416097127,-0.2434082,-0.6063232,0.7148285,-6.265541,-33.44143,-8.19873,192.9992,196.0815,15,-0.08101283,0.006408098,-0.0007243798,0.4890599,-2.817376,0.6989636,-0.006357312,0.008491457,0.00337356,0.0223076,0.06429257,-0.03875256,172.17.160.76,10.64.29.0,1,unknown,2,2014-11-15 18:18:36.027,134,2014-11-15 18:16:20.024,3
2014-11-15 18:18:47.169,48547,1618.233,40.1049,-88.22192,235.0046,0.6,259.4531,12,10,1416097127,-0.2216949,-0.5538635,0.6906128,-6.059353,-33.6479,-8.46637,192.7361,195.8184,15,-0.09816732,0.02582308,0.03659396,0.4877169,-2.813569,0.6993962,-0.026673,0.09914164,0.04638614,0.01318393,0.04907499,-0.01341579,172.17.160.76,10.64.29.0,1,unknown,2,2014-11-15 18:18:36.027,134,2014-11-15 18:16:20.024,3
2014-11-15 18:18:47.203,48548,1618.267,40.1049,-88.22192,235.0046,0.6,259.4531,12,10,1416097127,-0.2403412,-0.5152283,0.6830292,-5.543892,-33.47584,-8.767334,192.128,195.2103,15,0.00735858,-0.07426597,0.01550359,0.485418,-2.809389,0.6994875,0.02876019,0.02033709,0.02665679,0.0165109,0.1335107,-0.03823289,172.17.160.76,10.64.29.0,1,unknown,2,2014-11-15 18:18:36.027,134,2014-11-15 18:16:20.024,3
2014-11-15 18:18:47.236,48549,1618.3,40.1049,-88.22192,235.0046,0.6,259.4531,12,10,1416097127,-0.2567902,-0.5860443,0.6756439,-5.715717,-33.64789,-8.934631,192.368,195.4503,15,0.06485569,-0.02727663,0.05056464,0.485236,-2.809306,0.6977549,0.1075767,0.001314389,0.0453681,-0.002794741,0.1004304,-0.04008942,172.17.160.76,10.64.29.0,1,unknown,2,2014-11-15 18:18:36.027,134,2014-11-15 18:16:20.024,3
2014-11-15 18:18:47.270,48550,1618.333,40.1049,-88.22192,235.0046,0.6,259.4531,12,10,1416097127,-0.2325439,-0.5655975,0.6423187,-5.75008,-33.54465,-9.436279,192.2713,195.3536,15,0.04576163,0.06085696,0.04154691,0.4828061,-2.802988,0.6921222,0.1097537,0.1385364,0.06519248,0.006331857,0.05078538,-0.05939952,172.17.160.76,10.64.29.0,1,unknown,2,2014-11-15 18:18:36.027,134,2014-11-15 18:16:20.024,3
2014-11-15 18:18:47.303,48551,1618.367,40.1049,-88.22192,235.0046,0.6,259.4531,12,10,1416097127,-0.2086945,-0.5224304,0.6437225,-6.540459,-33.57907,-9.402832,193.6766,196.7589,15,0.01388759,0.01269635,-0.006354036,0.4824627,-2.800276,0.6898071,0.0959562,0.1096452,0.03749342,0.02565459,0.07079085,-0.08455358,172.17.160.76,10.64.29.0,1,unknown,2,2014-11-15 18:18:36.027,134,2014-11-15 18:16:20.024,3
2014-11-15 18:18:47.336,48552,1618.4,40.1049,-88.22192,235.0046,0.6,259.4531,12,10,1416097127,-0.2440643,-0.5458221,0.6660614,-6.574829,-33.54466,-9.436279,193.8783,196.9606,15,0.01907409,-0.03378912,0.02947214,0.4843998,-2.799435,0.6867822,0.1013643,0.01789072,-0.01183829,0.04224574,0.1118507,-0.07490046,172.17.160.76,10.64.29.0,1,unknown,2,2014-11-15 18:18:36.027,134,2014-11-15 18:16:20.024,3
2014-11-15 18:18:47.369,48553,1618.433,40.1049,-88.22192,235.0046,0.6,259.4531,12,10,1416097127,-0.2708893,-0.5496368,0.6405029,-6.334278,-33.64789,-9.536621,193.5795,196.6618,15,-0.007724499,-0.08876742,0.06431188,0.4835195,-2.797323,0.6832414,0.05209079,0.06001925,0.07667094,0.005004675,0.05803747,-0.05949167,172.17.160.76,10.64.29.0,1,unknown,2,2014-11-15 18:18:36.027,134,2014-11-15 18:16:20.024,3
2014-11-15 18:18:47.403,48554,1618.467,40.1049,-88.22192,235.0046,0.6,259.4531,12,10,1416097127,-0.256546,-0.505127,0.6394043,-6.025002,-33.9576,-9.503235,193.1278,196.2101,15,0.02214685,-0.1580352,0.03942117,0.4794398,-2.79319,0.680573,0.05732329,-0.07280938,0.07489619,-0.007504527,0.1089596,-0.09993204,172.17.160.76,10.64.29.0,1,unknown,2,2014-11-15 18:18:36.027,134,2014-11-15 18:16:20.024,3
2014-11-15 18:18:47.436,48555,1618.5,40.1049,-88.22192,235.0046,0.6,259.4531,12,10,1416097127,-0.2216797,-0.6002502,0.7045288,-6.265553,-34.19849,-9.536621,193.1328,196.2151,15,0.03074406,-0.1390484,0.02144377,0.4785635,-2.794432,0.6787827,0.08508942,-0.08891432,0.0545392,0.008267222,0.1227191,-0.09249959,172.17.160.76,10.64.29.0,1,unknown,2,2014-11-15 18:18:36.027,134,2014-11-15 18:16:20.024,3
2014-11-15 18:18:47.470,48556,1618.533,40.1049,-88.22192,235.0046,0.6,259.4531,12,10,1416097127,-0.2141113,-0.5966949,0.7016907,-6.987202,-33.88878,-9.168762,193.202,196.2843,15,-0.006630472,-0.1878455,0.02981861,0.478156,-2.796978,0.6748781,0.07981127,-0.06136455,0.04408908,0.04360611,0.02186638,-0.01829422,172.17.160.76,10.64.29.0,1,unknown,2,2014-11-15 18:18:36.027,134,2014-11-15 18:16:20.024,3
2014-11-15 18:18:47.502,48557,1618.567,40.1049,-88.22192,235.0046,0.6,259.4531,12,10,1416097127,-0.2249146,-0.5738678,0.6622162,-7.262112,-33.75113,-9.235596,193.2594,196.3417,15,-0.0576633,-0.2211681,-0.02430134,0.4773312,-2.799754,0.672785,0.03608152,-0.1443299,0.03001658,0.04120908,0.03118658,-0.04967318,172.17.160.76,10.64.29.0,1,unknown,2,2014-11-15 18:18:36.027,134,2014-11-15 18:16:20.024,3
2014-11-15 18:18:47.536,48558,1618.6,40.1049,-88.22192,235.0046,0.6,259.4531,12,10,1416097127,-0.2626801,-0.5224762,0.7029877,-7.433926,-33.3726,-9.135254,193.3816,196.4639,15,-0.0020003,-0.1312741,-0.0771105,0.4788613,-2.80705,0.67235,0.03638928,-0.07057965,-0.05345343,0.00352128,0.1118857,-0.04239225,172.17.160.76,10.64.29.0,1,unknown,2,2014-11-15 18:18:36.027,134,2014-11-15 18:16:20.024,3
2014-11-15 18:18:47.569,48559,1618.633,40.1049,-88.22192,235.0046,0.6,259.4531,12,10,1416097127,-0.263031,-0.6002197,0.6912994,-7.468296,-33.47585,-9.436218,193.4896,196.5719,15,0.01717286,-0.1823445,-0.0848816,0.4809607,-2.809786,0.6715274,0.08119885,-0.08772376,-0.06963379,-0.01276982,0.07600939,-0.04093677,172.17.160.76,10.64.29.0,1,unknown,2,2014-11-15 18:18:36.027,134,2014-11-15 18:16:20.024,3
2014-11-15 18:18:47.603,48560,1618.667,40.1049,-88.22192,235.0046,0.6,259.4531,12,10,1416097127,-0.2846222,-0.5741425,0.7042084,-7.708847,-33.44143,-9.603455,193.6006,196.6829,15,-0.02377297,-0.08861562,0.08347945,0.4835886,-2.815252,0.6695653,0.04037401,-0.05391648,0.04321409,-0.02926124,0.02105106,-0.05084463,172.17.160.76,10.64.29.0,1,unknown,2,2014-11-15 18:18:36.027,134,2014-11-15 18:16:20.024,3
2014-11-15 18:18:47.636,48561,1618.7,40.1049,-88.22192,235.0046,0.6,259.4531,12,10,1416097127,-0.2529297,-0.5119934,0.7053375,-7.3652,-33.3726,-9.804138,193.6423,196.7246,15,0.02197028,-0.03090652,0.1303173,0.481382,-2.814124,0.6680167,0.05827073,0.01157996,0.1347794,-0.03211245,0.04528774,-0.03912538,172.17.160.76,10.64.29.0,1,unknown,2,2014-11-15 18:18:36.027,134,2014-11-15 18:16:20.024,3
2014-11-15 18:18:47.669,48562,1618.733,40.1049,-88.22192,235.0046,0.6,259.4531,12,10,1416097127,-0.1902313,-0.5775604,0.7055511,-7.983753,-33.57908,-9.335938,193.7648,196.8471,15,0.03609755,-0.05713493,0.03459286,0.4752561,-2.806479,0.6586773,0.1202506,0.0569924,0.100829,0.01740037,0.09514943,-0.05131693,172.17.160.76,10.64.29.0,1,unknown,2,2014-11-15 18:18:36.027,134,2014-11-15 18:16:20.024,3
2014-11-15 18:18:47.703,48563,1618.767,40.1049,-88.22192,235.0046,0.6,259.4531,12,10,1416097127,-0.1773529,-0.5915985,0.7308197,-8.636673,-33.40702,-9.636902,193.9428,197.0251,15,0.02865268,-0.131697,0.009814015,0.478787,-2.812571,0.6553463,0.1033848,-0.03718145,0.01334071,0.07752951,0.02338949,-0.03134468,172.17.160.76,10.64.29.0,1,unknown,2,2014-11-15 18:18:36.027,134,2014-11-15 18:16:20.024,3
2014-11-15 18:18:47.736,48564,1618.8,40.1049,-88.22192,235.0046,0.6,259.4531,12,10,1416097127,-0.2022095,-0.5874786,0.7245483,-9.220867,-33.23496,-9.737244,194.0551,197.1374,15,-0.04056154,-0.05521106,0.003045591,0.4791367,-2.814492,0.6525206,0.07666647,-0.04871342,0.03248661,0.0666604,0.01978873,-0.02302627,172.17.160.76,10.64.29.0,1,unknown,2,2014-11-15 18:18:36.027,134,2014-11-15 18:16:20.024,3
2014-11-15 18:18:47.770,48565,1618.833,40.1049,-88.22192,235.0046,0.6,259.4531,12,10,1416097127,-0.2178345,-0.5436554,0.7572174,-8.739769,-32.82202,-9.737305,194.229,197.3113,15,-0.08404164,-0.02382251,-0.06456115,0.4787987,-2.814539,0.6515018,0.02238887,0.01389509,0.01815874,0.05324342,0.01890267,-0.02847591,172.17.160.76,10.64.29.0,1,unknown,2,2014-11-15 18:18:36.027,134,2014-11-15 18:16:20.024,3
2014-11-15 18:18:47.803,48566,1618.867,40.1049,-88.22192,235.0046,0.6,259.4531,12,10,1416097127,-0.2410126,-0.5385284,0.7477112,-8.602306,-32.54672,-9.670471,196.9326,200.0149,15,-0.001811748,-0.3191149,-0.187433,0.4852847,-2.821463,0.6538603,0.02383767,-0.2297935,-0.1710124,0.01612479,0.07679138,-0.00254547,172.17.160.76,10.64.29.0,1,unknown,2,2014-11-15 18:18:36.027,134,2014-11-15 18:16:20.024,3
2014-11-15 18:18:47.836,48567,1618.9,40.1049,-88.22192,235.0046,0.6,259.4531,12,10,1416097127,-0.2786713,-0.6116638,0.7396851,-8.636673,-32.78761,-9.636963,196.8963,199.9786,15,0.04702663,-0.2792479,-0.1109793,0.4897422,-2.829072,0.653598,0.09091552,-0.239199,-0.1458376,-0.01596402,0.0519097,-0.01536407,172.17.160.76,10.64.29.0,1,unknown,2,2014-11-15 18:18:36.027,134,2014-11-15 18:16:20.024,3
2014-11-15 18:18:47.869,48568,1618.933,40.1049,-88.22192,235.0046,0.6,259.4531,12,10,1416097127,-0.2396545,-0.6232605,0.7913818,-9.014675,-33.16614,-10.13867,197.1119,200.1942,15,-0.0725746,-0.04979419,0.01487029,0.4927565,-2.836177,0.6508824,0.02872547,-0.02109564,0.02856523,-0.02522146,-0.03267647,0.001703866,172.17.160.76,10.64.29.0,1,unknown,2,2014-11-15 18:18:36.027,134,2014-11-15 18:16:20.024,3
2014-11-15 18:18:47.902,48569,1618.967,40.1049,-88.22192,235.0046,0.6,259.4531,12,10,1416097127,-0.1757965,-0.5466766,0.7979736,-9.014675,-33.09732,-9.937927,197.0097,200.092,15,-0.1288243,-0.09830207,-0.08070789,0.4919859,-2.835071,0.6515378,-0.05318442,0.01469789,-0.02082931,0.02022146,0.003321562,0.04139504,172.17.160.76,10.64.29.0,1,unknown,2,2014-11-15 18:18:36.027,134,2014-11-15 18:16:20.024,3
2014-11-15 18:18:47.936,48570,1619,40.1049,-88.22192,235.0046,0.6,259.4531,12,10,1416097127,-0.1759949,-0.5878448,0.7952576,-9.839405,-33.23496,-10.47314,198.2047,201.287,15,-0.06885549,-0.2682762,-0.2134513,0.4933645,-2.836828,0.6532423,-0.06364717,-0.09225227,-0.1137023,0.0624929,0.06108778,0.04045098,172.17.160.76,10.64.29.0,1,unknown,2,2014-11-15 18:18:36.027,134,2014-11-15 18:16:20.024,3
2014-11-15 18:18:47.970,48571,1619.033,40.1049,-88.22192,235.0046,0.6,259.4531,12,10,1416097127,-0.224884,-0.6712036,0.8101959,-10.21741,-32.7876,-10.841,198.7014,201.7837,15,-0.05601081,-0.2417974,-0.2239748,0.5028108,-2.850463,0.6557081,0.03254731,-0.2377094,-0.2337146,0.05151309,0.0218758,0.03599421,172.17.160.76,10.64.29.0,1,unknown,2,2014-11-15 18:18:36.027,134,2014-11-15 18:16:20.024,3
2014-11-15 18:18:48.003,48572,1619.067,40.1049,-88.22192,235.0046,0.6,259.4531,12,10,1416097127,-0.255127,-0.6535187,0.8265228,-9.942505,-32.71878,-10.57336,198.1046,201.1869,15,-0.153009,-0.1385169,-0.201838,0.5125825,-2.863143,0.6581604,-0.05495029,-0.1139731,-0.1754155,-0.02354596,-0.06308112,0.04886228,172.17.160.76,10.64.29.0,1,unknown,2,2014-11-15 18:18:36.027,134,2014-11-15 18:16:20.024,3
2014-11-15 18:18:48.036,48573,1619.1,40.1049,-88.22192,235.0046,0.6,259.4531,12,10,1416097127,-0.2775421,-0.6761169,0.8576813,-10.14869,-33.0629,-10.50647,198.113,201.1953,15,-0.1263063,-0.117366,-0.213503,0.5185231,-2.869049,0.662122,-0.08786047,-0.04936205,-0.2046736,-0.05236247,-0.03602605,0.07660334,172.17.160.76,10.64.29.0,1,unknown,2,2014-11-15 18:18:36.027,134,2014-11-15 18:16:20.024,3
2014-11-15 18:18:48.069,48574,1619.133,40.1049,-88.22191,234.7279,0.48,249.9609,12,10,1416097128,-0.2779999,-0.7184601,0.8978882,-10.4236,-33.26937,-10.50653,199.2702,202.3525,15,-0.09571002,-0.08677378,-0.09987786,0.5250602,-2.874482,0.6656511,-0.05172255,-0.04378794,-0.1676278,-0.07252382,-0.06715152,0.1128979,172.17.160.76,10.64.29.0,1,unknown,2,2014-11-15 18:18:36.027,134,2014-11-15 18:16:20.024,3
2014-11-15 18:18:48.103,48575,1619.167,40.1049,-88.22191,234.7279,0.48,249.9609,12,10,1416097128,-0.2718658,-0.6577606,0.892746,-10.14869,-33.61349,-11.17542,198.7682,201.8505,15,-0.05959169,-0.02259639,-0.04129364,0.529327,-2.877603,0.6676923,-0.0008972856,0.02944138,-0.03474738,-0.06872129,-0.04903736,0.1604235,172.17.160.76,10.64.29.0,1,unknown,2,2014-11-15 18:18:36.027,134,2014-11-15 18:16:20.024,3
2014-11-15 18:18:48.136,48576,1619.2,40.1049,-88.22191,234.7279,0.48,249.9609,12,10,1416097128,-0.2542725,-0.6745148,0.8540955,-10.07997,-33.40702,-11.24231,198.6637,201.746,15,-0.05747075,-0.02469869,-0.03812821,0.5299872,-2.877073,0.667796,0.00336366,0.05068164,-0.02503392,-0.05994382,-0.04402737,0.108577,172.17.160.76,10.64.29.0,1,unknown,2,2014-11-15 18:18:36.027,134,2014-11-15 18:16:20.024,3
2014-11-15 18:18:48.170,48577,1619.233,40.1049,-88.22191,234.7279,0.48,249.9609,12,10,1416097128,-0.2275391,-0.7448425,0.9189453,-9.770691,-33.57908,-11.81091,198.175,201.2573,15,-0.0300615,0.03354678,0.07883889,0.5299187,-2.875063,0.6670266,0.0361699,0.07043062,0.05986568,-0.0545727,-0.09024016,0.1233632,172.17.160.76,10.64.29.0,1,unknown,2,2014-11-15 18:18:36.027,134,2014-11-15 18:16:20.024,3
2014-11-15 18:18:48.203,48578,1619.267,40.1049,-88.22191,234.7279,0.48,249.9609,12,10,1416097128,-0.251297,-0.6791992,0.9401245,-9.976871,-33.23495,-12.34601,198.5593,201.6416,15,-0.1140912,0.2087743,0.06096961,0.526533,-2.868565,0.6657538,-0.01073167,0.2226773,0.09693334,-0.01059074,-0.1160973,0.1786843,172.17.160.76,10.64.29.0,1,unknown,2,2014-11-15 18:18:36.027,134,2014-11-15 18:16:20.024,3
2014-11-15 18:18:48.236,48579,1619.3,40.1049,-88.22191,234.7279,0.48,249.9609,12,10,1416097128,-0.3654327,-0.6916351,0.9088593,-10.11433,-33.02848,-12.4129,198.9099,201.9922,15,-0.1434432,0.3427488,-0.06983874,0.5240038,-2.854868,0.6685143,-0.09871449,0.3438974,-0.03796868,-0.07986841,-0.03571207,0.1504155,172.17.160.76,10.64.29.0,1,unknown,2,2014-11-15 18:18:36.027,134,2014-11-15 18:16:20.024,3
2014-11-15 18:18:48.269,48580,1619.333,40.1049,-88.22191,234.7279,0.48,249.9609,12,10,1416097128,-0.4746857,-0.7633362,0.9816895,-10.56107,-32.85641,-12.04504,199.988,203.0703,15,-0.04974545,0.7677664,0.07641008,0.5246049,-2.846393,0.6701906,-0.05594917,0.52455,-0.03293164,-0.1374294,-0.07049979,0.1590557,172.17.160.76,10.64.29.0,1,unknown,2,2014-11-15 18:18:36.027,134,2014-11-15 18:16:20.024,3
2014-11-15 18:18:48.302,48581,1619.367,40.1049,-88.22191,234.7279,0.48,249.9609,12,10,1416097128,-0.3427429,-0.7298431,0.9353485,-10.35488,-32.71877,-11.7774,199.8279,202.9102,15,0.0033428,0.869414,0.1733414,0.5219672,-2.82109,0.6694654,0.02804495,0.9583604,0.1516131,-0.2276432,-0.1427694,0.2374672,172.17.160.76,10.64.29.0,1,unknown,2,2014-11-15 18:18:36.027,134,2014-11-15 18:16:20.024,3
2014-11-15 18:18:48.336,48582,1619.4,40.1049,-88.22191,234.7279,0.48,249.9609,12,10,1416097128,-0.1135406,-0.7624054,0.8569794,-9.942505,-33.33818,-11.71051,199.7783,202.8606,15,0.04880562,0.4093646,0.1813634,0.5143697,-2.781477,0.6642346,0.1066031,0.6642515,0.1858604,0.100765,-0.1053756,0.1502175,172.17.160.76,10.64.29.0,1,unknown,2,2014-11-15 18:18:36.027,134,2014-11-15 18:16:20.024,3
2014-11-15 18:18:48.370,48583,1619.433,40.1049,-88.22191,234.7279,0.48,249.9609,12,10,1416097128,-0.2763214,-0.8040161,0.9265137,-9.564499,-33.44141,-12.34595,199.7048,202.7871,15,0.02738049,0.2925291,0.1861358,0.5089275,-2.763012,0.6590748,0.1042101,0.4157872,0.2089749,0.1618516,-0.1797591,0.128442,172.17.160.76,10.64.29.0,1,unknown,2,2014-11-15 18:18:36.027,134,2014-11-15 18:16:20.024,3
2014-11-15 18:18:48.403,48584,1619.467,40.1049,-88.22191,234.7279,0.48,249.9609,12,10,1416097128,-0.3774872,-0.7778778,0.9282227,-9.564499,-33.51024,-12.21222,199.864,202.9463,15,-0.09871406,0.3460341,-0.0540667,0.501837,-2.740114,0.6534529,-0.002906016,0.385704,0.01708925,-0.03704534,-0.1776672,0.1919359,172.17.160.76,10.64.29.0,1,unknown,2,2014-11-15 18:18:36.027,134,2014-11-15 18:16:20.024,3
2014-11-15 18:18:48.436,48585,1619.5,40.1049,-88.22191,234.7279,0.48,249.9609,12,10,1416097128,-0.4794464,-0.7364655,0.9471283,-9.564499,-33.23495,-12.27911,200.1123,203.1946,15,-0.1049259,0.3998705,-0.1015266,0.5025636,-2.732128,0.6544561,-0.04096816,0.440291,-0.07376829,-0.09196323,-0.1489016,0.2099045,172.17.160.76,10.64.29.0,1,unknown,2,2014-11-15 18:18:36.027,134,2014-11-15 18:16:20.024,3
2014-11-15 18:18:48.469,48586,1619.533,40.1049,-88.22191,234.7279,0.48,249.9609,12,10,1416097128,-0.4556427,-0.7654266,0.9181976,-9.15213,-33.09729,-11.9447,199.972,203.0543,15,-0.08241951,0.3410087,-0.1560564,0.5068343,-2.715949,0.6577671,-0.03541858,0.4514492,-0.1437882,-0.1610656,-0.1165692,0.2014161,172.17.160.76,10.64.29.0,1,unknown,2,2014-11-15 18:18:48.394,134,2014-11-15 18:16:20.024,3
2014-11-15 18:18:48.503,48587,1619.567,40.1049,-88.22191,234.7279,0.48,249.9609,12,10,1416097128,-0.4653778,-0.8014832,0.9400024,-9.049038,-33.407,-11.64374,199.7566,202.8389,15,-0.03148655,0.2244725,-0.1069712,0.5098391,-2.709911,0.6591472,0.001764755,0.3527442,-0.1264021,-0.1248921,-0.1529837,0.200202,172.17.160.76,10.64.29.0,1,unknown,2,2014-11-15 18:18:48.394,134,2014-11-15 18:16:20.024,3
2014-11-15 18:18:48.536,48588,1619.6,40.1049,-88.22191,234.7279,0.48,249.9609,12,10,1416097128,-0.4390869,-0.6856689,0.8525696,-8.980312,-33.61347,-11.77747,199.647,202.7294,15,0.05704331,0.02683188,0.1803796,0.5115194,-2.702623,0.6562856,0.1319153,0.108128,0.1340083,-0.1286751,-0.1824853,0.2165663,172.17.160.76,10.64.29.0,1,unknown,2,2014-11-15 18:18:48.394,134,2014-11-15 18:16:20.024,3
2014-11-15 18:18:48.569,48589,1619.633,40.1049,-88.22191,234.7279,0.48,249.9609,12,10,1416097128,-0.4008789,-0.6773224,0.7994537,-8.774124,-33.81994,-12.31256,199.488,202.5703,15,-0.007653392,-0.04955504,0.05071884,0.5061833,-2.695885,0.6491347,0.0956455,0.06455496,0.1307301,-0.07853664,-0.05774938,0.1059696,172.17.160.76,10.64.29.0,1,unknown,2,2014-11-15 18:18:48.394,134,2014-11-15 18:16:20.024,3
2014-11-15 18:18:48.603,48590,1619.667,40.1049,-88.22191,234.7279,0.48,249.9609,12,10,1416097128,-0.4386444,-0.658783,0.7935028,-8.567944,-33.40699,-12.58014,199.4721,202.5544,15,-0.09628765,-0.05871471,0.09876919,0.5044672,-2.693955,0.6465403,0.02331254,0.01309049,0.06491798,-0.0738325,-0.08235537,0.08390582,172.17.160.76,10.64.29.0,1,unknown,2,2014-11-15 18:18:48.394,134,2014-11-15 18:16:20.024,3
2014-11-15 18:18:48.636,48591,1619.7,40.1049,-88.22191,234.7279,0.48,249.9609,12,10,1416097128,-0.3939056,-0.59935,0.7926025,-8.464851,-33.37258,-12.27911,199.371,202.4533,15,-0.1145106,-0.02545343,0.1404104,0.5004491,-2.691144,0.6458257,-0.05260443,0.02327453,0.142744,-0.08378495,-0.0383702,0.07011881,172.17.160.76,10.64.29.0,1,unknown,2,2014-11-15 18:18:48.394,134,2014-11-15 18:16:20.024,3
2014-11-15 18:18:48.670,48592,1619.733,40.1049,-88.22191,234.7279,0.48,249.9609,12,10,1416097128,-0.3665466,-0.6297455,0.8507233,-8.774124,-33.40699,-11.50989,199.5947,202.677,15,-0.04614433,-0.06309401,0.08475909,0.4945779,-2.686475,0.6451277,-0.01953448,0.03171847,0.1373571,-0.03409024,0.005978798,0.09700724,172.17.160.76,10.64.29.0,1,unknown,2,2014-11-15 18:18:48.394,134,2014-11-15 18:16:20.024,3
2014-11-15 18:18:48.703,48593,1619.767,40.1049,-88.22191,234.7279,0.48,249.9609,12,10,1416097128,-0.3867493,-0.6457214,0.8041077,-8.671032,-33.51023,-11.47644,199.506,202.5883,15,0.02732616,-0.1544665,0.09037171,0.4923414,-2.686248,0.6426867,0.08392841,-0.09941706,0.0853279,-0.02699613,-0.04690723,0.1285621,172.17.160.76,10.64.29.0,1,unknown,2,2014-11-15 18:18:48.394,134,2014-11-15 18:16:20.024,3
2014-11-15 18:18:48.736,48594,1619.8,40.1049,-88.22191,234.7279,0.48,249.9609,12,10,1416097128,-0.3337402,-0.5552063,0.7506256,-8.533569,-33.30375,-11.74408,199.4403,202.5226,15,0.01379171,-0.2085005,-0.0308711,0.4901468,-2.690641,0.6368858,0.08833352,-0.1412927,0.02777073,0.02181225,0.007658488,0.02948403,172.17.160.76,10.64.29.0,1,unknown,2,2014-11-15 18:18:48.394,134,2014-11-15 18:16:20.024,3
2014-11-15 18:18:48.769,48595,1619.833,40.1049,-88.22191,234.7279,0.48,249.9609,12,10,1416097128,-0.389801,-0.5756531,0.726944,-8.327389,-33.37257,-11.67712,199.1653,202.2476,15,0.00427464,-0.2204,-0.05955813,0.491438,-2.694305,0.6356879,0.07147359,-0.1556176,-0.04123796,-0.01660516,0.03971509,0.019934,172.17.160.76,10.64.29.0,1,unknown,2,2014-11-15 18:18:48.394,134,2014-11-15 18:16:20.024,3
2014-11-15 18:18:48.803,48596,1619.867,40.1049,-88.22191,234.7279,0.48,249.9609,12,10,1416097128,-0.3814545,-0.6096649,0.7726593,-8.43047,-33.61345,-10.77405,199.1512,202.2335,15,-0.02871101,-0.1587926,-0.06441761,0.4940663,-2.700221,0.6341132,0.04484228,-0.05984287,-0.0236503,-0.03817369,-0.0006457752,0.002181379,172.17.160.76,10.64.29.0,1,unknown,2,2014-11-15 18:18:48.394,134,2014-11-15 18:16:20.024,3
2014-11-15 18:18:48.836,48597,1619.9,40.1049,-88.22191,234.7279,0.48,249.9609,12,10,1416097128,-0.3946533,-0.6128693,0.7526703,-8.396107,-33.57904,-10.47302,199.1159,202.1982,15,0.02015693,-0.2499451,-0.03111318,0.4967521,-2.705782,0.6335354,0.07256434,-0.1897501,-0.0584057,-0.05069124,-0.02155817,0.05111607,172.17.160.76,10.64.29.0,1,unknown,2,2014-11-15 18:18:48.394,134,2014-11-15 18:16:20.024,3
2014-11-15 18:18:48.869,48598,1619.933,40.1049,-88.22191,234.7279,0.48,249.9609,12,10,1416097128,-0.4031677,-0.5662994,0.6903229,-8.189919,-33.51022,-10.13855,199.0068,202.0891,15,0.02784495,-0.1711971,0.2675492,0.4966938,-2.710559,0.630798,0.0826861,-0.1266629,0.1361397,-0.05724761,-0.02307985,0.018977,172.17.160.76,10.64.29.0,1,unknown,2,2014-11-15 18:18:48.394,134,2014-11-15 18:16:20.024,3
2014-11-15 18:18:48.903,48599,1619.967,40.1049,-88.22191,234.7279,0.48,249.9609,12,10,1416097128,-0.3456421,-0.4798279,0.6786194,-8.052467,-33.57904,-9.670349,197.7908,200.8731,15,0.005437642,-0.1253582,0.2859196,0.486047,-2.708362,0.6232584,0.0661585,-0.09444197,0.3221305,-0.03594178,0.07361323,-0.06144345,172.17.160.76,10.64.29.0,1,unknown,2,2014-11-15 18:18:48.394,134,2014-11-15 18:16:20.024,3
2014-11-15 18:18:48.936,48600,1620,40.1049,-88.22191,234.7279,0.48,249.9609,12,10,1416097128,-0.2851562,-0.4720917,0.6907349,-8.155563,-33.68227,-9.369324,197.8891,200.9714,15,0.02373809,-0.1023895,0.232898,0.4769268,-2.704898,0.6175793,0.06738477,-0.03842066,0.283146,0.01907663,0.09964743,-0.05336238,172.17.160.76,10.64.29.0,1,unknown,2,2014-11-15 18:18:48.394,134,2014-11-15 18:16:20.024,3
2014-11-15 18:18:48.970,48601,1620.033,40.1049,-88.22191,234.7279,0.48,249.9609,12,10,1416097128,-0.265274,-0.4364929,0.6038055,-7.88065,-33.68227,-8.967896,197.5112,200.5935,15,-0.0399349,-0.04346705,0.1517126,0.4698453,-2.701749,0.6121325,0.0867525,-0.01332771,0.2301314,0.07298614,0.1131425,-0.05772512,172.17.160.76,10.64.29.0,1,unknown,2,2014-11-15 18:18:48.394,134,2014-11-15 18:16:20.024,3
2014-11-15 18:18:49.003,48602,1620.067,40.1049,-88.22191,234.7279,0.48,249.9609,12,10,1416097128,-0.2619781,-0.4449463,0.5796509,-7.983746,-33.64786,-8.600037,197.6193,200.7016,15,-0.1725409,-0.02373835,-0.05892191,0.4629817,-2.696631,0.6099605,-0.09054729,0.02964011,-0.001443115,0.09213945,0.1361285,-0.1563609,172.17.160.76,10.64.29.0,1,unknown,2,2014-11-15 18:18:48.394,134,2014-11-15 18:16:20.024,3
2014-11-15 18:18:49.036,48603,1620.1,40.1049,-88.22191,234.7279,0.48,249.9609,12,10,1416097128,-0.2410583,-0.4646912,0.5931244,-7.674465,-33.54463,-8.834167,197.3439,200.4262,15,-0.1958313,0.01419145,-0.1032172,0.4628926,-2.695543,0.6124251,-0.1244178,0.06843789,-0.07223132,0.09448574,0.1191803,-0.1560434,172.17.160.76,10.64.29.0,1,unknown,2,2014-11-15 18:18:48.394,134,2014-11-15 18:16:20.024,3
2014-11-15 18:18:49.069,48604,1620.133,40.1049,-88.2219,234.4885,0.35,220.7812,12,10,1416097129,-0.2378235,-0.4456635,0.5680084,-8.189934,-33.30375,-8.733887,198.123,201.2053,15,-0.1926395,-0.1007708,-0.1303716,0.4645141,-2.693618,0.6188953,-0.1254021,0.0245836,-0.110672,0.1106451,0.1259731,-0.1462879,172.17.160.76,10.64.29.0,1,unknown,2,2014-11-15 18:18:48.394,134,2014-11-15 18:16:20.024,3
2014-11-15 18:18:49.103,48605,1620.167,40.1049,-88.2219,234.4885,0.35,220.7812,12,10,1416097129,-0.2499084,-0.4531097,0.5667419,-7.708832,-33.44139,-8.934509,197.5618,200.6441,15,-0.1947804,-0.1976263,-0.1521032,0.4657664,-2.695247,0.622261,-0.1307694,-0.08391119,-0.1260841,0.1129368,0.1372104,-0.1649481,172.17.160.76,10.64.29.0,1,unknown,2,2014-11-15 18:18:48.394,134,2014-11-15 18:16:20.024,3
2014-11-15 18:18:49.136,48606,1620.2,40.1049,-88.2219,234.4885,0.35,220.7812,12,10,1416097129,-0.2877502,-0.4302673,0.5800781,-7.708832,-33.09727,-8.666992,197.5134,200.5957,15,-0.1840862,-0.289271,-0.1865933,0.4695014,-2.703833,0.6295586,-0.1339505,-0.2011153,-0.1584743,0.08217448,0.1454287,-0.1618939,172.17.160.76,10.64.29.0,1,unknown,2,2014-11-15 18:18:48.394,134,2014-11-15 18:16:20.024,3
2014-11-15 18:18:49.169,48607,1620.233,40.1049,-88.2219,234.4885,0.35,220.7812,12,10,1416097129,-0.2988892,-0.4298248,0.5816193,-6.952831,-33.57904,-8.131897,196.0663,199.1486,15,-0.1126192,-0.2776979,-0.1974148,0.4749174,-2.715668,0.6366348,-0.08910054,-0.2109094,-0.1862924,0.03617376,0.1673688,-0.1458954,172.17.160.76,10.64.29.0,1,unknown,2,2014-11-15 18:18:48.394,134,2014-11-15 18:16:20.024,3
2014-11-15 18:18:49.203,48608,1620.267,40.1049,-88.2219,234.4885,0.35,220.7812,12,10,1416097129,-0.278183,-0.4562531,0.5786438,-6.746647,-33.99198,-7.864319,195.3118,198.3941,15,-0.09134749,-0.2754555,-0.1804989,0.4802892,-2.725091,0.6404222,-0.04009555,-0.2087212,-0.1747882,0.03721113,0.1644439,-0.1674521,172.17.160.76,10.64.29.0,1,unknown,2,2014-11-15 18:18:48.394,134,2014-11-15 18:16:20.024,3
2014-11-15 18:18:49.236,48609,1620.3,40.1049,-88.2219,234.4885,0.35,220.7812,12,10,1416097129,-0.2477417,-0.5482483,0.6186371,-6.609184,-34.12963,-8.065002,194.1566,197.2389,15,-0.05855359,-0.2982581,-0.1021921,0.4852084,-2.734313,0.6426749,0.0002586825,-0.2158046,-0.1250871,0.04311512,0.1128123,-0.1479497,172.17.160.76,10.64.29.0,1,unknown,2,2014-11-15 18:18:48.394,134,2014-11-15 18:16:20.024,3
2014-11-15 18:18:49.270,48610,1620.333,40.1049,-88.2219,234.4885,0.35,220.7812,12,10,1416097129,-0.238739,-0.5349121,0.6960602,-6.471725,-33.85433,-8.19873,193.6417,196.724,15,-0.1013471,-0.2861487,-0.04889404,0.4884101,-2.743029,0.6436819,-0.007375113,-0.2260198,-0.07097677,0.07735578,0.05285762,-0.09318312,172.17.160.76,10.64.29.0,1,unknown,2,2014-11-15 18:18:48.394,134,2014-11-15 18:16:20.024,3
2014-11-15 18:18:49.303,48611,1620.367,40.1049,-88.2219,234.4885,0.35,220.7812,12,10,1416097129,-0.2497406,-0.6016846,0.7140198,-6.540459,-33.85433,-8.600037,193.6683,196.7506,15,-0.1823751,-0.3297388,-0.05731203,0.4893449,-2.754643,0.6462964,-0.07573242,-0.2352462,-0.03043322,0.05856723,0.02493291,-0.03176065,172.17.160.76,10.64.29.0,1,unknown,2,2014-11-15 18:18:48.394,134,2014-11-15 18:16:20.024,3
2014-11-15 18:18:49.336,48612,1620.4,40.1049,-88.2219,234.4885,0.35,220.7812,12,10,1416097129,-0.3164825,-0.5980988,0.8061523,-6.33427,-34.19845,-8.533264,193.6573,196.7396,15,-0.2314516,-0.3541062,-0.05088768,0.4891279,-2.759829,0.6489698,-0.1514167,-0.2820669,-0.04419569,0.0389457,-0.01138725,0.003172006,172.17.160.76,10.64.29.0,1,unknown,2,2014-11-15 18:18:48.394,134,2014-11-15 18:16:20.024,3
2014-11-15 18:18:49.369,48613,1620.433,40.1049,-88.2219,234.4885,0.35,220.7812,12,10,1416097129,-0.3325195,-0.5476837,0.7732544,-6.368641,-33.68227,-8.499817,193.6494,196.7317,15,-0.2558264,-0.1745383,-0.05303526,0.4866473,-2.767939,0.6558883,-0.1919428,-0.1574512,-0.007297445,-0.03933272,0.01992811,0.05773934,172.17.160.76,10.64.29.0,1,unknown,2,2014-11-15 18:18:48.394,134,2014-11-15 18:16:20.024,3
