time,timestamp,recordtime,lat,long,alt,speed,course,verticalAccuracy,horizontalAccuracy,locTimeStamp,accelerationX,accelerationY,accelerationZ,HeadingX,HeadingY,HeadingZ,TrueHeading,MagneticHeading,HeadingAccuracy,RotationX,RotationY,RotationZ,motionYaw,motionRoll,motionPitch,motionRotationRateX,motionRotationRateY,motionRotationRateZ,motionUserAccelerationX,motionUserAccelerationY,motionUserAccelerationZ,en0,pdp_ip0,DeviceOrientation,Activity,Activity Confidence,Activity Start,Steps,Last Step Date,State
2014-11-15 18:18:53.236,48729,1624.3,40.10487,-88.22189,234.2214,0.9,176.8359,12,10,1416097133,-0.2933807,-0.6099701,0.7543945,-5.750072,-33.47578,-9.368591,193.1988,196.2811,15,-0.0638879,-0.04380634,-0.03608184,0.4822957,-2.767635,0.6536045,-0.006988151,0.02239933,-0.01832839,-0.003978293,-0.004527391,0.01429638,172.17.160.76,10.64.29.0,1,unknown,2,2014-11-15 18:18:48.394,134,2014-11-15 18:16:20.024,3
2014-11-15 18:18:53.269,48730,1624.333,40.10487,-88.22189,234.2214,0.9,176.8359,12,10,1416097133,-0.2768402,-0.615509,0.7361755,-5.853168,-33.5102,-8.867004,193.1899,196.2722,15,-0.05859274,-0.04797951,-0.02550882,0.4830802,-2.767532,0.6533269,0.009027574,0.02240025,-0.01306787,0.001499805,-0.00120776,0.008889515,172.17.160.76,10.64.29.0,1,unknown,2,2014-11-15 18:18:48.394,134,2014-11-15 18:16:20.024,3
2014-11-15 18:18:53.302,48731,1624.367,40.10487,-88.22189,234.2214,0.9,176.8359,12,10,1416097133,-0.2818298,-0.6112976,0.7397919,-5.750072,-33.13168,-8.632874,193.1844,196.2667,15,-0.07350085,-0.05546619,-0.0329228,0.4839298,-2.767915,0.6538315,-0.008030185,0.01921027,-0.01408468,0.0151426,-0.005003359,-0.001281479,172.17.160.76,10.64.29.0,1,unknown,2,2014-11-15 18:18:48.394,134,2014-11-15 18:16:20.024,3
2014-11-15 18:18:53.336,48732,1624.4,40.10487,-88.22189,234.2214,0.9,176.8359,12,10,1416097133,-0.2912598,-0.611557,0.7466125,-5.578247,-33.23492,-9.000732,193.1776,196.2599,15,-0.05429813,-0.06722032,-0.04048697,0.4851971,-2.768629,0.6545718,0.002651943,0.01062916,-0.0237255,0.003114047,-0.003576625,0.005126681,172.17.160.76,10.64.29.0,1,unknown,2,2014-11-15 18:18:48.394,134,2014-11-15 18:16:20.024,3
2014-11-15 18:18:53.370,48733,1624.433,40.10487,-88.22189,234.2214,0.9,176.8359,12,10,1416097133,-0.2860107,-0.6157837,0.734024,-5.646976,-33.16609,-9.468994,193.1721,196.2544,15,-0.06498433,-0.07140947,-0.03303864,0.4859133,-2.76913,0.6545283,0.009036496,-0.005313645,-0.02383353,-0.002556727,-0.002771883,0.00767329,172.17.160.76,10.64.29.0,1,unknown,2,2014-11-15 18:18:48.394,134,2014-11-15 18:16:20.024,3
2014-11-15 18:18:53.403,48734,1624.467,40.10487,-88.22189,234.2214,0.9,176.8359,12,10,1416097133,-0.2940521,-0.6146393,0.7490082,-5.990616,-33.64786,-9.669678,193.1686,196.2509,15,-0.0617366,-0.04811373,-0.04354295,0.4866223,-2.769409,0.6551616,-0.009091675,0.01599537,-0.01728481,0.00234568,-0.006496292,-0.004636523,172.17.160.76,10.64.29.0,1,stationary,1,2014-11-15 18:18:53.341,134,2014-11-15 18:16:20.024,3
2014-11-15 18:18:53.437,48735,1624.5,40.10487,-88.22189,234.2214,0.9,176.8359,12,10,1416097133,-0.2879333,-0.5979614,0.740036,-5.921883,-33.44139,-9.4021,193.1689,196.2512,15,-0.06073445,-0.06498805,-0.02665185,0.4874792,-2.769281,0.6555405,-0.001535634,0.01800411,-0.02686294,-0.005685052,-0.005051516,0.01059963,172.17.160.76,10.64.29.0,1,stationary,1,2014-11-15 18:18:53.341,134,2014-11-15 18:16:20.024,3
2014-11-15 18:18:53.471,48736,1624.533,40.10487,-88.22189,234.2214,0.9,176.8359,12,10,1416097133,-0.2979736,-0.620575,0.7475891,-5.88752,-33.54462,-9.569336,193.1654,196.2477,15,-0.02452345,-0.0521431,-0.01185906,0.4880612,-2.769284,0.6545781,0.02608886,0.009712721,0.002712779,0.0003857237,0.005293694,-0.0008725247,172.17.160.76,10.64.29.0,1,stationary,1,2014-11-15 18:18:53.341,134,2014-11-15 18:16:20.024,3
2014-11-15 18:18:53.502,48737,1624.567,40.10487,-88.22189,234.2214,0.9,176.8359,12,10,1416097133,-0.2758026,-0.6103058,0.7376099,-5.81879,-33.06285,-9.77002,193.1668,196.2491,15,-0.0394028,-0.0426681,-0.02449123,0.4881321,-2.769123,0.6541818,0.03888323,0.01609005,0.003760165,-0.006701984,-0.00374869,0.006639469,172.17.160.76,10.64.29.0,1,stationary,1,2014-11-15 18:18:53.341,134,2014-11-15 18:16:20.024,3
2014-11-15 18:18:53.536,48738,1624.6,40.10487,-88.22189,234.2214,0.9,176.8359,12,10,1416097133,-0.2870483,-0.5989532,0.7457886,-5.715702,-33.16609,-9.602783,193.1562,196.2385,15,-0.07658239,-0.0621438,-0.07328273,0.489961,-2.769519,0.6548265,-0.02917389,0.01675224,-0.05330426,0.01257741,0.01121278,-0.007284524,172.17.160.76,10.64.29.0,1,stationary,1,2014-11-15 18:18:53.341,134,2014-11-15 18:16:20.024,3
2014-11-15 18:18:53.569,48739,1624.633,40.10487,-88.22189,234.2214,0.9,176.8359,12,10,1416097133,-0.2919159,-0.6179047,0.7435455,-5.715702,-32.89079,-9.268311,193.154,196.2363,15,-0.02443157,-0.06195418,-0.04481701,0.4919303,-2.77072,0.6547259,0.02940993,0.003011896,-0.03979639,-0.001563368,0.006494327,0.01043997,172.17.160.76,10.64.29.0,1,stationary,1,2014-11-15 18:18:53.341,134,2014-11-15 18:16:20.024,3
2014-11-15 18:18:53.602,48740,1624.667,40.10487,-88.22189,234.2214,0.9,176.8359,12,10,1416097133,-0.293335,-0.6128235,0.7397003,-5.681335,-33.06285,-9.03418,193.1499,196.2322,15,-0.06180212,-0.07137112,-0.02774295,0.4931313,-2.771274,0.6542436,0.02298621,0.001068296,-0.01219997,-0.00531506,-0.01827182,0.0004857233,172.17.160.76,10.64.29.0,1,stationary,1,2014-11-15 18:18:53.341,134,2014-11-15 18:16:20.024,3
2014-11-15 18:18:53.636,48741,1624.7,40.10487,-88.22189,234.2214,0.9,176.8359,12,10,1416097133,-0.3013916,-0.606369,0.7494354,-5.853153,-33.44139,-9.335266,193.1553,196.2377,15,-0.05011217,-0.0691559,-0.01503727,0.4934446,-2.77137,0.6544873,0.002723465,-0.006359359,-0.0121632,-0.006279381,-0.004070912,9.272034e-05,172.17.160.76,10.64.29.0,1,stationary,1,2014-11-15 18:18:53.341,134,2014-11-15 18:16:20.024,3
2014-11-15 18:18:53.670,48742,1624.733,40.10487,-88.22189,234.2214,0.9,176.8359,12,10,1416097133,-0.3066864,-0.5970306,0.7613983,-5.475147,-33.75109,-9.435547,193.1394,196.2217,15,-0.005421397,-0.05725797,0.01564101,0.4933388,-2.770938,0.6536513,0.03039188,0.01185227,0.00906073,-0.0138323,0.001720099,0.009477809,172.17.160.76,10.64.29.0,1,stationary,1,2014-11-15 18:18:53.341,134,2014-11-15 18:16:20.024,3
2014-11-15 18:18:53.703,48743,1624.767,40.10487,-88.22189,234.2214,0.9,176.8359,12,10,1416097133,-0.3366089,-0.584137,0.759552,-4.95969,-33.85434,-9.335266,193.1048,196.1871,15,-0.000216515,-0.08356201,0.05051191,0.4923288,-2.769425,0.6503088,0.05479286,-0.0006294436,0.04605883,-0.01727004,0.008401553,0.01998748,172.17.160.76,10.64.29.0,1,stationary,1,2014-11-15 18:18:53.341,134,2014-11-15 18:16:20.024,3
2014-11-15 18:18:53.736,48744,1624.8,40.10487,-88.22189,234.2214,0.9,176.8359,12,10,1416097133,-0.3140259,-0.6317291,0.726532,-5.165878,-33.37257,-9.201416,193.0908,196.1731,15,0.04988127,-0.04630811,0.06219679,0.4901046,-2.767452,0.646,0.08561978,-0.004659379,0.07671162,-0.04477913,0.01786024,0.01629245,172.17.160.76,10.64.29.0,1,stationary,1,2014-11-15 18:18:53.341,134,2014-11-15 18:16:20.024,3
2014-11-15 18:18:53.771,48745,1624.833,40.10487,-88.22189,234.2214,0.9,176.8359,12,10,1416097133,-0.2546387,-0.6261597,0.7290802,-5.440792,-33.37257,-9.602783,192.6599,195.7422,15,-0.008707471,0.004710067,0.06056188,0.4863884,-2.760824,0.6391811,0.08464627,0.07931338,0.08455732,0.007099526,-0.0384714,-0.01484777,172.17.160.76,10.64.29.0,1,stationary,1,2014-11-15 18:18:53.341,134,2014-11-15 18:16:20.024,3
2014-11-15 18:18:53.803,48746,1624.867,40.10487,-88.22189,234.2214,0.9,176.8359,12,10,1416097133,-0.2445526,-0.5923004,0.7367249,-5.818798,-33.7511,-9.90387,193.0794,196.1617,15,-0.07790092,-0.0572537,0.01166651,0.4850276,-2.758769,0.6383372,-0.003760209,0.03231274,0.04642429,0.05633419,-0.02352387,-0.02194775,172.17.160.76,10.64.29.0,1,stationary,1,2014-11-15 18:18:53.341,134,2014-11-15 18:16:20.024,3
2014-11-15 18:18:53.836,48747,1624.9,40.10487,-88.22189,234.2214,0.9,176.8359,12,10,1416097133,-0.252655,-0.5809021,0.7501526,-5.853161,-34.12964,-10.00421,193.0649,196.1472,15,-0.06397579,-0.08829977,-0.01827062,0.4848956,-2.759355,0.6387374,-0.01112746,-0.01476957,0.00268021,0.0524824,0.01169434,-0.0007838419,172.17.160.76,10.64.29.0,1,stationary,1,2014-11-15 18:18:53.341,134,2014-11-15 18:16:20.024,3
2014-11-15 18:18:53.870,48748,1624.933,40.10487,-88.22189,234.2214,0.9,176.8359,12,10,1416097133,-0.2857666,-0.6053467,0.7403259,-6.196808,-34.19846,-9.803467,193.4365,196.5188,15,-0.05963803,-0.1012608,-0.04595364,0.4852591,-2.760224,0.6385587,0.01983434,-0.02554726,-0.01553777,0.04009453,0.01431273,0.003633236,172.17.160.76,10.64.29.0,1,stationary,1,2014-11-15 18:18:53.341,134,2014-11-15 18:16:20.024,3
2014-11-15 18:18:53.903,48749,1624.967,40.10487,-88.22189,234.2214,0.9,176.8359,12,10,1416097133,-0.318634,-0.5948181,0.7423859,-6.059349,-33.92317,-9.402161,193.2511,196.3334,15,-0.1074838,-0.1026191,-0.08824091,0.4866677,-2.762113,0.6394118,-0.0386042,-0.03551862,-0.06742091,0.01148957,-0.008623128,-0.005032892,172.17.160.76,10.64.29.0,1,stationary,1,2014-11-15 18:18:53.341,134,2014-11-15 18:16:20.024,3
2014-11-15 18:18:53.936,48750,1625,40.10487,-88.22189,234.2214,0.9,176.8359,12,10,1416097133,-0.3226929,-0.6125031,0.7476959,-6.093716,-33.47581,-9.30188,193.3329,196.4152,15,-0.07028029,-0.0682989,-0.04361725,0.4881177,-2.76371,0.6410782,-0.02479283,-0.03434182,-0.05154295,-0.03056555,0.009360623,-0.001346616,172.17.160.76,10.64.29.0,1,stationary,1,2014-11-15 18:18:53.341,134,2014-11-15 18:16:20.024,3
2014-11-15 18:18:53.970,48751,1625.033,40.10487,-88.22189,234.2214,0.9,176.8359,12,10,1416097133,-0.3214417,-0.5959778,0.7625732,-5.853168,-33.23493,-9.000732,192.9757,196.058,15,-0.102251,-0.06192329,-0.04558692,0.4889439,-2.763736,0.6423244,-0.03652559,0.02316583,-0.03527289,-0.01882082,-0.02609434,0.00861637,172.17.160.76,10.64.29.0,1,stationary,1,2014-11-15 18:18:53.341,134,2014-11-15 18:16:20.024,3
2014-11-15 18:18:54.003,48752,1625.067,40.10487,-88.22189,234.2214,0.9,176.8359,12,10,1416097133,-0.3080292,-0.5990143,0.7444153,-5.818798,-33.33816,-8.967285,192.9728,196.0551,15,-0.05341662,-0.07847004,0.01783199,0.4891695,-2.763323,0.643261,-0.02168911,-0.006425709,-0.0131915,-0.02593781,0.003830076,0.0189954,172.17.160.76,10.64.29.0,1,stationary,1,2014-11-15 18:18:53.341,134,2014-11-15 18:16:20.024,3
2014-11-15 18:18:54.037,48753,1625.1,40.10487,-88.22189,234.2214,0.9,176.8359,12,10,1416097133,-0.2805786,-0.5951385,0.7366028,-5.681347,-33.68227,-9.301819,192.9693,196.0516,15,-0.06628767,-0.04207155,0.05310077,0.4883117,-2.763046,0.6428777,0.01116193,0.0004363143,0.05359489,-0.01223445,0.0004868543,0.0007057493,172.17.160.76,10.64.29.0,1,stationary,1,2014-11-15 18:18:53.341,134,2014-11-15 18:16:20.024,3
2014-11-15 18:18:54.072,48754,1625.133,40.10485,-88.22188,234.4499,1.19,165.9375,12,10,1416097134,-0.2605133,-0.5965729,0.7478333,-5.543892,-33.26933,-9.502441,192.9644,196.0467,15,-0.03643391,-0.06232383,0.04651344,0.4850045,-2.760982,0.6417569,0.01116946,0.002583701,0.06418829,0.02777239,0.004502749,-0.008918647,172.17.160.76,10.64.29.0,1,stationary,1,2014-11-15 18:18:53.341,134,2014-11-15 18:16:20.024,3
2014-11-15 18:18:54.105,48755,1625.167,40.10485,-88.22188,234.4499,1.19,165.9375,12,10,1416097134,-0.252594,-0.5997162,0.7181702,-5.200249,-33.26933,-9.435547,192.9524,196.0347,15,-0.05035904,-0.05682813,0.06994712,0.4835727,-2.760492,0.6402412,0.03457211,0.003759302,0.0810884,0.03202891,-0.002159427,-0.01429863,172.17.160.76,10.64.29.0,1,stationary,1,2014-11-15 18:18:53.341,134,2014-11-15 18:16:20.024,3
2014-11-15 18:18:54.136,48756,1625.2,40.10485,-88.22188,234.4499,1.19,165.9375,12,10,1416097134,-0.2637482,-0.5773163,0.7312622,-5.268974,-33.4758,-9.301819,192.9432,196.0255,15,-0.09925974,0.02056653,0.04400075,0.4811316,-2.758549,0.6399458,-0.02931865,0.06534757,0.07209606,0.04622077,0.002227038,-0.02238047,172.17.160.76,10.64.29.0,1,stationary,1,2014-11-15 18:18:53.341,134,2014-11-15 18:16:20.024,3
2014-11-15 18:18:54.170,48757,1625.233,40.10485,-88.22188,234.4499,1.19,165.9375,12,10,1416097134,-0.2775726,-0.5361328,0.6737061,-5.681347,-33.75109,-9.435608,192.9332,196.0155,15,-0.0543213,0.03823287,-0.005964149,0.4797332,-2.75539,0.6402151,-0.01313786,0.1085116,0.02024824,0.03216738,0.0263688,-0.0117285,172.17.160.76,10.64.29.0,1,stationary,1,2014-11-15 18:18:53.341,134,2014-11-15 18:16:20.024,3
2014-11-15 18:18:54.205,48758,1625.267,40.10485,-88.22188,234.4499,1.19,165.9375,12,10,1416097134,-0.2914886,-0.502594,0.6245728,-5.750072,-33.40698,-9.435608,192.9347,196.017,15,-0.02125096,0.03816044,-0.01351874,0.4800525,-2.75175,0.6391701,0.04447698,0.09132887,-0.0002262697,0.02698864,0.07136779,-0.09225585,172.17.160.76,10.64.29.0,1,stationary,1,2014-11-15 18:18:53.341,134,2014-11-15 18:16:20.024,3
2014-11-15 18:18:54.236,48759,1625.3,40.10485,-88.22188,234.4499,1.19,165.9375,12,10,1416097134,-0.3396759,-0.5222168,0.6177368,-5.750072,-33.33815,-9.234924,192.9377,196.02,15,0.001057275,0.03941159,0.01294137,0.4804586,-2.749954,0.6383877,0.04238124,0.1061553,0.001964056,0.01504122,0.09330747,-0.1176812,172.17.160.76,10.64.29.0,1,stationary,1,2014-11-15 18:18:53.341,134,2014-11-15 18:16:20.024,3
2014-11-15 18:18:54.270,48760,1625.333,40.10485,-88.22188,234.4499,1.19,165.9375,12,10,1416097134,-0.2610626,-0.4749603,0.5672607,-5.372066,-33.92316,-9.000793,192.9244,196.0067,15,0.03045644,0.07459035,0.1711773,0.4797877,-2.745176,0.6352459,0.09007082,0.1174839,0.09843989,-0.02947646,0.06496359,-0.1325187,172.17.160.76,10.64.29.0,1,stationary,1,2014-11-15 18:18:53.341,134,2014-11-15 18:16:20.024,3
2014-11-15 18:18:54.303,48761,1625.367,40.10485,-88.22188,234.4499,1.19,165.9375,12,10,1416097134,-0.2056427,-0.3699341,0.5348511,-5.475155,-33.95757,-9.034302,192.9171,195.9994,15,-0.01444445,0.06002392,0.2094821,0.4751928,-2.738322,0.630637,0.0833385,0.1481343,0.2175124,0.05588317,0.114699,-0.1756035,172.17.160.76,10.64.29.0,1,unknown,1,2014-11-15 18:18:54.269,134,2014-11-15 18:16:20.024,3
2014-11-15 18:18:54.336,48762,1625.4,40.10485,-88.22188,234.4499,1.19,165.9375,12,10,1416097134,-0.2498016,-0.4691162,0.5797577,-5.303329,-33.78551,-9.134644,192.3939,195.4762,15,0.05070525,-0.00631329,0.1526303,0.4684536,-2.730483,0.6264109,0.05561887,0.1034386,0.2067659,0.1181096,0.2163068,-0.2077835,172.17.160.76,10.64.29.0,1,unknown,1,2014-11-15 18:18:54.269,134,2014-11-15 18:16:20.024,3
2014-11-15 18:18:54.370,48763,1625.433,40.10485,-88.22188,234.4499,1.19,165.9375,12,10,1416097134,-0.2311859,-0.5293427,0.5982819,-5.784428,-33.64787,-9.335266,193.2411,196.3235,15,0.06672177,0.06600751,0.1625045,0.4640928,-2.725816,0.6213921,0.141009,0.0690648,0.1627443,0.09052955,0.1659842,-0.177361,172.17.160.76,10.64.29.0,1,unknown,1,2014-11-15 18:18:54.269,134,2014-11-15 18:16:20.024,3
2014-11-15 18:18:54.404,48764,1625.467,40.10485,-88.22188,234.4499,1.19,165.9375,12,10,1416097134,-0.18396,-0.4203491,0.5830231,-5.921883,-33.64787,-9.53595,193.5658,196.6481,15,-0.06183088,-0.03723206,-0.009517872,0.4579152,-2.716222,0.6136632,0.02294471,0.09394383,0.08262651,0.150782,0.1340631,-0.1666863,172.17.160.76,10.64.29.0,1,unknown,1,2014-11-15 18:18:54.269,134,2014-11-15 18:16:20.024,3
2014-11-15 18:18:54.436,48765,1625.5,40.10485,-88.22188,234.4499,1.19,165.9375,12,10,1416097134,-0.2367706,-0.4995422,0.632431,-6.609165,-33.37257,-9.669739,194.0653,197.1476,15,0.0355508,-0.1968305,-0.1731297,0.4598236,-2.717953,0.6135801,0.06606623,-0.09890406,-0.1255396,0.1327732,0.138878,-0.1431124,172.17.160.76,10.64.29.0,1,unknown,1,2014-11-15 18:18:54.269,134,2014-11-15 18:16:20.024,3
2014-11-15 18:18:54.470,48766,1625.533,40.10485,-88.22188,234.4499,1.19,165.9375,12,10,1416097134,-0.2754211,-0.5736847,0.6325378,-7.021545,-32.75314,-9.536011,195.4913,198.5736,15,0.01324097,-0.1491061,-0.1865941,0.4667602,-2.725654,0.6128116,0.09817638,-0.1109526,-0.1713671,0.08253986,0.04005924,-0.1114609,172.17.160.76,10.64.29.0,1,unknown,1,2014-11-15 18:18:54.269,134,2014-11-15 18:16:20.024,3
2014-11-15 18:18:54.505,48767,1625.567,40.10485,-88.22188,234.4499,1.19,165.9375,12,10,1416097134,-0.265564,-0.5590515,0.6426239,-7.158997,-32.6155,-9.469055,195.7501,198.8324,15,-0.1179951,-0.138119,-0.14677,0.4749249,-2.733129,0.6140152,-0.01272428,-0.07356291,-0.1516483,0.04698354,0.01371488,-0.1318753,172.17.160.76,10.64.29.0,1,unknown,1,2014-11-15 18:18:54.269,134,2014-11-15 18:16:20.024,3
2014-11-15 18:18:54.536,48768,1625.6,40.10485,-88.22188,234.4499,1.19,165.9375,12,10,1416097134,-0.2469482,-0.5768433,0.7159576,-7.193359,-32.64991,-9.502563,195.7037,198.786,15,-0.139413,-0.1431897,-0.1159335,0.4776992,-2.73622,0.6158791,-0.05435934,-0.0702028,-0.1313067,0.05633958,0.0186248,-0.1074882,172.17.160.76,10.64.29.0,1,unknown,1,2014-11-15 18:18:54.269,134,2014-11-15 18:16:20.024,3
2014-11-15 18:18:54.570,48769,1625.633,40.10485,-88.22188,234.4499,1.19,165.9375,12,10,1416097134,-0.2719116,-0.5319824,0.663147,-7.090263,-33.23492,-10.00421,195.4347,198.517,15,-0.1469961,-0.2440212,-0.1015754,0.4802321,-2.73998,0.6191403,-0.08009446,-0.09547822,-0.09315164,0.07139467,0.003491979,-0.03362144,172.17.160.76,10.64.29.0,1,unknown,1,2014-11-15 18:18:54.269,134,2014-11-15 18:16:20.024,3
2014-11-15 18:18:54.603,48770,1625.667,40.10485,-88.22188,234.4499,1.19,165.9375,12,10,1416097134,-0.339325,-0.5990753,0.7401886,-7.296452,-33.1661,-10.6062,195.4062,198.4886,15,-0.1736852,-0.1576815,-0.06705333,0.4824417,-2.748058,0.623727,-0.1047255,-0.1920674,-0.08083038,0.03934196,0.05208202,-0.08651291,172.17.160.76,10.64.29.0,1,unknown,1,2014-11-15 18:18:54.269,134,2014-11-15 18:16:20.024,3
2014-11-15 18:18:54.637,48771,1625.7,40.10485,-88.22188,234.4499,1.19,165.9375,12,10,1416097134,-0.2899323,-0.6118927,0.7810364,-7.262089,-33.13169,-10.84033,195.415,198.4973,15,-0.1854966,0.03203463,0.009355152,0.482758,-2.751268,0.6274054,-0.1111438,-0.007835073,-0.02676218,-0.01858833,0.007929463,-0.03848866,172.17.160.76,10.64.29.0,1,unknown,1,2014-11-15 18:18:54.269,134,2014-11-15 18:16:20.024,3
2014-11-15 18:18:54.671,48772,1625.733,40.10485,-88.22188,234.4499,1.19,165.9375,12,10,1416097134,-0.1972809,-0.5800934,0.7803345,-7.330822,-32.78756,-11.10785,195.4518,198.5341,15,-0.1150486,-0.1108764,-0.05641161,0.4793205,-2.746792,0.6320776,-0.07284606,-0.02043037,-0.003619466,0.06492344,-0.01426507,0.03823701,172.17.160.76,10.64.29.0,1,unknown,1,2014-11-15 18:18:54.269,134,2014-11-15 18:16:20.024,3
2014-11-15 18:18:54.703,48773,1625.767,40.10485,-88.22188,234.4499,1.19,165.9375,12,10,1416097134,-0.2842712,-0.6044159,0.7692566,-7.537006,-33.06286,-11.37549,196.1934,199.2757,15,-0.09039328,-0.151683,-0.1119159,0.4794175,-2.747226,0.6327195,-0.05142991,-0.04303548,-0.04097061,0.1125655,0.01124659,0.03581297,172.17.160.76,10.64.29.0,1,unknown,1,2014-11-15 18:18:54.269,134,2014-11-15 18:16:20.024,3
2014-11-15 18:18:54.737,48774,1625.8,40.10485,-88.22188,234.4499,1.19,165.9375,12,10,1416097134,-0.3516541,-0.6434937,0.7565918,-7.330814,-32.92521,-11.50928,196.1228,199.2051,15,-0.1362021,-0.03250495,-0.09201009,0.4839039,-2.75325,0.6359017,-0.04489831,-0.03075268,-0.09190862,-0.02493289,-0.03655947,0.02404769,172.17.160.76,10.64.29.0,1,unknown,1,2014-11-15 18:18:54.269,134,2014-11-15 18:16:20.024,3
2014-11-15 18:18:54.770,48775,1625.833,40.10485,-88.22188,234.4499,1.19,165.9375,12,10,1416097134,-0.3089752,-0.5535278,0.8039703,-7.70882,-32.68432,-12.3454,196.808,199.8903,15,-0.1715252,0.02429389,-0.03001276,0.4847826,-2.751611,0.6390981,-0.1131923,0.1035842,-0.0357485,-0.04022928,-0.04117773,0.01640456,172.17.160.76,10.64.29.0,1,unknown,1,2014-11-15 18:18:54.269,134,2014-11-15 18:16:20.024,3
2014-11-15 18:18:54.804,48776,1625.867,40.10485,-88.22188,234.4499,1.19,165.9375,12,10,1416097134,-0.3388062,-0.6157532,0.7739563,-7.915001,-32.68432,-12.67981,197.2073,200.2896,15,-0.07137351,0.002033057,-0.01670574,0.4838661,-2.747956,0.6415829,-0.04932231,0.1112377,-0.003041519,-0.001694715,0.04493649,0.06409255,172.17.160.76,10.64.29.0,1,unknown,1,2014-11-15 18:18:54.269,134,2014-11-15 18:16:20.024,3
2014-11-15 18:18:54.837,48777,1625.9,40.10485,-88.22188,234.4499,1.19,165.9375,12,10,1416097134,-0.338028,-0.6528015,0.7968292,-8.533558,-32.75315,-13.61627,197.2994,200.3817,15,-0.04153253,0.06698063,0.002631203,0.4837351,-2.744974,0.6419399,0.003920491,0.06558269,0.005010441,-0.03280614,-0.03886873,0.02918318,172.17.160.76,10.64.29.0,1,unknown,1,2014-11-15 18:18:54.269,134,2014-11-15 18:16:20.024,3
2014-11-15 18:18:54.870,48778,1625.933,40.10485,-88.22188,234.4499,1.19,165.9375,12,10,1416097134,-0.3339233,-0.6953888,0.818634,-8.602295,-32.95963,-13.41559,197.3995,200.4818,15,-0.04363589,0.04987621,-0.01125026,0.4834801,-2.74121,0.6412401,0.02100988,0.1432076,0.01384698,-0.02568361,-0.05461182,0.05885219,172.17.160.76,10.64.29.0,1,unknown,1,2014-11-15 18:18:54.269,134,2014-11-15 18:16:20.024,3
2014-11-15 18:18:54.903,48779,1625.967,40.10485,-88.22188,234.4499,1.19,165.9375,12,10,1416097134,-0.289856,-0.6528168,0.8306885,-8.705387,-32.78756,-13.4491,197.4597,200.542,15,-0.1203988,-0.0735629,-0.04027285,0.4835707,-2.739172,0.6409534,0.002884154,0.07189424,-0.003444451,-0.02000854,-0.09742891,0.08113727,172.17.160.76,10.64.29.0,1,unknown,1,2014-11-15 18:18:54.269,134,2014-11-15 18:16:20.024,3
2014-11-15 18:18:54.937,48780,1626,40.10485,-88.22188,234.4499,1.19,165.9375,12,10,1416097134,-0.3412323,-0.647522,0.8498993,-8.842842,-33.06285,-13.18152,198.9274,202.0097,15,-0.1223137,-0.0102292,-0.09619071,0.483672,-2.738722,0.6433588,-0.08018621,0.03340196,-0.04048808,0.02382635,-0.05293065,0.09465855,172.17.160.76,10.64.29.0,1,unknown,1,2014-11-15 18:18:54.269,134,2014-11-15 18:16:20.024,3
2014-11-15 18:18:54.970,48781,1626.033,40.10485,-88.22188,234.4499,1.19,165.9375,12,10,1416097134,-0.3643188,-0.7089691,0.8509521,-9.220844,-32.89079,-13.41559,198.9794,202.0617,20,-0.1201144,-0.1296331,-0.1488403,0.4853452,-2.738213,0.6459962,-0.04695167,0.03078846,-0.1032538,-0.01334776,-0.03855452,0.1101004,172.17.160.76,10.64.29.0,1,unknown,1,2014-11-15 18:18:54.269,134,2014-11-15 18:16:20.024,3
2014-11-15 18:18:55.004,48782,1626.067,40.10485,-88.22188,234.4499,1.19,165.9375,12,10,1416097134,-0.4067841,-0.7042389,0.8733521,-9.461391,-33.06285,-13.64972,199.9481,203.0304,20,-0.1723883,-0.06776839,-0.1207203,0.4909138,-2.744338,0.6516923,-0.09815377,-0.04363273,-0.111946,-0.08207999,-0.1267283,0.1357672,172.17.160.76,10.64.29.0,1,unknown,1,2014-11-15 18:18:54.269,134,2014-11-15 18:16:20.024,3
2014-11-15 18:18:55.037,48783,1626.1,40.10485,-88.22188,234.4499,1.19,165.9375,12,10,1416097134,-0.3826599,-0.7514343,0.9279633,-9.976856,-33.16609,-14.01758,200.8303,203.9126,20,-0.1511485,0.01546338,-0.07259484,0.4927815,-2.74476,0.6557024,-0.09603402,0.06392022,-0.08060469,-0.1053048,-0.10055,0.1470723,172.17.160.76,10.64.29.0,1,unknown,1,2014-11-15 18:18:54.269,134,2014-11-15 18:16:20.024,3
2014-11-15 18:18:55.071,48784,1626.133,40.10484,-88.22186,234.6178,0.95,161.7188,12,10,1416097135,-0.4083862,-0.750885,0.9164886,-10.3205,-33.09727,-14.21832,201.4557,204.538,20,-0.167157,0.07726203,-0.05097983,0.4931652,-2.74198,0.6585644,-0.08547442,0.1301713,-0.0304058,-0.07496214,-0.1394522,0.1994031,172.17.160.76,10.64.29.0,1,unknown,1,2014-11-15 18:18:54.269,134,2014-11-15 18:16:20.024,3
2014-11-15 18:18:55.104,48785,1626.167,40.10484,-88.22186,234.6178,0.95,161.7188,12,10,1416097135,-0.3893433,-0.7787781,0.9403076,-10.45796,-32.8908,-14.55286,201.4673,204.5496,20,-0.2213457,-0.0104593,-0.132973,0.4932951,-2.738187,0.6627067,-0.1588662,0.09678762,-0.09399579,-0.09892501,-0.1356321,0.1914386,172.17.160.76,10.64.29.0,1,unknown,1,2014-11-15 18:18:54.269,134,2014-11-15 18:16:20.024,3
2014-11-15 18:18:55.138,48786,1626.2,40.10484,-88.22186,234.6178,0.95,161.7188,12,10,1416097135,-0.3420105,-0.7774353,1.002243,-10.28614,-32.99403,-15.0545,201.4843,204.5666,20,-0.157874,-0.1838551,-0.01417627,0.4952374,-2.739091,0.6679325,-0.1152562,-0.07226007,-0.1046027,-0.05790615,-0.1596429,0.2424059,172.17.160.76,10.64.29.0,1,unknown,1,2014-11-15 18:18:54.269,134,2014-11-15 18:16:20.024,3
2014-11-15 18:18:55.170,48787,1626.233,40.10484,-88.22186,234.6178,0.95,161.7188,12,10,1416097135,-0.4418793,-0.7666016,0.9674988,-10.18305,-33.30374,-15.55615,201.4961,204.5784,20,-0.1918994,-0.00201335,0.00283094,0.4927104,-2.740885,0.6713427,-0.09875815,-0.01019085,0.09628235,-0.03659093,-0.1553975,0.2812799,172.17.160.76,10.64.29.0,1,unknown,1,2014-11-15 18:18:54.269,134,2014-11-15 18:16:20.024,3
2014-11-15 18:18:55.203,48788,1626.267,40.10484,-88.22186,234.6178,0.95,161.7188,12,10,1416097135,-0.6007538,-0.8841248,0.9618073,-10.01122,-33.54462,-15.52271,201.4882,204.5705,20,-0.1945327,0.1104882,-0.1557891,0.4899307,-2.737391,0.6743842,-0.135531,0.111747,-0.0653893,-0.1346877,-0.1421851,0.2493501,172.17.160.76,10.64.29.0,1,unknown,1,2014-11-15 18:18:54.269,134,2014-11-15 18:16:20.024,3
2014-11-15 18:18:55.237,48789,1626.3,40.10484,-88.22186,234.6178,0.95,161.7188,12,10,1416097135,-0.4900513,-0.8468628,0.9782867,-9.908131,-33.57904,-15.08795,201.4779,204.5602,20,-0.03868774,0.4229031,-0.1430512,0.4958285,-2.729545,0.6807075,-0.03155527,0.4413649,-0.1701912,-0.3021742,-0.2748929,0.2616249,172.17.160.76,10.64.29.0,1,unknown,1,2014-11-15 18:18:54.269,134,2014-11-15 18:16:20.024,3
2014-11-15 18:18:55.270,48790,1626.333,40.10484,-88.22186,234.6178,0.95,161.7188,12,10,1416097135,-0.3986969,-0.8067627,0.9492188,-9.598843,-34.0264,-14.78687,200.7065,203.7888,20,0.0388233,0.400222,-0.04580451,0.4989028,-2.721668,0.6810203,0.06416328,0.5015014,-0.08000703,-0.2278686,-0.2516548,0.2736625,172.17.160.76,10.64.29.0,1,unknown,1,2014-11-15 18:18:54.269,134,2014-11-15 18:16:20.024,3
2014-11-15 18:18:55.304,48791,1626.367,40.10484,-88.22186,234.6178,0.95,161.7188,12,10,1416097135,-0.3960724,-0.7871857,0.8553162,-9.427025,-33.71669,-14.61969,200.7726,203.8549,20,0.1181413,0.05577938,0.07733953,0.5012453,-2.705966,0.6726653,0.2200805,0.1616696,0.09594838,-0.04938388,-0.2240493,0.1884994,172.17.160.76,10.64.29.0,1,unknown,1,2014-11-15 18:18:54.269,134,2014-11-15 18:16:20.024,3
2014-11-15 18:18:55.336,48792,1626.4,40.10484,-88.22186,234.6178,0.95,161.7188,12,10,1416097135,-0.3920288,-0.6329651,0.7957764,-9.598843,-33.81993,-14.92072,201.0019,204.0842,20,-0.01070218,0.06398511,0.03009851,0.5010039,-2.703317,0.6689603,0.1188426,0.1190401,0.07275032,-0.06316109,-0.1670149,0.1449935,172.17.160.76,10.64.29.0,1,unknown,1,2014-11-15 18:18:54.269,134,2014-11-15 18:16:20.024,3
2014-11-15 18:18:55.370,48793,1626.433,40.10484,-88.22186,234.6178,0.95,161.7188,12,10,1416097135,-0.3097076,-0.7077789,0.8695831,-9.323925,-33.81993,-15.38892,200.8515,203.9339,20,-0.1117393,0.02404835,-0.05889794,0.5002906,-2.695543,0.6695904,-0.06522186,0.1448337,-0.04106482,-0.01585614,-0.007768373,0.1112582,172.17.160.76,10.64.29.0,1,unknown,1,2014-11-15 18:18:54.269,134,2014-11-15 18:16:20.024,3
2014-11-15 18:18:55.403,48794,1626.467,40.10484,-88.22186,234.6178,0.95,161.7188,12,10,1416097135,-0.2810974,-0.7384338,0.868454,-8.911556,-34.09523,-15.38892,200.3241,203.4064,20,-0.05984176,-0.2146636,-0.007275223,0.5007275,-2.694346,0.6706998,-0.02696688,0.02375765,-0.03123089,0.02909485,-0.08624461,0.163249,172.17.160.76,10.64.29.0,1,unknown,1,2014-11-15 18:18:54.269,134,2014-11-15 18:16:20.024,3
2014-11-15 18:18:55.437,48795,1626.5,40.10484,-88.22186,234.6178,0.95,161.7188,12,10,1416097135,-0.3406982,-0.7516632,0.8152466,-8.877201,-34.06081,-15.22168,200.2547,203.337,20,-0.05040139,-0.3218073,0.0165393,0.5008413,-2.694726,0.6709124,-0.01108871,-0.04942615,-0.01256908,0.05277181,-0.109134,0.1735547,172.17.160.76,10.64.29.0,1,unknown,1,2014-11-15 18:18:54.269,134,2014-11-15 18:16:20.024,3
2014-11-15 18:18:55.471,48796,1626.533,40.10484,-88.22186,234.6178,0.95,161.7188,12,10,1416097135,-0.6043396,-0.6962128,0.7832794,-8.980293,-33.47581,-14.45239,200.2948,203.3771,20,-0.1053381,-0.2123077,-0.120671,0.500517,-2.713392,0.6701492,0.01113813,-0.4024853,-0.04954059,-0.1444785,-0.1381591,0.07384983,172.17.160.76,10.64.29.0,1,unknown,1,2014-11-15 18:18:54.269,134,2014-11-15 18:16:20.024,3
2014-11-15 18:18:55.504,48797,1626.567,40.10484,-88.22186,234.6178,0.95,161.7188,12,10,1416097135,-0.4976349,-0.69487,0.7565002,-8.94593,-33.16611,-14.21826,200.2115,203.2938,20,-0.1296091,0.2246334,-0.09174217,0.5024194,-2.719931,0.6710761,-0.04179857,-0.1446783,-0.1053048,-0.2615501,-0.09759233,0.0722171,172.17.160.76,10.64.29.0,1,unknown,1,2014-11-15 18:18:54.269,134,2014-11-15 18:16:20.024,3
2014-11-15 18:18:55.540,48798,1626.6,40.10484,-88.22186,234.6178,0.95,161.7188,12,10,1416097135,-0.3366852,-0.7775879,0.7842102,-8.155556,-33.26934,-13.58276,198.9473,202.0296,20,-0.02235298,0.3224987,0.0707783,0.5040446,-2.69705,0.6750965,0.005218507,0.53104,0.02970099,-0.06315149,-0.1214263,0.05537348,172.17.160.76,10.64.29.0,1,unknown,1,2014-11-15 18:18:54.269,134,2014-11-15 18:16:20.024,3
2014-11-15 18:18:55.570,48799,1626.633,40.10484,-88.22186,234.6178,0.95,161.7188,12,10,1416097135,-0.312912,-0.6182404,0.792923,-7.640095,-33.44141,-13.28174,198.3325,201.4148,20,-0.08101256,-0.1761681,0.3061439,0.499686,-2.686854,0.6722686,0.01911391,0.02259728,0.2413908,0.05096208,-0.08539785,0.1057709,172.17.160.76,10.64.29.0,1,unknown,1,2014-11-15 18:18:54.269,134,2014-11-15 18:16:20.024,3
2014-11-15 18:18:55.604,48800,1626.667,40.10484,-88.22186,234.6178,0.95,161.7188,12,10,1416097135,-0.3778992,-0.5659027,0.727829,-7.846275,-33.57905,-13.14795,198.5947,201.677,20,-0.09737662,-0.2550722,0.409815,0.4867769,-2.683364,0.6684446,-0.05300621,-0.205587,0.4134807,0.009145967,0.03161605,0.06559856,172.17.160.76,10.64.29.0,1,unknown,1,2014-11-15 18:18:54.269,134,2014-11-15 18:16:20.024,3
2014-11-15 18:18:55.636,48801,1626.7,40.10484,-88.22186,234.6178,0.95,161.7188,12,10,1416097135,-0.3110809,-0.6524811,0.7016449,-8.361732,-33.20052,-12.91388,199.5282,202.6105,20,0.03086098,-0.1068673,0.3443033,0.4725858,-2.679143,0.6628791,0.0558653,-0.09206326,0.3977485,-0.02782658,0.03981198,0.01248021,172.17.160.76,10.64.29.0,1,unknown,1,2014-11-15 18:18:54.269,134,2014-11-15 18:16:20.024,3
2014-11-15 18:18:55.670,48802,1626.733,40.10484,-88.22186,234.6178,0.95,161.7188,12,10,1416097135,-0.2835693,-0.6680145,0.6983185,-8.464825,-33.30376,-12.88043,199.7235,202.8058,20,0.0374531,-0.06796973,0.2892864,0.4688829,-2.677382,0.6604423,0.09439845,-0.03924014,0.359669,-0.01570608,0.01594729,0.006528195,172.17.160.76,10.64.29.0,1,unknown,1,2014-11-15 18:18:54.269,134,2014-11-15 18:16:20.024,3
2014-11-15 18:18:55.703,48803,1626.767,40.10484,-88.22186,234.6178,0.95,161.7188,12,10,1416097135,-0.2968597,-0.642334,0.6886597,-8.121193,-33.44141,-12.67975,199.3435,202.4258,20,-0.1406892,-0.1628912,-0.0512821,0.460203,-2.67206,0.6550332,-0.05059107,-0.04075776,0.007791756,0.09533233,-0.06453577,-0.01467065,172.17.160.76,10.64.29.0,1,unknown,1,2014-11-15 18:18:54.269,134,2014-11-15 18:16:20.024,3
2014-11-15 18:18:55.736,48804,1626.8,40.10484,-88.22186,234.6178,0.95,161.7188,12,10,1416097135,-0.4538574,-0.534317,0.6768799,-7.640095,-33.64788,-12.41217,198.4992,201.5815,20,-0.1343855,-0.1924714,-0.02810887,0.4604132,-2.676111,0.6577876,-0.0824886,-0.1836101,-0.05653005,0.05833876,-0.03096642,-0.01849217,172.17.160.76,10.64.29.0,1,unknown,1,2014-11-15 18:18:54.269,134,2014-11-15 18:16:20.024,3
2014-11-15 18:18:55.770,48805,1626.833,40.10484,-88.22186,234.6178,0.95,161.7188,12,10,1416097135,-0.4587402,-0.4980469,0.6468506,-7.605732,-33.26934,-11.64288,198.2831,201.3654,20,-0.09247348,0.2325083,-0.03133529,0.459316,-2.678875,0.6605161,-0.05585829,0.0698025,0.01476238,-0.1013608,0.07920752,-0.02975563,172.17.160.76,10.64.29.0,1,unknown,1,2014-11-15 18:18:54.269,134,2014-11-15 18:16:20.024,3
2014-11-15 18:18:55.803,48806,1626.867,40.10484,-88.22186,234.6178,0.95,161.7188,12,10,1416097135,-0.3442841,-0.4679413,0.5697479,-7.468273,-33.40699,-11.50903,198.0437,201.1261,20,-0.06883392,0.3438141,-0.0648051,0.4591339,-2.670794,0.6615496,-0.02561183,0.3807219,-0.03784926,-0.1008328,0.1162934,-0.05634799,172.17.160.76,10.64.29.0,1,unknown,1,2014-11-15 18:18:54.269,134,2014-11-15 18:16:20.024,3
2014-11-15 18:18:55.837,48807,1626.9,40.10484,-88.22186,234.6178,0.95,161.7188,12,10,1416097135,-0.2575684,-0.4545746,0.5245819,-7.433903,-33.92317,-11.20807,198.0053,201.0876,20,0.04381646,0.1860133,0.01143029,0.4605953,-2.65954,0.6623357,0.02341872,0.3785878,-0.03592122,-0.01156165,0.1507575,-0.1116009,172.17.160.76,10.64.29.0,1,unknown,1,2014-11-15 18:18:54.269,134,2014-11-15 18:16:20.024,3
2014-11-15 18:18:55.872,48808,1626.933,40.10484,-88.22186,234.6178,0.95,161.7188,12,10,1416097135,-0.2409058,-0.4528198,0.4720306,-7.468273,-34.16405,-11.10767,198.0664,201.1487,20,0.1478041,-0.1545587,0.08567416,0.4618273,-2.651077,0.6554422,0.1975366,-0.007224597,0.102572,0.1393168,0.1574072,-0.2076332,172.17.160.76,10.64.29.0,1,unknown,2,2014-11-15 18:18:55.815,134,2014-11-15 18:16:20.024,3
2014-11-15 18:18:55.904,48809,1626.967,40.10484,-88.22186,234.6178,0.95,161.7188,12,10,1416097135,-0.2531433,-0.4481964,0.4638824,-7.296452,-34.06081,-10.53906,197.71,200.7923,20,0.160632,-0.273888,0.04359994,0.4622067,-2.65336,0.6507529,0.2209242,-0.1539874,0.08685081,0.1322962,0.1529658,-0.2306386,172.17.160.76,10.64.29.0,1,unknown,2,2014-11-15 18:18:55.815,134,2014-11-15 18:16:20.024,3
2014-11-15 18:18:55.937,48810,1627,40.10484,-88.22186,234.6178,0.95,161.7188,12,10,1416097135,-0.2363739,-0.4002228,0.4381409,-7.124634,-33.68229,-10.2381,196.9373,200.0196,20,0.1118168,-0.3766242,-0.05653758,0.4664689,-2.66646,0.6424232,0.2061969,-0.32907,-0.02334879,0.1121408,0.1595774,-0.2573248,172.17.160.76,10.64.29.0,1,unknown,2,2014-11-15 18:18:55.815,134,2014-11-15 18:16:20.024,3
2014-11-15 18:18:55.970,48811,1627.033,40.10484,-88.22186,234.6178,0.95,161.7188,12,10,1416097135,-0.2182465,-0.4297943,0.4976807,-7.158997,-34.06081,-10.1377,196.5114,199.5938,20,0.08416788,-0.4300121,-0.09280557,0.4710671,-2.678523,0.6387858,0.1466512,-0.3283615,-0.07407331,0.1222432,0.1959983,-0.2801308,172.17.160.76,10.64.29.0,1,unknown,2,2014-11-15 18:18:55.815,134,2014-11-15 18:16:20.024,3
