time,timestamp,recordtime,lat,long,alt,speed,course,verticalAccuracy,horizontalAccuracy,locTimeStamp,accelerationX,accelerationY,accelerationZ,HeadingX,HeadingY,HeadingZ,TrueHeading,MagneticHeading,HeadingAccuracy,RotationX,RotationY,RotationZ,motionYaw,motionRoll,motionPitch,motionRotationRateX,motionRotationRateY,motionRotationRateZ,motionUserAccelerationX,motionUserAccelerationY,motionUserAccelerationZ,en0,pdp_ip0,DeviceOrientation,Activity,Activity Confidence,Activity Start,Steps,Last Step Date,State
2014-11-13 14:02:04.232,42921,1430.7,40.11401,-88.22447,225.2043,-1,-1,10,65.34491,1415908859,0.01325989,-0.0249939,-1.000198,20.10924,-29.33738,7.043274,211.4743,214.5567,25,-0.05756902,-0.06597236,-0.01605407,-0.6892188,0.01258483,0.02499123,-0.0004424124,-0.001200225,-0.001876573,0.001518558,-0.0005393262,0.0008140167,172.17.160.76,10.175.81.193,5,stationary,2,2014-11-13 14:00:32.598,15,2014-11-13 13:57:29.604,0
2014-11-13 14:02:04.266,42922,1430.733,40.11401,-88.22447,225.2043,-1,-1,10,65.34491,1415908859,0.01043701,-0.02467346,-0.9986877,20.17815,-29.33738,6.976318,211.473,214.5554,25,-0.05863349,-0.06810502,-0.01712279,-0.6892231,0.01262494,0.02500725,-0.0004451728,-0.0001298428,-0.0008095479,0.002317696,4.126397e-05,-0.002910034,172.17.160.76,10.175.81.193,5,stationary,2,2014-11-13 14:00:32.598,15,2014-11-13 13:57:29.604,0
2014-11-13 14:02:04.299,42923,1430.767,40.11401,-88.22447,225.2043,-1,-1,10,65.34491,1415908859,0.01353455,-0.02514648,-1.001266,20.31597,-29.68194,7.043274,211.4698,214.5522,25,-0.05970434,-0.06596331,-0.01498454,-0.6892136,0.01262417,0.02500828,-0.0004479936,0.0009403181,0.0002574477,-0.0002450112,0.0002406558,0.002720444,172.17.160.76,10.175.81.193,5,stationary,2,2014-11-13 14:00:32.598,15,2014-11-13 13:57:29.604,0
2014-11-13 14:02:04.332,42924,1430.8,40.11401,-88.22447,225.2043,-1,-1,10,65.34491,1415908859,0.01138306,-0.02508545,-0.9991455,20.04033,-29.75085,7.043274,211.4632,214.5456,25,-0.05863509,-0.06597183,-0.01605007,-0.6892,0.01259039,0.02500792,-0.0004446807,-0.003318079,-0.0008241524,-0.001508241,-0.0006752253,-0.002695992,172.17.160.76,10.175.81.193,5,stationary,2,2014-11-13 14:00:32.598,15,2014-11-13 13:57:29.604,0
2014-11-13 14:02:04.366,42925,1430.833,40.11401,-88.22447,225.2043,-1,-1,10,65.34491,1415908859,0.0136261,-0.02424622,-0.9992676,20.21261,-29.57857,6.808655,211.4537,214.536,25,-0.05863509,-0.06597183,-0.01605007,-0.6892063,0.01251649,0.02501837,-0.000443394,-0.001193658,-0.0008130546,-0.001129193,-6.969376e-05,0.0004632434,172.17.160.76,10.175.81.193,5,stationary,2,2014-11-13 14:00:32.598,15,2014-11-13 13:57:29.604,0
2014-11-13 14:02:04.399,42926,1430.867,40.11401,-88.22447,225.2043,-1,-1,10,65.34491,1415908859,0.01223755,-0.02485657,-0.9998474,20.35043,-29.23402,7.009766,211.4558,214.5382,25,-0.05757062,-0.06383917,-0.01498135,-0.6892088,0.01248624,0.02498388,-0.001510651,-0.002256129,-0.0008147317,0.001144082,0.0007350653,0.0003424132,172.17.160.76,10.175.81.193,5,stationary,2,2014-11-13 14:00:32.598,15,2014-11-13 13:57:29.604,0
2014-11-13 14:02:04.432,42927,1430.9,40.11401,-88.22447,225.2043,-1,-1,10,65.34491,1415908859,0.0118866,-0.02505493,-0.9988251,20.48824,-29.30293,6.942749,211.4601,214.5424,25,-0.05863828,-0.06596383,-0.01498854,-0.6891901,0.01249055,0.02495237,-0.0004474738,-0.001186534,0.0002483031,0.001124506,0.001008746,-0.0005723814,172.17.160.76,10.175.81.193,5,stationary,2,2014-11-13 14:00:32.598,15,2014-11-13 13:57:29.604,0
2014-11-13 14:02:04.466,42928,1430.933,40.11401,-88.22447,225.2043,-1,-1,10,65.34491,1415908859,0.01231384,-0.02532959,-1.002625,20.62606,-29.92311,7.747192,211.4661,214.5485,25,-0.05969955,-0.06810448,-0.0171188,-0.6891727,0.01249916,0.02496317,0.0006188129,-0.000125045,0.0002497364,-0.0005473095,-0.000643675,-0.0001912885,172.17.160.76,10.175.81.193,5,stationary,2,2014-11-13 14:00:32.598,15,2014-11-13 13:57:29.604,0
2014-11-13 14:02:04.499,42929,1430.967,40.11401,-88.22447,225.2043,-1,-1,10,65.34491,1415908859,0.01434326,-0.02554321,-1.001923,20.9017,-30.26766,7.546143,211.4657,214.548,25,-0.05756822,-0.06490976,-0.01604847,-0.6891859,0.01247182,0.02493271,-0.0004383151,-0.001203103,-0.001872774,0.0009295954,0.0006381337,0.002998899,172.17.160.76,10.175.81.193,5,stationary,2,2014-11-13 14:00:32.598,15,2014-11-13 13:57:29.604,0
2014-11-13 14:02:04.532,42930,1431,40.11401,-88.22447,225.2043,-1,-1,10,65.34491,1415908859,0.01185608,-0.02478027,-1.001297,21.10844,-30.5433,7.546143,211.4665,214.5488,25,-0.05863828,-0.06596383,-0.01498854,-0.6891828,0.01254957,0.02495901,0.001688052,-0.0001254957,0.0002478262,0.001797934,-0.0005867905,-0.002312788,172.17.160.76,10.175.81.193,5,stationary,2,2014-11-13 14:00:32.598,15,2014-11-13 13:57:29.604,0
2014-11-13 14:02:04.566,42931,1431.033,40.11401,-88.22447,225.2043,-1,-1,10,65.34491,1415908859,0.01216125,-0.02563477,-1.003143,20.97061,-29.37182,7.412048,211.4812,214.5636,25,-0.05757222,-0.06596437,-0.01499253,-0.6891825,0.01264339,0.02493771,0.0006252764,0.0009293524,-0.0008042948,0.0007275774,0.0003226945,0.0003721092,172.17.160.76,10.175.81.193,5,stationary,2,2014-11-13 14:00:32.598,15,2014-11-13 13:57:29.604,0
2014-11-13 14:02:04.599,42932,1431.067,40.11401,-88.22447,225.2043,-1,-1,10,65.34491,1415908859,0.01057434,-0.02415466,-0.9968567,21.07397,-29.33736,7.713684,211.5036,214.5859,25,-0.0586271,-0.0638626,-0.01816196,-0.6891632,0.01258423,0.02496281,-0.0004450463,-0.0001253709,0.0002555527,-0.0007238993,-0.0002778194,0.0003264526,172.17.160.76,10.175.81.193,5,stationary,2,2014-11-13 14:00:32.598,15,2014-11-13 13:57:29.604,0
2014-11-13 14:02:04.632,42933,1431.1,40.11401,-88.22447,225.2043,-1,-1,10,65.34491,1415908859,0.01405334,-0.0249939,-0.9983826,21.03952,-29.09618,7.814209,211.5169,214.5993,25,-0.05756982,-0.06703496,-0.01605966,-0.6891807,0.01255159,0.02493772,-0.0004479037,0.0009445828,0.001322588,-0.0008286125,-0.0001350576,-9.975751e-05,172.17.160.76,10.175.81.193,5,stationary,2,2014-11-13 14:00:32.598,15,2014-11-13 13:57:29.604,0
2014-11-13 14:02:04.666,42934,1431.133,40.11401,-88.22447,225.2043,-1,-1,10,65.34491,1415908859,0.01358032,-0.02580261,-1.001541,20.66051,-29.61301,7.646606,211.5273,214.6096,25,-0.05863029,-0.06385461,-0.01710042,-0.6891688,0.01258212,0.02492798,-0.001508168,-0.0001251361,0.0002613491,0.00147547,-6.849881e-05,0.001227616,172.17.160.76,10.175.81.193,5,stationary,2,2014-11-13 14:00:32.598,15,2014-11-13 13:57:29.604,0
2014-11-13 14:02:04.699,42935,1431.167,40.11401,-88.22447,225.2043,-1,-1,10,65.34491,1415908859,0.01177979,-0.02500916,-0.9971924,20.21259,-29.234,7.479004,211.5274,214.6098,25,-0.05756902,-0.06597236,-0.01605407,-0.6891654,0.0125749,0.02493583,-0.000442401,-0.0001262364,0.0002572625,0.001009661,-0.0008693631,-0.001931058,172.17.160.76,10.175.81.193,5,stationary,2,2014-11-13 14:00:32.598,15,2014-11-13 13:57:29.604,0
2014-11-13 14:02:04.732,42936,1431.2,40.11401,-88.22447,225.2043,-1,-1,10,65.34491,1415908859,0.01361084,-0.02490234,-1.001022,20.07477,-29.50964,7.143799,211.5176,214.6,25,-0.05650296,-0.06597289,-0.01605806,-0.6891654,0.01259052,0.02491367,0.000627943,0.001989914,-0.000797215,-0.0008064915,-9.806087e-05,0.002418053,172.17.160.76,10.175.81.193,5,stationary,2,2014-11-13 14:00:32.598,15,2014-11-13 13:57:29.604,0
2014-11-13 14:02:04.766,42937,1431.233,40.11401,-88.22447,225.2043,-1,-1,10,65.34491,1415908859,0.01281738,-0.02459717,-1.001129,20.52269,-29.47518,6.842163,211.5198,214.6022,25,-0.05650535,-0.0649023,-0.01499093,-0.6891622,0.01264014,0.02493676,0.001683968,-0.002245299,0.001299355,0.002012566,0.0006727009,0.0004942442,172.17.160.76,10.175.81.193,5,stationary,2,2014-11-13 14:00:32.598,15,2014-11-13 13:57:29.604,0
2014-11-13 14:02:04.799,42938,1431.267,40.11401,-88.22447,225.2043,-1,-1,10,65.34491,1415908859,0.01243591,-0.02528381,-0.9976501,20.86725,-29.61301,6.90918,211.5276,214.61,25,-0.05863588,-0.06703443,-0.01605567,-0.6891492,0.01266383,0.02495435,-0.001509817,-0.0001269686,0.0002608747,0.0004477492,-0.0002710129,-0.001307031,172.17.160.76,10.175.81.193,5,stationary,2,2014-11-13 14:00:32.598,15,2014-11-13 13:57:29.604,0
2014-11-13 14:02:04.832,42939,1431.3,40.11401,-88.22447,225.2043,-1,-1,10,65.34491,1415908859,0.01353455,-0.02644348,-1.002396,20.69497,-29.64747,6.674561,211.5306,214.6129,25,-0.05756902,-0.06597236,-0.01605407,-0.6891409,0.01266104,0.02494855,-0.000439958,0.000935176,0.0002640494,-0.0002208485,-0.0006125092,0.002309482,172.17.160.76,10.175.81.193,5,stationary,2,2014-11-13 14:00:32.598,15,2014-11-13 13:57:29.604,0
2014-11-13 14:02:04.866,42940,1431.333,40.11401,-88.22447,225.2043,-1,-1,10,65.34491,1415908859,0.01141357,-0.02470398,-0.9970245,20.86725,-30.02648,6.976257,211.5318,214.6142,25,-0.05863428,-0.06490923,-0.01604448,-0.6891443,0.01269641,0.02498697,-0.0004369645,0.0009268805,-0.0007975851,-2.731409e-05,-0.0005893602,-0.00280362,172.17.160.76,10.175.81.193,5,stationary,2,2014-11-13 14:00:32.598,15,2014-11-13 13:57:29.604,0
2014-11-13 14:02:04.899,42941,1431.367,40.11401,-88.22447,225.2043,-1,-1,10,65.34491,1415908859,0.01266479,-0.0252533,-0.9992676,20.86725,-29.61302,7.177368,211.5418,214.6242,25,-0.05863668,-0.06809703,-0.01606126,-0.6891331,0.01270154,0.02498087,0.0006254653,0.0009337084,0.0002598303,0.00164603,0.0003811009,-0.0003316087,172.17.160.76,10.175.81.193,5,stationary,2,2014-11-13 14:00:32.598,15,2014-11-13 13:57:29.604,0
2014-11-13 14:02:04.932,42942,1431.4,40.11401,-88.22447,225.2043,-1,-1,10,65.34491,1415908859,0.01194763,-0.0252533,-0.9995422,20.83279,-29.57856,7.479004,211.5471,214.6295,25,-0.05756902,-0.06597236,-0.01605407,-0.6891359,0.01268255,0.02498509,-0.0004431979,-0.002253886,0.0002469665,-0.000990018,-0.000331838,0.002033639,172.17.160.76,10.175.81.193,5,stationary,2,2014-11-13 14:00:32.598,15,2014-11-13 13:57:29.604,0
2014-11-13 14:02:04.966,42943,1431.433,40.11401,-88.22447,225.2043,-1,-1,10,65.34491,1415908859,0.01252747,-0.02476501,-0.9962158,20.31596,-28.99283,7.378479,211.5555,214.6378,25,-0.05863588,-0.06703443,-0.01605567,-0.6891377,0.01262443,0.02499663,-0.0004380172,0.000925236,-0.0007978842,-0.0006725201,-0.0002592639,6.570188e-05,172.17.160.76,10.175.81.193,5,stationary,2,2014-11-13 14:00:32.598,15,2014-11-13 13:57:29.604,0
2014-11-13 14:02:04.998,42944,1431.467,40.11401,-88.22447,225.2043,-1,-1,10,65.34491,1415908859,0.01220703,-0.02511597,-0.9975128,20.45378,-29.26848,7.57959,211.5584,214.6407,25,-0.05649976,-0.06598088,-0.0171196,-0.6891402,0.01260991,0.02498678,-0.002567073,0.0009267037,-0.0007884346,-7.817058e-05,0.0002191642,0.003392547,172.17.160.76,10.175.81.193,5,stationary,2,2014-11-13 14:00:32.598,15,2014-11-13 13:57:29.604,0
2014-11-13 14:02:05.032,42945,1431.5,40.11401,-88.22447,225.2043,-1,-1,10,65.34491,1415908859,0.0118866,-0.0246582,-0.9994049,20.31597,-29.19957,7.043396,211.5598,214.6422,25,-0.05969795,-0.06597929,-0.01710761,-0.6891382,0.01264677,0.02501544,-0.0004394341,-0.0001295789,0.0002593559,-0.0003286386,-8.787251e-05,-0.001293083,172.17.160.76,10.175.81.193,5,stationary,2,2014-11-13 14:00:32.598,15,2014-11-13 13:57:29.604,0
2014-11-13 14:02:05.066,42946,1431.533,40.11401,-88.22447,225.2043,-1,-1,10,65.34491,1415908859,0.01174927,-0.02574158,-0.9994507,20.69497,-29.71638,7.210938,211.5636,214.646,25,-0.05863428,-0.06490923,-0.01604448,-0.6891379,0.01265263,0.02497971,-0.0004397527,-0.0001298931,0.0002592737,-0.000487091,0.0002883882,0.0002183564,172.17.160.76,10.175.81.193,5,stationary,2,2014-11-13 14:00:32.598,15,2014-11-13 13:57:29.604,0
2014-11-13 14:02:05.099,42947,1431.567,40.11401,-88.22447,225.2043,-1,-1,10,65.34491,1415908859,0.01228333,-0.02507019,-1.002502,20.52269,-29.61302,6.976318,211.5641,214.6464,25,-0.05863269,-0.06278402,-0.0160333,-0.6891009,0.01267119,0.02502139,0.0006253065,-0.001193535,0.000249559,-7.838031e-05,-0.001531517,0.002368569,172.17.160.76,10.175.81.193,5,stationary,2,2014-11-13 14:00:32.598,15,2014-11-13 13:57:29.604,0
2014-11-13 14:02:05.132,42948,1431.6,40.11401,-88.22447,225.2043,-1,-1,10,65.34491,1415908859,0.01118469,-0.02459717,-0.9979401,20.24706,-29.81975,7.445557,211.5545,214.6369,25,-0.05756503,-0.06491775,-0.01711001,-0.6891081,0.01268469,0.02501461,-0.001504143,-0.001191898,0.0002587606,0.0003964037,-0.0002412908,0.0001560429,172.17.160.76,10.175.81.193,5,stationary,2,2014-11-13 14:00:32.598,15,2014-11-13 13:57:29.604,0
2014-11-13 14:02:05.166,42949,1431.633,40.11401,-88.22447,225.2043,-1,-1,10,65.34491,1415908859,0.01295471,-0.02616882,-1.000748,20.14369,-29.50966,7.412048,211.5439,214.6263,25,-0.05756423,-0.06385515,-0.01710442,-0.6891255,0.01266392,0.0250003,0.0006331719,0.001986217,-0.0007940803,-0.001474935,0.0004005237,0.001667284,172.17.160.76,10.175.81.193,5,stationary,2,2014-11-13 14:00:32.598,15,2014-11-13 13:57:29.604,0
2014-11-13 14:02:05.199,42950,1431.667,40.11401,-88.22447,225.2043,-1,-1,10,65.34491,1415908859,0.01400757,-0.0254364,-1.000488,20.28151,-29.71638,7.546143,211.5402,214.6225,25,-0.05756503,-0.06491775,-0.01711001,-0.6891264,0.01267795,0.0250159,-0.0004388108,-0.001193407,0.0002545565,0.0003421078,4.991064e-05,0.002856902,172.17.160.76,10.175.81.193,5,stationary,2,2014-11-13 14:00:32.598,15,2014-11-13 13:57:29.604,0
2014-11-13 14:02:05.232,42951,1431.7,40.11401,-88.22447,225.2043,-1,-1,10,65.34491,1415908859,0.0144043,-0.02566528,-0.9978638,20.52269,-29.95757,7.37854,211.5382,214.6206,25,-0.05970594,-0.06808851,-0.01499573,-0.6891316,0.01272154,0.02501902,0.0006318195,0.0009230096,-0.0007998531,0.0007105229,-5.377938e-05,-0.001889213,172.17.160.76,10.175.81.193,5,stationary,2,2014-11-13 14:00:32.598,15,2014-11-13 13:57:29.604,0
2014-11-13 14:02:05.266,42952,1431.733,40.11401,-88.22447,225.2043,-1,-1,10,65.34491,1415908859,0.01321411,-0.02549744,-0.9998016,20.10923,-30.02648,7.445557,211.5227,214.6051,25,-0.05756902,-0.06597236,-0.01605407,-0.6891173,0.01276617,0.02499761,-0.0004378727,0.0009313491,0.0002655376,0.0002233911,0.0008708592,0.001772863,172.17.160.76,10.175.81.193,5,stationary,2,2014-11-13 14:00:32.598,15,2014-11-13 13:57:29.604,0
2014-11-13 14:02:05.299,42953,1431.767,40.11401,-88.22447,225.2043,-1,-1,10,65.34491,1415908859,0.01403809,-0.02560425,-0.9963226,20.07478,-29.64748,7.546143,211.517,214.5993,25,-0.05863588,-0.06703443,-0.01605567,-0.6891256,0.01278389,0.02499168,0.00169587,-0.0001313211,0.0002530209,0.0004345576,-0.0005083593,-0.0001955988,172.17.160.76,10.175.81.193,5,stationary,2,2014-11-13 14:00:32.598,15,2014-11-13 13:57:29.604,0
2014-11-13 14:02:05.332,42954,1431.8,40.11401,-88.22447,225.2043,-1,-1,10,65.34491,1415908859,0.01312256,-0.02474976,-0.9999084,19.76468,-29.19956,7.37854,211.5034,214.5858,25,-0.05863588,-0.06703443,-0.01605567,-0.689142,0.0128104,0.02499089,-0.001502714,-0.000130159,0.0002648561,0.001689796,-0.0002497488,-0.002896724,172.17.160.76,10.175.81.193,5,stationary,2,2014-11-13 14:00:32.598,15,2014-11-13 13:57:29.604,0
2014-11-13 14:02:05.366,42955,1431.833,40.11401,-88.22447,225.2043,-1,-1,10,65.34491,1415908859,0.01239014,-0.02505493,-1.001373,20.14369,-29.44074,7.412048,211.5035,214.5859,25,-0.05756822,-0.06490976,-0.01604847,-0.6891383,0.01286237,0.02495873,-0.00150245,0.0009322208,0.0002703103,0.002492328,8.017534e-06,-0.00034837,172.17.160.76,10.175.81.193,5,stationary,2,2014-11-13 14:00:32.598,15,2014-11-13 13:57:29.604,0
2014-11-13 14:02:05.400,42956,1431.867,40.11401,-88.22447,225.2043,-1,-1,10,65.34491,1415908859,0.01251221,-0.02577209,-0.9987183,20.07478,-29.37183,7.210938,211.5007,214.5831,25,-0.05757062,-0.06809756,-0.01606525,-0.6891283,0.01289608,0.02498467,-0.0004365554,0.0009314956,0.0002662487,-0.0005015611,-7.286546e-05,-0.001768519,172.17.160.76,10.175.81.193,5,stationary,2,2014-11-13 14:00:32.598,15,2014-11-13 13:57:29.604,0
2014-11-13 14:02:05.432,42957,1431.9,40.11401,-88.22447,225.2043,-1,-1,10,65.34491,1415908859,0.01368713,-0.02490234,-0.9993744,20.41933,-29.23402,7.881287,211.5071,214.5895,25,-0.05756902,-0.06597236,-0.01605407,-0.6891592,0.01282408,0.02502358,-0.0004320523,-0.001210487,-0.001868128,-0.001039929,-0.0009647496,-0.001188732,172.17.160.76,10.175.81.193,5,stationary,2,2014-11-13 14:00:32.598,15,2014-11-13 13:57:29.604,0
2014-11-13 14:02:05.466,42958,1431.933,40.11401,-88.22447,225.2043,-1,-1,10,65.34491,1415908859,0.01321411,-0.02545166,-1.000122,20.59161,-29.26847,7.646606,211.5157,214.598,25,-0.05863029,-0.06385461,-0.01710042,-0.6891688,0.01278429,0.02500614,-0.001498143,-0.000138295,-0.0007960398,-0.0008017917,0.0003758446,0.0007043034,172.17.160.76,10.175.81.193,5,stationary,2,2014-11-13 14:00:32.598,15,2014-11-13 13:57:29.604,0
2014-11-13 14:02:05.499,42959,1431.967,40.11401,-88.22447,225.2043,-1,-1,10,65.34491,1415908859,0.014328,-0.02508545,-0.9973907,20.79835,-29.54411,7.914734,211.5211,214.6035,25,-0.05757062,-0.06809756,-0.01606525,-0.6891831,0.01280367,0.02501248,-0.0004326478,-0.0001393255,-0.0008001851,-0.0004854762,0.0004737413,-0.001996909,172.17.160.76,10.175.81.193,5,stationary,2,2014-11-13 14:00:32.598,15,2014-11-13 13:57:29.604,0
2014-11-13 14:02:05.532,42960,1432,40.11401,-88.22447,225.2043,-1,-1,10,65.34491,1415908859,0.01219177,-0.02458191,-0.9990234,20.48826,-30.12985,7.613098,211.5131,214.5954,25,-0.05757142,-0.06490177,-0.01498694,-0.6891814,0.0127994,0.02503487,0.001699149,-0.0001407095,-0.0008082736,0.001532963,-5.31892e-05,0.002214011,172.17.160.76,10.175.81.193,5,stationary,2,2014-11-13 14:00:32.598,15,2014-11-13 13:57:29.604,0
2014-11-13 14:02:05.566,42961,1432.033,40.11401,-88.22447,225.2043,-1,-1,10,65.34491,1415908859,0.01516724,-0.02456665,-1.000961,20.48826,-29.50966,7.546082,211.5095,214.5919,25,-0.05863748,-0.06490123,-0.01498294,-0.6891633,0.01280462,0.02502406,0.001695483,-0.0001330971,0.0002531609,-0.0006084912,0.0004395407,0.0005815246,172.17.160.76,10.175.81.193,5,stationary,2,2014-11-13 14:00:32.598,15,2014-11-13 13:57:29.604,0
2014-11-13 14:02:05.599,42962,1432.067,40.11401,-88.22447,225.2043,-1,-1,10,65.34491,1415908859,0.01286316,-0.02558899,-1.000992,20.4538,-29.61302,7.177368,211.5096,214.592,25,-0.05863269,-0.06704242,-0.0171172,-0.6891595,0.01278076,0.02501017,0.0006338616,0.001984052,-0.0007932877,-0.001103443,0.0004103928,-0.0007605962,172.17.160.76,10.175.81.193,5,stationary,2,2014-11-13 14:00:32.598,15,2014-11-13 13:57:29.604,0
2014-11-13 14:02:05.633,42963,1432.1,40.11401,-88.22447,225.2043,-1,-1,10,65.34491,1415908859,0.01251221,-0.02519226,-1.001511,20.72944,-29.54411,7.378418,211.5202,214.6025,25,-0.05863509,-0.06597183,-0.01605007,-0.6891757,0.01286717,0.02499976,0.001697748,0.0009302292,0.0002593007,3.635858e-07,-0.0005918372,-0.001387054,172.17.160.76,10.175.81.193,5,stationary,2,2014-11-13 14:00:32.598,15,2014-11-13 13:57:29.604,0
2014-11-13 14:02:05.666,42964,1432.133,40.11401,-88.22447,225.2043,-1,-1,10,65.34491,1415908859,0.01251221,-0.02456665,-0.9976196,20.41935,-29.71638,7.479004,211.5225,214.6048,25,-0.05863269,-0.06704242,-0.0171172,-0.6891758,0.01290378,0.02499841,-0.0004348172,0.0009308166,0.0002671582,0.0006809274,0.000261306,0.001801595,172.17.160.76,10.175.81.193,5,stationary,2,2014-11-13 14:00:32.598,15,2014-11-13 13:57:29.604,0
2014-11-13 14:02:05.699,42965,1432.167,40.11401,-88.22447,225.2043,-1,-1,10,65.34491,1415908859,0.01374817,-0.0249176,-0.9984894,20.17816,-29.5441,7.646606,211.5192,214.6016,25,-0.05863029,-0.06385461,-0.01710042,-0.6891751,0.01283791,0.02500256,-0.0004376771,-0.002257723,0.0002502564,0.001738595,5.183638e-05,0.0008715526,172.17.160.76,10.175.81.193,5,stationary,2,2014-11-13 14:00:32.598,15,2014-11-13 13:57:29.604,0
2014-11-13 14:02:05.732,42966,1432.2,40.11401,-88.22447,225.2043,-1,-1,10,65.34491,1415908859,0.01342773,-0.02458191,-0.9983368,20.59163,-29.61301,7.311401,211.5184,214.6008,25,-0.05863349,-0.06810502,-0.01712279,-0.689179,0.01286027,0.0250355,0.0006281312,-0.0022585,0.0002461604,0.0005565873,-0.0003882581,0.0008551827,172.17.160.76,10.175.81.193,5,stationary,2,2014-11-13 14:00:32.598,15,2014-11-13 13:57:29.604,0
2014-11-13 14:02:05.766,42967,1432.233,40.11401,-88.22447,225.2043,-1,-1,10,65.34491,1415908859,0.01121521,-0.02600098,-0.9981689,20.7639,-30.06093,7.411987,211.5178,214.6001,25,-0.05863748,-0.06490123,-0.01498294,-0.6891708,0.01280938,0.02504106,-0.0004398345,-0.0001252271,0.001322798,0.0006227251,0.0004565331,0.001267684,172.17.160.76,10.175.81.193,5,stationary,2,2014-11-13 14:00:32.598,15,2014-11-13 13:57:29.604,0
2014-11-13 14:02:05.799,42968,1432.267,40.11401,-88.22447,225.2043,-1,-1,10,65.34491,1415908859,0.01373291,-0.02430725,-0.9984894,20.86727,-29.95757,7.244446,211.5202,214.6026,25,-0.05863189,-0.06597982,-0.01711161,-0.6891607,0.0128303,0.02506614,0.00169841,0.0009290417,0.0002593133,-0.001549672,-0.0003271097,-0.0004727145,172.17.160.76,10.175.81.193,5,stationary,2,2014-11-13 14:00:32.598,15,2014-11-13 13:57:29.604,0
2014-11-13 14:02:05.832,42969,1432.3,40.11401,-88.22447,225.2043,-1,-1,10,65.34491,1415908859,0.01374817,-0.02478027,-0.9990387,20.35044,-29.71638,7.278015,211.5183,214.6007,25,-0.05756822,-0.06490976,-0.01604847,-0.6891647,0.01287699,0.02506901,0.000631946,0.0009293767,0.0002632051,0.0008603253,0.000759131,0.001113528,172.17.160.76,10.175.81.193,5,stationary,2,2014-11-13 14:00:32.598,15,2014-11-13 13:57:29.604,0
2014-11-13 14:02:05.866,42970,1432.333,40.11401,-88.22447,225.2043,-1,-1,10,65.34491,1415908859,0.01509094,-0.0247345,-0.9988556,20.28152,-29.71638,7.412109,211.5137,214.596,25,-0.05863588,-0.06703443,-0.01605567,-0.6891683,0.01294671,0.0250674,-0.0004328898,0.003054892,0.0002782811,0.0008058918,0.0002845058,0.0005633517,172.17.160.76,10.175.81.193,5,stationary,2,2014-11-13 14:00:32.598,15,2014-11-13 13:57:29.604,0
2014-11-13 14:02:05.899,42971,1432.367,40.11401,-88.22447,225.2043,-1,-1,10,65.34491,1415908859,0.01066589,-0.02600098,-1.001022,20.38489,-29.68192,7.579712,211.5121,214.5945,25,-0.05863509,-0.06597183,-0.01605007,-0.6891559,0.01295632,0.02506058,-0.0004380871,0.000937368,0.001328515,-0.0004244234,-0.001263455,0.0007007273,172.17.160.76,10.175.81.193,5,stationary,2,2014-11-13 14:00:32.598,15,2014-11-13 13:57:29.604,0
2014-11-13 14:02:05.932,42972,1432.4,40.11401,-88.22447,225.2043,-1,-1,10,65.34491,1415908859,0.012146,-0.02456665,-0.9995575,20.76389,-29.71638,7.345032,211.518,214.6003,25,-0.05757222,-0.06596437,-0.01499253,-0.6891594,0.01289083,0.02504366,-0.0004346888,-0.002258303,0.000250506,0.001456831,0.0007337935,-7.620109e-05,172.17.160.76,10.175.81.193,5,stationary,2,2014-11-13 14:00:32.598,15,2014-11-13 13:57:29.604,0
2014-11-13 14:02:05.965,42973,1432.433,40.11401,-88.22447,225.2043,-1,-1,10,65.34491,1415908859,0.01361084,-0.02485657,-0.9985962,21.28072,-29.61301,6.976318,211.5346,214.617,25,-0.05863428,-0.06490923,-0.01604448,-0.6891486,0.0128796,0.02505392,0.0006301365,0.0009363496,0.001324697,0.002383586,-0.0003698399,0.0007171436,172.17.160.76,10.175.81.193,5,stationary,2,2014-11-13 14:00:32.598,15,2014-11-13 13:57:29.604,0
2014-11-13 14:02:05.999,42974,1432.467,40.11401,-88.22447,225.2043,-1,-1,10,65.34491,1415908859,0.01196289,-0.02536011,-0.9998932,21.10845,-29.57855,7.210999,211.5439,214.6262,25,-0.05863349,-0.06384663,-0.01603889,-0.6891614,0.01284551,0.02503688,-0.001497563,-0.001204253,-0.0008016672,-0.001259707,0.0004676185,0.002320182,172.17.160.76,10.175.81.193,5,stationary,2,2014-11-13 14:00:32.598,15,2014-11-13 13:57:29.604,0
2014-11-13 14:02:06.032,42975,1432.5,40.11401,-88.22447,225.2043,-1,-1,10,65.34491,1415908859,0.01213074,-0.02461243,-0.9982452,20.66053,-29.68192,7.110474,211.5508,214.6331,25,-0.05756582,-0.06598035,-0.0171156,-0.6891615,0.0128665,0.02504771,0.001698014,-0.0001355171,0.0002534113,-0.0008992184,-0.0003150154,-0.0002896123,172.17.160.76,10.175.81.193,5,stationary,2,2014-11-13 14:00:32.598,15,2014-11-13 13:57:29.604,0
2014-11-13 14:02:06.066,42976,1432.533,40.11401,-88.22447,225.2043,-1,-1,10,65.34491,1415908859,0.01473999,-0.02450562,-1.002853,20.48825,-29.85419,7.412109,211.5518,214.6342,25,-0.05863588,-0.06703443,-0.01605567,-0.689184,0.0128212,0.02504672,0.0006378968,0.004106574,-0.0007818983,-0.002166193,-0.001078946,0.001343685,172.17.160.76,10.175.81.193,5,stationary,2,2014-11-13 14:00:32.598,15,2014-11-13 13:57:29.604,0
2014-11-13 14:02:06.099,42977,1432.567,40.11401,-88.22447,225.2043,-1,-1,10,65.34491,1415908859,0.01464844,-0.02603149,-0.9995117,20.59161,-30.2332,7.445618,211.5474,214.6297,25,-0.05756503,-0.06491775,-0.01711001,-0.6891658,0.01283946,0.02501215,-0.0004310808,0.0009279529,0.0002670967,0.0004095349,-0.0002132374,0.0006118936,172.17.160.76,10.175.81.193,5,stationary,2,2014-11-13 14:00:32.598,15,2014-11-13 13:57:29.604,0
2014-11-13 14:02:06.132,42978,1432.6,40.11401,-88.22447,225.2043,-1,-1,10,65.34491,1415908859,0.01222229,-0.0244751,-0.9983826,20.48825,-29.9231,7.61322,211.5396,214.6219,25,-0.05756662,-0.06704295,-0.0171212,-0.689182,0.01294971,0.02504616,0.000637927,0.0009195374,-0.0007985424,0.001703149,-0.0009879544,9.082258e-05,172.17.160.76,10.175.81.193,5,stationary,2,2014-11-13 14:00:32.598,15,2014-11-13 13:57:29.604,0
2014-11-13 14:02:06.166,42979,1432.633,40.11401,-88.22447,225.2043,-1,-1,10,65.34491,1415908859,0.01280212,-0.02578735,-1.001083,19.97142,-30.02647,7.244446,211.5198,214.6022,25,-0.05862949,-0.0670504,-0.01817874,-0.6891867,0.01289494,0.02504903,0.0006361002,-0.001206104,-0.0008097883,-0.0005309142,0.0003576901,-0.0003052703,172.17.160.76,10.175.81.193,5,stationary,2,2014-11-13 14:00:32.598,15,2014-11-13 13:57:29.604,0
2014-11-13 14:02:06.198,42980,1432.667,40.11401,-88.22447,225.2043,-1,-1,10,65.34491,1415908859,0.01269531,-0.02455139,-0.996109,19.97142,-29.68192,6.976318,211.5124,214.5947,25,-0.05970354,-0.0691591,-0.01606286,-0.6892146,0.01293241,0.0251109,-0.0004278595,0.00198182,-0.0007891644,-0.0001258515,-0.0006790936,-0.001482232,172.17.160.76,10.175.81.193,5,stationary,2,2014-11-13 14:00:32.598,15,2014-11-13 13:57:29.604,0
2014-11-13 14:02:06.232,42981,1432.7,40.11401,-88.22447,225.2043,-1,-1,10,65.34491,1415908859,0.01182556,-0.02600098,-1.000488,20.1437,-29.9231,7.278015,211.497,214.5794,25,-0.06076721,-0.06597076,-0.01604208,-0.6891911,0.01292713,0.02509351,-0.0004324413,0.0009266073,0.0002666136,-0.0004104979,-0.0005744043,-0.0002152481,172.17.160.76,10.175.81.193,5,stationary,2,2014-11-13 14:00:32.598,15,2014-11-13 13:57:29.604,0
2014-11-13 14:02:06.266,42982,1432.733,40.11401,-88.22447,225.2043,-1,-1,10,65.34491,1415908859,0.01365662,-0.02455139,-0.9981232,20.41935,-29.71637,7.948425,211.4942,214.5766,25,-0.05756582,-0.06598035,-0.0171156,-0.6891903,0.0128961,0.02510352,-0.0004314311,-0.001198118,0.000255533,-0.001066115,-0.0009000936,-0.0008864854,172.17.160.76,10.175.81.193,5,stationary,2,2014-11-13 14:00:32.598,15,2014-11-13 13:57:29.604,0
2014-11-13 14:02:06.299,42983,1432.767,40.11401,-88.22447,225.2043,-1,-1,10,65.34491,1415908859,0.01147461,-0.02497864,-0.9971313,20.28153,-29.71637,7.814392,211.4911,214.5734,25,-0.05863509,-0.06597183,-0.01605007,-0.6891853,0.01289764,0.02508885,-0.000431128,-0.0001359692,0.0002610109,-0.0009608509,-0.0003196686,-0.001511747,172.17.160.76,10.175.81.193,5,stationary,2,2014-11-13 14:00:32.598,15,2014-11-13 13:57:29.604,0
2014-11-13 14:02:06.332,42984,1432.8,40.11401,-88.22447,225.2043,-1,-1,10,65.34491,1415908859,0.01264954,-0.02612305,-0.9989624,20.7639,-29.44073,7.814392,211.5007,214.5831,25,-0.05650136,-0.06384769,-0.01604688,-0.6891825,0.01285786,0.02509155,0.0006337566,-0.001199591,0.0002513281,-0.00137885,0.0001102756,0.002471241,172.17.160.76,10.175.81.193,5,stationary,2,2014-11-13 14:00:32.598,15,2014-11-13 13:57:29.604,0
2014-11-13 14:02:06.365,42985,1432.833,40.11401,-88.22447,225.2043,-1,-1,10,65.34491,1415908859,0.01330566,-0.02494812,-0.9993744,20.3849,-29.33736,7.378662,211.5026,214.585,25,-0.05863588,-0.06703443,-0.01605567,-0.6891847,0.0128578,0.02509732,0.000637418,-0.000145481,-0.0008047115,-0.0002038572,-0.001028362,0.0006400422,172.17.160.76,10.175.81.193,5,stationary,2,2014-11-13 14:00:32.598,15,2014-11-13 13:57:29.604,0
2014-11-13 14:02:06.399,42986,1432.867,40.11401,-88.22447,225.2043,-1,-1,10,65.34491,1415908859,0.01158142,-0.02598572,-0.9997711,20.62609,-29.37181,7.144043,211.5124,214.5948,25,-0.05863349,-0.06384663,-0.01603889,-0.6891797,0.01284955,0.02509256,-0.0004275597,0.001979712,-0.0007896617,-0.0009585581,0.0002791303,0.000899667,172.17.160.76,10.175.81.193,5,stationary,2,2014-11-13 14:00:32.598,15,2014-11-13 13:57:29.604,0
2014-11-13 14:02:06.432,42987,1432.9,40.11401,-88.22447,225.2043,-1,-1,10,65.34491,1415908859,0.01152039,-0.02459717,-1.000824,20.48827,-30.06092,7.21106,211.5087,214.5911,25,-0.05756982,-0.06703496,-0.01605966,-0.689171,0.01282308,0.02508651,-0.001499732,-0.001190609,0.001320639,-0.001527192,-0.000184673,0.001479992,172.17.160.76,10.175.81.193,5,stationary,2,2014-11-13 14:00:32.598,15,2014-11-13 13:57:29.604,0
2014-11-13 14:02:06.466,42988,1432.933,40.11401,-88.22447,225.2043,-1,-1,10,65.34491,1415908859,0.01339722,-0.02476501,-0.9985962,20.41936,-30.33656,7.144043,211.4919,214.5742,25,-0.05969795,-0.06597929,-0.01710761,-0.6891885,0.01279953,0.0251091,0.0006373301,0.001987112,0.0002677196,0.001853289,-0.0007877034,-0.001251596,172.17.160.76,10.175.81.193,5,stationary,2,2014-11-13 14:00:32.598,15,2014-11-13 13:57:29.604,0
2014-11-13 14:02:06.499,42989,1432.967,40.11401,-88.22447,225.2043,-1,-1,10,65.34491,1415908859,0.01220703,-0.02545166,-0.9967041,20.3849,-30.57775,7.244568,211.4821,214.5645,25,-0.05863588,-0.06703443,-0.01605567,-0.6891966,0.01281764,0.0250975,-0.0004258826,0.001979315,-0.0007899206,0.0005839681,0.0003298499,0.001006764,172.17.160.76,10.175.81.193,5,stationary,2,2014-11-13 14:00:32.598,15,2014-11-13 13:57:29.604,0
2014-11-13 14:02:06.532,42990,1433,40.11401,-88.22447,225.2043,-1,-1,10,65.34491,1415908859,0.01358032,-0.02539062,-1.001022,20.48826,-30.12983,7.143982,211.4744,214.5568,25,-0.05650056,-0.06704348,-0.01712519,-0.6892189,0.01283226,0.02510663,0.0006389428,0.0009157803,-0.000799641,0.000599872,7.95829e-05,0.0005943599,172.17.160.76,10.175.81.193,5,stationary,2,2014-11-13 14:00:32.598,15,2014-11-13 13:57:29.604,0
2014-11-13 14:02:06.566,42991,1433.033,40.11401,-88.22447,225.2043,-1,-1,10,65.34491,1415908859,0.01037598,-0.02468872,-0.9979858,20.24708,-29.88864,7.311523,211.4641,214.5465,25,-0.05863189,-0.06597982,-0.01711161,-0.6892318,0.01281176,0.0251328,-0.001496692,0.0009242783,0.0002697909,0.0007729548,-0.0002604717,-0.001420195,172.17.160.76,10.175.81.193,5,stationary,2,2014-11-13 14:00:32.598,15,2014-11-13 13:57:29.604,0
2014-11-13 14:02:06.599,42992,1433.067,40.11401,-88.22447,225.2043,-1,-1,10,65.34491,1415908859,0.01486206,-0.02415466,-1.000595,20.24708,-29.68192,7.311523,211.4612,214.5435,25,-0.05863109,-0.06491721,-0.01710602,-0.6892362,0.01276514,0.02517094,0.0006385425,0.001986478,0.0002673045,-0.001270884,0.0003727541,0.0002426501,172.17.160.76,10.175.81.193,5,stationary,2,2014-11-13 14:00:32.598,15,2014-11-13 13:57:29.604,0
