time,timestamp,recordtime,lat,long,alt,speed,course,verticalAccuracy,horizontalAccuracy,locTimeStamp,accelerationX,accelerationY,accelerationZ,HeadingX,HeadingY,HeadingZ,TrueHeading,MagneticHeading,HeadingAccuracy,RotationX,RotationY,RotationZ,motionYaw,motionRoll,motionPitch,motionRotationRateX,motionRotationRateY,motionRotationRateZ,motionUserAccelerationX,motionUserAccelerationY,motionUserAccelerationZ,en0,pdp_ip0,DeviceOrientation,Activity,Activity Confidence,Activity Start,Steps,Last Step Date,State
2014-11-13 14:10:01.365,57235,1907.833,40.11402,-88.22445,225.116,-1,-1,10,65.41203,1415909268,0.02766418,-0.02682495,-1.000351,23.34797,-28.16551,7.509705,217.2449,220.3273,25,-0.05863588,-0.06703443,-0.01605567,-0.8238387,0.02772648,0.02525591,-0.0003951881,0.001142161,-0.0006296739,-0.00122483,-0.0001526612,-0.00315981,172.17.160.76,10.175.81.193,5,stationary,2,2014-11-13 14:09:21.708,15,2014-11-13 13:57:29.604,0
2014-11-13 14:10:01.399,57236,1907.867,40.11402,-88.22445,225.116,-1,-1,10,65.41203,1415909268,0.02587891,-0.02613831,-1.000763,23.41688,-27.68314,7.777832,217.2471,220.3295,25,-0.05756982,-0.06703496,-0.01605966,-0.8238208,0.02770401,0.02530595,0.0006635064,9.453864e-05,0.00148372,-0.0001952582,-0.0005909181,0.00160029,172.17.160.76,10.175.81.193,5,stationary,2,2014-11-13 14:09:21.708,15,2014-11-13 13:57:29.604,0
2014-11-13 14:10:01.432,57237,1907.9,40.11402,-88.22445,225.116,-1,-1,10,65.41203,1415909268,0.0269165,-0.02452087,-0.9983063,23.41688,-27.4764,8.045959,217.2575,220.3399,25,-0.05969875,-0.06704188,-0.01711321,-0.8238025,0.02770323,0.02533113,-0.0003921778,0.001145193,-0.0006287723,-0.00181189,-0.0008098839,-0.001467342,172.17.160.76,10.175.81.193,5,stationary,2,2014-11-13 14:09:21.708,15,2014-11-13 13:57:29.604,0
2014-11-13 14:10:01.466,57238,1907.933,40.11402,-88.22445,225.116,-1,-1,10,65.41203,1415909268,0.02682495,-0.02519226,-0.9991302,23.65807,-27.51086,7.610291,217.2724,220.3548,25,-0.05970514,-0.06702591,-0.01499014,-0.8238177,0.02771961,0.02526436,-0.000396887,9.019826e-05,0.0004270132,0.001711732,0.0002220015,-0.001206708,172.17.160.76,10.175.81.193,5,stationary,2,2014-11-13 14:09:21.708,15,2014-11-13 13:57:29.604,0
2014-11-13 14:10:01.499,57239,1907.967,40.11402,-88.22445,225.116,-1,-1,10,65.41203,1415909268,0.02557373,-0.02568054,-0.9993591,23.72698,-27.92432,7.543213,217.2757,220.3581,25,-0.05863509,-0.06597183,-0.01605007,-0.8238086,0.02767224,0.02525708,-0.001467229,-0.0009643042,0.001486887,-0.00083493,6.213433e-05,0.0001680781,172.17.160.76,10.175.81.193,5,stationary,2,2014-11-13 14:09:21.708,15,2014-11-13 13:57:29.604,0
2014-11-13 14:10:01.532,57240,1908,40.11402,-88.22445,225.116,-1,-1,10,65.41203,1415909268,0.02755737,-0.02557373,-0.9964447,23.65806,-27.99323,7.074036,217.2779,220.3603,25,-0.05863189,-0.06597982,-0.01711161,-0.8238155,0.02757765,0.02526177,-0.0003967634,0.001151395,0.0004324235,-0.0002521283,-9.470177e-06,-0.001263755,172.17.160.76,10.175.81.193,5,stationary,2,2014-11-13 14:09:21.708,15,2014-11-13 13:57:29.604,0
2014-11-13 14:10:01.566,57241,1908.033,40.11402,-88.22445,225.116,-1,-1,10,65.41203,1415909268,0.02886963,-0.02497864,-1.000839,23.52024,-28.26888,7.342163,217.2731,220.3555,25,-0.05863109,-0.06491721,-0.01710602,-0.8238247,0.0275807,0.02528342,0.0006682138,8.794809e-05,0.0004227372,-1.10147e-05,-0.0002930043,0.002855487,172.17.160.76,10.175.81.193,5,stationary,2,2014-11-13 14:09:21.708,15,2014-11-13 13:57:29.604,0
2014-11-13 14:10:01.599,57242,1908.067,40.11402,-88.22445,225.116,-1,-1,10,65.41203,1415909268,0.02650452,-0.02455139,-0.9969177,23.45133,-27.92432,7.275146,217.2728,220.3552,25,-0.05756742,-0.06384715,-0.01604288,-0.8238404,0.02756383,0.02526539,-0.0003918275,8.398607e-05,-0.0006335581,-0.0003146087,-0.0001584388,0.003955041,172.17.160.76,10.175.81.193,5,stationary,2,2014-11-13 14:09:21.708,15,2014-11-13 13:57:29.604,0
2014-11-13 14:10:01.632,57243,1908.1,40.11402,-88.22445,225.116,-1,-1,10,65.41203,1415909268,0.02583313,-0.02481079,-1.002869,23.34796,-27.95879,7.710754,217.27,220.3523,25,-0.05863509,-0.06597183,-0.01605007,-0.8238365,0.02753576,0.02527632,0.0006708224,9.101086e-05,0.0004239217,-0.001018968,0.000722235,0.002383882,172.17.160.76,10.175.81.193,5,stationary,2,2014-11-13 14:09:21.708,15,2014-11-13 13:57:29.604,0
2014-11-13 14:10:01.666,57244,1908.133,40.11402,-88.22445,225.116,-1,-1,10,65.41203,1415909268,0.02912903,-0.0254364,-1.002472,23.52024,-27.78651,7.744324,217.2687,220.351,25,-0.05863668,-0.06809703,-0.01606126,-0.8238572,0.02754346,0.02529044,0.0006695736,-0.0009720755,0.0004181976,-0.0005078504,0.0005379913,0.0007811406,172.17.160.76,10.175.81.193,5,stationary,2,2014-11-13 14:09:21.708,15,2014-11-13 13:57:29.604,0
2014-11-13 14:10:01.699,57245,1908.167,40.11402,-88.22445,225.116,-1,-1,10,65.41203,1415909268,0.02728271,-0.02616882,-0.9965057,23.79589,-27.78651,7.945435,217.2744,220.3567,25,-0.05863349,-0.06810502,-0.01712279,-0.8238591,0.02752706,0.02527107,-0.0003959766,9.07802e-05,0.0004277175,0.0001951608,0.0001676707,0.0007057874,172.17.160.76,10.175.81.193,5,stationary,2,2014-11-13 14:09:21.708,15,2014-11-13 13:57:29.604,0
2014-11-13 14:10:01.732,57246,1908.2,40.11402,-88.22445,225.116,-1,-1,10,65.41203,1415909268,0.02635193,-0.02487183,-1.001053,23.69252,-27.82097,7.978943,217.2845,220.3669,25,-0.05756982,-0.06703496,-0.01605966,-0.823875,0.02755245,0.02524647,-0.000397388,-0.0009723676,0.0004219389,0.001558327,0.0004940342,0.001224508,172.17.160.76,10.175.81.193,5,stationary,2,2014-11-13 14:09:21.708,15,2014-11-13 13:57:29.604,0
2014-11-13 14:10:01.765,57247,1908.233,40.11402,-88.22445,225.116,-1,-1,10,65.41203,1415909268,0.02732849,-0.02505493,-0.998291,23.65807,-27.71761,7.945374,217.2967,220.3791,25,-0.05756902,-0.06597236,-0.01605407,-0.8238884,0.02753948,0.02525719,0.001741803,8.4906e-05,-0.0006404126,-0.001175285,0.0003826728,-0.001750869,172.17.160.76,10.175.81.193,5,stationary,2,2014-11-13 14:09:21.708,15,2014-11-13 13:57:29.604,0
2014-11-13 14:10:01.799,57248,1908.267,40.11402,-88.22445,225.116,-1,-1,10,65.41203,1415909268,0.02679443,-0.02545166,-0.9953003,23.21015,-27.88988,7.509644,217.2934,220.3758,25,-0.05970035,-0.06490869,-0.01604049,-0.8238875,0.02750126,0.02524931,-0.0003909334,8.534384e-05,-0.0006325569,-0.0005420088,0.0003290206,-0.001993759,172.17.160.76,10.175.81.193,5,stationary,2,2014-11-13 14:09:21.708,15,2014-11-13 13:57:29.604,0
2014-11-13 14:10:01.832,57249,1908.3,40.11402,-88.22445,225.116,-1,-1,10,65.41203,1415909268,0.02798462,-0.02505493,-1.000641,23.24461,-27.99324,7.073914,217.2839,220.3663,25,-0.05863588,-0.06703443,-0.01605567,-0.8238791,0.02746761,0.02524576,-0.0003952114,-0.0009697399,0.0004232907,-0.0001879525,-0.000269618,0.00171514,172.17.160.76,10.175.81.193,5,stationary,2,2014-11-13 14:09:21.708,15,2014-11-13 13:57:29.604,0
2014-11-13 14:10:01.865,57250,1908.333,40.11402,-88.22445,225.116,-1,-1,10,65.41203,1415909268,0.02781677,-0.02511597,-0.9998169,23.1757,-28.19997,6.872803,217.2702,220.3525,25,-0.05650216,-0.06491029,-0.01605247,-0.823872,0.02748267,0.02523125,0.0006712948,9.208975e-05,0.0004248024,0.000514154,0.0001736426,-0.001336665,172.17.160.76,10.175.81.193,5,stationary,2,2014-11-13 14:09:21.708,15,2014-11-13 13:57:29.604,0
2014-11-13 14:10:01.899,57251,1908.367,40.11402,-88.22445,225.116,-1,-1,10,65.41203,1415909268,0.02760315,-0.02552795,-0.9962769,23.21015,-27.95879,7.37561,217.2664,220.3488,25,-0.05863509,-0.06597183,-0.01605007,-0.8238577,0.02751265,0.0252781,-0.0003919602,9.607284e-05,0.0004306254,0.0003926782,0.0002662559,-0.001537036,172.17.160.76,10.175.81.193,5,stationary,2,2014-11-13 14:09:21.708,15,2014-11-13 13:57:29.604,0
2014-11-13 14:10:01.932,57252,1908.4,40.11402,-88.22445,225.116,-1,-1,10,65.41203,1415909268,0.02830505,-0.02555847,-0.9997559,23.31352,-27.37304,7.543152,217.2723,220.3547,25,-0.05756662,-0.06704295,-0.0171212,-0.8238715,0.02752198,0.0252598,0.0006793147,-0.0009833553,-0.001702136,-0.001340906,0.0004310601,0.001331822,172.17.160.76,10.175.81.193,5,stationary,2,2014-11-13 14:09:21.708,15,2014-11-13 13:57:29.604,0
2014-11-13 14:10:01.966,57253,1908.433,40.11402,-88.22445,225.116,-1,-1,10,65.41203,1415909268,0.02653503,-0.02529907,-0.9973907,23.34797,-27.26967,7.844727,217.2853,220.3676,25,-0.05863428,-0.06490923,-0.01604448,-0.8238955,0.02752706,0.025245,-0.001455545,8.79444e-05,-0.0006271168,-0.001117107,0.0001873896,-0.0003616696,172.17.160.76,10.175.81.193,5,stationary,2,2014-11-13 14:09:21.708,15,2014-11-13 13:57:29.604,0
2014-11-13 14:10:01.999,57254,1908.467,40.11402,-88.22445,225.116,-1,-1,10,65.41203,1415909268,0.02624512,-0.02514648,-1.001221,23.58916,-27.57977,7.610107,217.2904,220.3728,25,-0.05863588,-0.06703443,-0.01605567,-0.8239135,0.02747349,0.0252657,0.001741546,-0.0009769191,-0.0006448019,-1.070005e-05,-0.0004480476,0.001516112,172.17.160.76,10.175.81.193,5,stationary,2,2014-11-13 14:09:21.708,15,2014-11-13 13:57:29.604,0
2014-11-13 14:10:02.032,57255,1908.5,40.11402,-88.22445,225.116,-1,-1,10,65.41203,1415909268,0.027771,-0.02400208,-0.9981384,24.07153,-27.99324,7.408997,217.3002,220.3826,25,-0.05756822,-0.06490976,-0.01604847,-0.8239146,0.02746622,0.02525581,-0.0003939475,-0.0009679869,0.0004246886,0.0002406921,0.0006101792,-0.003152629,172.17.160.76,10.175.81.193,5,stationary,2,2014-11-13 14:09:21.708,15,2014-11-13 13:57:29.604,0
2014-11-13 14:10:02.066,57256,1908.533,40.11402,-88.22445,225.116,-1,-1,10,65.41203,1415909268,0.02644348,-0.02458191,-0.9959106,24.24381,-27.95879,6.839172,217.3148,220.3972,25,-0.0607712,-0.06702537,-0.01498614,-0.8239049,0.02747359,0.02520038,-0.002523269,9.864174e-05,0.0004400049,-0.0001939528,0.0006310589,0.001059993,172.17.160.76,10.175.81.193,5,stationary,2,2014-11-13 14:09:21.708,15,2014-11-13 13:57:29.604,0
2014-11-13 14:10:02.099,57257,1908.567,40.11402,-88.22445,225.116,-1,-1,10,65.41203,1415909268,0.02861023,-0.02589417,-1.001785,24.07153,-27.85542,6.671631,217.3226,220.4049,25,-0.05863509,-0.06597183,-0.01605007,-0.8239008,0.027485,0.02519064,-0.002527454,-0.0009562604,0.001495885,-0.001029334,0.0006060684,0.003394519,172.17.160.76,10.175.81.193,5,stationary,2,2014-11-13 14:09:21.708,15,2014-11-13 13:57:29.604,0
2014-11-13 14:10:02.133,57258,1908.6,40.11402,-88.22445,225.116,-1,-1,10,65.41203,1415909268,0.02867126,-0.02461243,-0.9977875,23.79589,-28.26889,6.805664,217.3284,220.4108,25,-0.05863748,-0.06915963,-0.01606685,-0.8238733,0.02749824,0.02523464,0.0006744463,9.624687e-05,0.0004278291,8.661104e-05,-0.0005859083,-0.0005437212,172.17.160.76,10.175.81.193,5,stationary,2,2014-11-13 14:09:21.708,15,2014-11-13 13:57:29.604,0
2014-11-13 14:10:02.166,57259,1908.633,40.11402,-88.22445,225.116,-1,-1,10,65.41203,1415909268,0.02880859,-0.02459717,-0.9980621,23.55471,-28.30335,7.174377,217.3225,220.4048,25,-0.05756263,-0.06598834,-0.01817714,-0.8238719,0.02751171,0.0252005,-0.0003921407,9.636133e-05,0.0004317047,0.0008360613,0.001088943,-0.001596087,172.17.160.76,10.175.81.193,5,stationary,2,2014-11-13 14:09:21.708,15,2014-11-13 13:57:29.604,0
2014-11-13 14:10:02.199,57260,1908.667,40.11402,-88.22445,225.116,-1,-1,10,65.41203,1415909268,0.02668762,-0.02597046,-1.001373,23.65807,-28.33781,7.543091,217.3198,220.4022,25,-0.05863668,-0.06383863,-0.01497735,-0.823881,0.02749195,0.02517258,-0.0003926921,9.582087e-05,0.0004315708,-0.0008837043,0.00081689,0.003013313,172.17.160.76,10.175.81.193,5,stationary,2,2014-11-13 14:09:21.708,15,2014-11-13 13:57:29.604,0
2014-11-13 14:10:02.232,57261,1908.7,40.11402,-88.22445,225.116,-1,-1,10,65.41203,1415909268,0.02656555,-0.02442932,-1.00032,23.8648,-27.85543,7.543091,217.3253,220.4077,25,-0.05863269,-0.06704242,-0.0171172,-0.8238565,0.02740831,0.02518034,0.0006745704,-0.002026576,0.0004184015,-0.001440988,0.0004431782,-0.0007229905,172.17.160.76,10.175.81.193,5,stationary,2,2014-11-13 14:09:21.708,15,2014-11-13 13:57:29.604,0
2014-11-13 14:10:02.266,57262,1908.733,40.11402,-88.22445,225.116,-1,-1,10,65.41203,1415909268,0.02986145,-0.02592468,-0.9992523,24.10598,-27.75207,7.509521,217.342,220.4244,25,-0.05650056,-0.06704348,-0.01712519,-0.8238541,0.02737714,0.02513069,0.0006747003,-0.0009644974,0.0004238741,0.0002991094,0.001217519,0.001049131,172.17.160.76,10.175.81.193,5,stationary,2,2014-11-13 14:09:21.708,15,2014-11-13 13:57:29.604,0
2014-11-13 14:10:02.299,57263,1908.767,40.11402,-88.22445,225.116,-1,-1,10,65.41203,1415909268,0.03120422,-0.02592468,-0.9992981,24.2438,-27.61425,7.308411,217.3543,220.4367,25,-0.05756662,-0.06704295,-0.0171212,-0.8238536,0.02743239,0.02514219,-0.000390902,9.851629e-05,0.0004333556,-0.0008852466,0.0003592705,0.003229335,172.17.160.76,10.175.81.193,5,stationary,2,2014-11-13 14:09:21.708,15,2014-11-13 13:57:29.604,0
2014-11-13 14:10:02.332,57264,1908.8,40.11402,-88.22445,225.116,-1,-1,10,65.41203,1415909268,0.02778625,-0.0247345,-0.9982147,24.20934,-27.78653,7.677063,217.3754,220.4578,25,-0.05863588,-0.06703443,-0.01605567,-0.8238579,0.0274405,0.02518776,0.0017402,-0.0009654181,0.0004196745,-0.000221936,-0.0006480353,0.001183289,172.17.160.76,10.175.81.193,5,stationary,2,2014-11-13 14:09:21.708,15,2014-11-13 13:57:29.604,0
2014-11-13 14:10:02.366,57265,1908.833,40.11402,-88.22445,225.116,-1,-1,10,65.41203,1415909268,0.0269165,-0.02418518,-1.000595,24.20934,-27.78653,7.878235,217.3897,220.4721,25,-0.05863349,-0.06810502,-0.01712279,-0.8238562,0.02737373,0.02521146,-0.0003882605,8.964821e-05,-0.0006284053,-0.0002620068,-0.0004564897,0.001001415,172.17.160.76,10.175.81.193,5,stationary,2,2014-11-13 14:09:21.708,15,2014-11-13 13:57:29.604,0
2014-11-13 14:10:02.399,57266,1908.867,40.11402,-88.22445,225.116,-1,-1,10,65.41203,1415909268,0.02774048,-0.02555847,-0.9983978,24.07152,-28.13109,8.012329,217.3937,220.476,25,-0.05863509,-0.06597183,-0.01605007,-0.8238631,0.02736179,0.02521896,-0.0003870806,-0.002032175,-0.0006375076,-0.0004331725,0.001031106,-0.001287265,172.17.160.76,10.175.81.193,5,stationary,2,2014-11-13 14:09:21.708,15,2014-11-13 13:57:29.604,0
2014-11-13 14:10:02.432,57267,1908.9,40.11402,-88.22445,225.116,-1,-1,10,65.41203,1415909268,0.02874756,-0.02568054,-0.9991913,23.96815,-28.09663,7.710693,217.4008,220.4832,25,-0.05756662,-0.06704295,-0.0171212,-0.8238556,0.02737915,0.0252134,0.0006763456,-0.0009623248,0.000425543,0.0003734497,-0.000347744,0.0009096655,172.17.160.76,10.175.81.193,5,stationary,2,2014-11-13 14:09:21.708,15,2014-11-13 13:57:29.604,0
2014-11-13 14:10:02.466,57268,1908.933,40.11402,-88.22445,225.116,-1,-1,10,65.41203,1415909268,0.02732849,-0.02580261,-1.000443,23.79588,-28.26891,7.476074,217.4061,220.4885,25,-0.06076082,-0.06598674,-0.01816516,-0.82386,0.02735954,0.02521245,-0.0003894078,0.0001001545,0.0004349674,-0.0006598091,-0.001416807,0.0001015101,172.17.160.76,10.175.81.193,5,stationary,2,2014-11-13 14:09:21.708,15,2014-11-13 13:57:29.604,0
2014-11-13 14:10:02.499,57269,1908.967,40.11402,-88.22445,225.116,-1,-1,10,65.41203,1415909268,0.02780151,-0.02481079,-0.9973145,23.6236,-28.09663,7.174438,217.4046,220.4869,25,-0.05863109,-0.06491721,-0.01710602,-0.8238687,0.02737488,0.02522691,-0.0003888574,0.001162472,0.0004404602,0.001140666,-0.0009140719,-0.001242047,172.17.160.76,10.175.81.193,5,stationary,2,2014-11-13 14:09:21.708,15,2014-11-13 13:57:29.604,0
2014-11-13 14:10:02.532,57270,1909,40.11402,-88.22445,225.116,-1,-1,10,65.41203,1415909268,0.02684021,-0.02508545,-1.001785,23.21013,-28.02772,7.241455,217.3958,220.4781,25,-0.05756902,-0.06597236,-0.01605407,-0.8238717,0.02737254,0.02523015,0.0006728572,0.0001069321,0.00149231,0.0004411029,0.0004166841,0.001992798,172.17.160.76,10.175.81.193,5,stationary,2,2014-11-13 14:09:21.708,15,2014-11-13 13:57:29.604,0
2014-11-13 14:10:02.565,57271,1909.033,40.11402,-88.22445,225.116,-1,-1,10,65.41203,1415909268,0.02574158,-0.02542114,-0.9991608,23.27904,-27.75208,6.973389,217.3936,220.476,25,-0.05756822,-0.06490976,-0.01604847,-0.8238874,0.02740966,0.02525008,-0.0003841436,9.49541e-05,-0.0006246879,-0.0007098715,-5.903462e-06,0.001396186,172.17.160.76,10.175.81.193,5,stationary,2,2014-11-13 14:09:21.708,15,2014-11-13 13:57:29.604,0
2014-11-13 14:10:02.599,57272,1909.067,40.11402,-88.22445,225.116,-1,-1,10,65.41203,1415909268,0.02655029,-0.02523804,-0.9972687,23.93369,-27.64871,7.275024,217.4047,220.4871,25,-0.05863189,-0.06597982,-0.01711161,-0.8238953,0.02741476,0.02526633,0.0006776594,-0.0009606279,0.0004271659,0.0003684155,0.0003918121,-0.002342767,172.17.160.76,10.175.81.193,5,stationary,2,2014-11-13 14:09:21.708,15,2014-11-13 13:57:29.604,0
2014-11-13 14:10:02.632,57273,1909.1,40.11402,-88.22445,225.116,-1,-1,10,65.41203,1415909268,0.02905273,-0.02462769,-1.00148,24.07151,-27.85544,7.275024,217.4162,220.4986,25,-0.05650296,-0.06597289,-0.01605806,-0.8238977,0.027414,0.02526708,-0.0003847509,9.404914e-05,-0.0006248803,-0.001278769,0.0003925612,0.003470834,172.17.160.76,10.175.81.193,5,stationary,2,2014-11-13 14:09:21.708,15,2014-11-13 13:57:29.604,0
2014-11-13 14:10:02.666,57274,1909.133,40.11402,-88.22445,225.116,-1,-1,10,65.41203,1415909268,0.02618408,-0.0249176,-0.9965668,23.58915,-28.06218,7.073975,217.4179,220.5003,25,-0.05649976,-0.06598088,-0.0171196,-0.8239139,0.02746238,0.02526292,0.001742846,-0.0009618914,0.0004229329,0.001144803,-0.000328754,0.0008908762,172.17.160.76,10.175.81.193,5,stationary,2,2014-11-13 14:09:21.708,15,2014-11-13 13:57:29.604,0
2014-11-13 14:10:02.699,57275,1909.167,40.11402,-88.22445,225.116,-1,-1,10,65.41203,1415909268,0.02684021,-0.02572632,-1.000809,23.31351,-27.99327,7.006958,217.4134,220.4958,25,-0.05863109,-0.06491721,-0.01710602,-0.8239105,0.02743729,0.02525935,0.001746606,9.247035e-05,-0.0006330597,-0.001241015,0.000339064,0.002737968,172.17.160.76,10.175.81.193,5,stationary,2,2014-11-13 14:09:21.708,15,2014-11-13 13:57:29.604,0
2014-11-13 14:10:02.732,57276,1909.2,40.11402,-88.22445,225.116,-1,-1,10,65.41203,1415909268,0.02799988,-0.0246582,-1.000656,23.45133,-27.85545,6.537659,217.4108,220.4931,25,-0.05863509,-0.06597183,-0.01605007,-0.823918,0.0274034,0.02528827,0.000686781,8.819061e-05,-0.001688316,0.0004255646,-0.0012342,0.001364876,172.17.160.76,10.175.81.193,5,stationary,2,2014-11-13 14:09:21.708,15,2014-11-13 13:57:29.604,0
2014-11-13 14:10:02.766,57277,1909.233,40.11402,-88.22445,225.116,-1,-1,10,65.41203,1415909268,0.02935791,-0.02497864,-1.000381,23.62361,-28.16554,7.040466,217.4053,220.4877,25,-0.05863189,-0.06597982,-0.01711161,-0.8239231,0.02739836,0.0252986,-0.0003789285,0.001150961,-0.001678864,-0.0001187115,-0.0003388607,-0.001687005,172.17.160.76,10.175.81.193,5,stationary,2,2014-11-13 14:09:21.708,15,2014-11-13 13:57:29.604,0
2014-11-13 14:10:02.799,57278,1909.267,40.11402,-88.22445,225.116,-1,-1,10,65.41203,1415909268,0.02890015,-0.02593994,-0.998764,23.5547,-28.02773,7.375671,217.4037,220.486,25,-0.05650296,-0.06597289,-0.01605806,-0.8239256,0.02744515,0.02526728,-0.0003864395,0.0001042854,0.0004385409,0.001924967,0.0002859577,-0.001077145,172.17.160.76,10.175.81.193,5,stationary,2,2014-11-13 14:09:21.708,15,2014-11-13 13:57:29.604,0
2014-11-13 14:10:02.832,57279,1909.3,40.11402,-88.22445,225.116,-1,-1,10,65.41203,1415909268,0.02838135,-0.02574158,-0.9975891,23.69252,-28.23445,7.442688,217.4016,220.4839,25,-0.05969795,-0.06597929,-0.01710761,-0.8239346,0.02739673,0.02533091,0.0006760818,0.0001109442,0.001495944,-0.0009105143,-0.0005507025,-0.001199497,172.17.160.76,10.175.81.193,5,stationary,2,2014-11-13 14:09:21.708,15,2014-11-13 13:57:29.604,0
2014-11-13 14:10:02.866,57280,1909.333,40.11402,-88.22445,225.116,-1,-1,10,65.41203,1415909268,0.03051758,-0.02427673,-0.9983826,23.21014,-27.88988,8.381165,217.3899,220.4723,25,-0.06076322,-0.06491615,-0.01709803,-0.8239395,0.0274599,0.02532224,-0.0003840505,9.52622e-05,-0.0006232729,0.0001555032,0.0009665106,-0.001048421,172.17.160.76,10.175.81.193,5,stationary,2,2014-11-13 14:09:21.708,15,2014-11-13 13:57:29.604,0
2014-11-13 14:10:02.899,57281,1909.367,40.11402,-88.22445,225.116,-1,-1,10,65.41203,1415909268,0.0254364,-0.0259552,-1.000839,23.07233,-28.0277,7.978943,217.3823,220.4646,25,-0.05756662,-0.06704295,-0.0171212,-0.8239651,0.02756436,0.02529436,-0.0003819952,-0.0009634412,-0.0006266853,0.001058177,0.0001299217,0.001085642,172.17.160.76,10.175.81.193,5,stationary,2,2014-11-13 14:09:21.708,15,2014-11-13 13:57:29.604,0
2014-11-13 14:10:02.932,57282,1909.4,40.11402,-88.22445,225.116,-1,-1,10,65.41203,1415909268,0.02774048,-0.02494812,-0.9970703,22.69332,-27.99324,7.945435,217.3591,220.4415,25,-0.05863189,-0.06597982,-0.01711161,-0.8239557,0.02749887,0.02531662,-0.001449895,0.001169586,0.0004499437,-0.0003564648,-0.0005955096,-0.001827548,172.17.160.76,10.175.81.193,5,stationary,2,2014-11-13 14:09:21.708,15,2014-11-13 13:57:29.604,0
2014-11-13 14:10:02.965,57283,1909.433,40.11402,-88.22445,225.116,-1,-1,10,65.41203,1415909268,0.02679443,-0.02563477,-0.9988098,22.79669,-28.0277,7.308594,217.3391,220.4214,25,-0.05863588,-0.06703443,-0.01605567,-0.8239691,0.02751401,0.02529116,-0.0003826123,-0.0009645791,-0.0006268885,-0.002080601,-0.0002852708,0.0006293449,172.17.160.76,10.175.81.193,5,stationary,2,2014-11-13 14:09:21.708,15,2014-11-13 13:57:29.604,0
2014-11-13 14:10:02.999,57284,1909.467,40.11402,-88.22445,225.116,-1,-1,10,65.41203,1415909268,0.02923584,-0.0246582,-1.000732,23.10679,-27.92433,7.275085,217.3335,220.4159,25,-0.05650056,-0.06704348,-0.01712519,-0.8239779,0.02755365,0.02528987,-0.0003797405,-0.0009727841,-0.001688526,0.001343533,0.0003237903,0.001147085,172.17.160.76,10.175.81.193,5,stationary,2,2014-11-13 14:09:21.708,15,2014-11-13 13:57:29.604,0
2014-11-13 14:10:03.032,57285,1909.5,40.11402,-88.22445,225.116,-1,-1,10,65.41203,1415909268,0.02867126,-0.02555847,-1.00029,23.24461,-27.92433,7.275085,217.3244,220.4068,25,-0.05757302,-0.06702697,-0.01499812,-0.8239905,0.02755181,0.02526817,0.001748835,-0.0009661211,-0.0006350497,-0.000714579,0.001049779,0.0007356971,172.17.160.76,10.175.81.193,5,stationary,2,2014-11-13 14:09:21.708,15,2014-11-13 13:57:29.604,0
2014-11-13 14:10:03.066,57286,1909.533,40.11402,-88.22445,225.116,-1,-1,10,65.41203,1415909268,0.02560425,-0.02600098,-0.9993134,23.27906,-27.95879,6.839355,217.3209,220.4033,25,-0.05863189,-0.06597982,-0.01711161,-0.8239842,0.02761567,0.02523316,-0.002511478,0.001164528,-0.0006061663,0.001067894,-0.0003279896,-0.0009894232,172.17.160.76,10.175.81.193,5,stationary,2,2014-11-13 14:09:21.708,15,2014-11-13 13:57:29.604,0
2014-11-13 14:10:03.099,57287,1909.567,40.11402,-88.22445,225.116,-1,-1,10,65.41203,1415909268,0.0279541,-0.02487183,-0.9996948,23.27906,-28.09661,6.973389,217.3136,220.3959,25,-0.05756582,-0.06598035,-0.0171156,-0.8240032,0.02757329,0.02526208,0.0006839547,-0.002025565,-0.0006350704,0.0009271629,-0.0002990758,0.001009917,172.17.160.76,10.175.81.193,5,stationary,2,2014-11-13 14:09:21.708,15,2014-11-13 13:57:29.604,0
2014-11-13 14:10:03.132,57288,1909.6,40.11402,-88.22445,225.116,-1,-1,10,65.41203,1415909268,0.02937317,-0.02574158,-0.9991455,23.21016,-28.23442,6.906372,217.3032,220.3856,25,-0.05863509,-0.06597183,-0.01605007,-0.824007,0.02756715,0.02526022,0.0006834508,-0.002026119,-0.0006352027,-4.326927e-05,-0.0002246434,-0.002545164,172.17.160.76,10.175.81.193,5,stationary,2,2014-11-13 14:09:21.708,15,2014-11-13 13:57:29.604,0
2014-11-13 14:10:03.166,57289,1909.633,40.11402,-88.22445,225.116,-1,-1,10,65.41203,1415909268,0.02713013,-0.02565002,-1.002274,23.31353,-28.13106,7.40918,217.2986,220.381,25,-0.05650456,-0.0680981,-0.01606925,-0.8240061,0.02762742,0.02524825,0.0006830989,-0.002026129,-0.0006353118,0.001498671,0.0007094322,0.001466537,172.17.160.76,10.175.81.193,5,stationary,2,2014-11-13 14:09:21.708,15,2014-11-13 13:57:29.604,0
2014-11-13 14:10:03.199,57290,1909.667,40.11402,-88.22445,225.116,-1,-1,10,65.41203,1415909268,0.02604675,-0.0254364,-0.9985657,23.27907,-27.61423,7.710815,217.2976,220.3799,25,-0.05970195,-0.06703389,-0.01605167,-0.8240083,0.02756483,0.02528991,-0.00144795,0.0001113347,0.0004471888,-0.0001019649,-0.0006527275,-0.000348585,172.17.160.76,10.175.81.193,5,stationary,2,2014-11-13 14:09:21.708,15,2014-11-13 13:57:29.604,0
2014-11-13 14:10:03.233,57291,1909.7,40.11402,-88.22445,225.116,-1,-1,10,65.41203,1415909268,0.02734375,-0.02456665,-0.9989319,23.17571,-27.64868,7.610291,217.2965,220.3788,25,-0.05757381,-0.06808957,-0.01500372,-0.8239996,0.02752268,0.02531762,0.0006839471,0.0001097214,0.0004391248,-0.001127944,-0.0004724412,0.0001859322,172.17.160.76,10.175.81.193,5,stationary,2,2014-11-13 14:09:21.708,15,2014-11-13 13:57:29.604,0
2014-11-13 14:10:03.266,57292,1909.733,40.11402,-88.22445,225.116,-1,-1,10,65.41203,1415909268,0.02682495,-0.02545166,-0.9998322,22.96897,-27.92432,7.610291,217.2846,220.3669,25,-0.05863509,-0.06597183,-0.01605007,-0.8239864,0.02750811,0.02528289,-0.001444648,0.001165041,-0.0006089325,3.100165e-05,0.0004694044,0.0002787639,172.17.160.76,10.175.81.193,5,stationary,2,2014-11-13 14:09:21.708,15,2014-11-13 13:57:29.604,0
2014-11-13 14:10:03.299,57293,1909.767,40.11402,-88.22445,225.116,-1,-1,10,65.41203,1415909268,0.02774048,-0.02632141,-0.9983063,22.96897,-27.99323,7.275085,217.2714,220.3537,25,-0.05757062,-0.06809756,-0.01606525,-0.8239673,0.0275192,0.02525537,-0.001448295,0.001172438,0.0004524741,-0.001170281,-0.0001379419,-0.004863058,172.17.160.76,10.175.81.193,5,stationary,2,2014-11-13 14:09:21.708,15,2014-11-13 13:57:29.604,0
2014-11-13 14:10:03.332,57294,1909.8,40.11402,-88.22445,225.116,-1,-1,10,65.41203,1415909268,0.02806091,-0.02719116,-1.000854,23.58916,-27.64867,7.543213,217.272,220.3544,25,-0.05863509,-0.06597183,-0.01605007,-0.8239488,0.02746092,0.02529616,-0.0003832552,0.0001087858,0.0004427946,0.0002917925,-0.001027952,0.000996888,172.17.160.76,10.175.81.193,5,stationary,2,2014-11-13 14:09:21.708,15,2014-11-13 13:57:29.604,0
2014-11-13 14:10:03.366,57295,1909.833,40.11402,-88.22445,225.116,-1,-1,10,65.41203,1415909268,0.02600098,-0.02455139,-1.000381,23.72698,-27.44194,7.275146,217.2805,220.3629,25,-0.05756662,-0.06704295,-0.0171212,-0.82392,0.02745325,0.02534265,-0.0003774762,0.0001043774,-0.0006169128,0.0006199221,-0.001851228,-0.001552296,172.17.160.76,10.175.81.193,5,stationary,2,2014-11-13 14:09:21.708,15,2014-11-13 13:57:29.604,0
2014-11-13 14:10:03.399,57296,1909.867,40.11402,-88.22445,225.116,-1,-1,10,65.41203,1415909268,0.02749634,-0.02464294,-0.9984589,24.03709,-27.68312,7.643799,217.2981,220.3805,25,-0.05756423,-0.06385515,-0.01710442,-0.8239091,0.02743668,0.02534896,0.0006831467,-0.002014046,0.00042926,0.0009721842,0.0004744212,-0.0007890616,172.17.160.76,10.175.81.193,5,stationary,2,2014-11-13 14:09:21.708,15,2014-11-13 13:57:29.604,0
2014-11-13 14:10:03.432,57297,1909.9,40.11402,-88.22445,225.116,-1,-1,10,65.41203,1415909268,0.02767944,-0.02532959,-0.9997253,24.1749,-27.61421,7.710754,217.3157,220.3981,25,-0.05756582,-0.06598035,-0.0171156,-0.8239071,0.027499,0.02532258,-0.002509924,0.001167129,-0.00060362,0.001169289,0.0007684856,0.002109065,172.17.160.76,10.175.81.193,5,stationary,2,2014-11-13 14:09:21.708,15,2014-11-13 13:57:29.604,0
2014-11-13 14:10:03.466,57298,1909.933,40.11402,-88.22445,225.116,-1,-1,10,65.41203,1415909268,0.0276947,-0.02502441,-0.9980011,24.03708,-27.82094,7.710754,217.3235,220.4059,25,-0.05863269,-0.06704242,-0.0171172,-0.8239089,0.02745117,0.02531688,-0.0003829931,-0.0009517481,0.0004386452,-0.001346399,0.0009001084,-0.001917797,172.17.160.76,10.175.81.193,5,stationary,2,2014-11-13 14:09:21.708,15,2014-11-13 13:57:29.604,0
2014-11-13 14:10:03.499,57299,1909.967,40.11402,-88.22445,225.116,-1,-1,10,65.41203,1415909268,0.02806091,-0.02418518,-1.001404,24.00262,-28.26887,7.40918,217.3329,220.4153,25,-0.05756742,-0.06810555,-0.01712679,-0.8239115,0.02744927,0.02531971,0.001752042,-0.0009610066,-0.000630949,0.0002576793,0.0002925879,0.001301788,172.17.160.76,10.175.81.193,5,stationary,2,2014-11-13 14:09:21.708,15,2014-11-13 13:57:29.604,0
2014-11-13 14:10:03.532,57300,1910,40.11402,-88.22445,225.116,-1,-1,10,65.41203,1415909268,0.02697754,-0.02532959,-0.9985962,23.89926,-28.23441,7.174561,217.3383,220.4207,25,-0.05863908,-0.06702644,-0.01499413,-0.8239167,0.02745475,0.02531158,-0.0003829041,0.001185129,0.001513289,0.0006794397,-0.0005547705,0.0005694213,172.17.160.76,10.175.81.193,5,stationary,2,2014-11-13 14:09:21.708,15,2014-11-13 13:57:29.604,0
2014-11-13 14:10:03.566,57301,1910.033,40.11402,-88.22445,225.116,-1,-1,10,65.41203,1415909268,0.02734375,-0.02536011,-0.9990387,23.72699,-28.26887,7.208008,217.3371,220.4194,25,-0.05756662,-0.06704295,-0.0171212,-0.8239188,0.02744469,0.02530141,-0.001439747,0.001161229,-0.001667423,0.0005826785,-1.562423e-05,-0.002466544,172.17.160.76,10.175.81.193,5,stationary,2,2014-11-13 14:09:21.708,15,2014-11-13 13:57:29.604,0
2014-11-13 14:10:03.599,57302,1910.067,40.11402,-88.22445,225.116,-1,-1,10,65.41203,1415909268,0.02740479,-0.02638245,-0.9992981,23.65808,-27.92431,7.677246,217.3329,220.4153,25,-0.05969476,-0.06598727,-0.01816915,-0.8239364,0.02740884,0.02529601,-0.0003740543,0.001160137,-0.001671512,-0.001243076,0.0001010535,-0.0002986771,172.17.160.76,10.175.81.193,5,stationary,2,2014-11-13 14:09:21.708,15,2014-11-13 13:57:29.604,0
2014-11-13 14:10:03.632,57303,1910.1,40.11402,-88.22445,225.116,-1,-1,10,65.41203,1415909268,0.02868652,-0.02484131,-1.001678,23.55471,-27.75203,7.710754,217.3351,220.4175,25,-0.05863189,-0.06597982,-0.01711161,-0.8239548,0.02746272,0.02527815,-0.001441173,9.802454e-05,-0.001673182,0.0005188641,0.0006019944,0.00154661,172.17.160.76,10.175.81.193,5,stationary,2,2014-11-13 14:09:21.708,15,2014-11-13 13:57:29.604,0
2014-11-13 14:10:03.666,57304,1910.133,40.11402,-88.22445,225.116,-1,-1,10,65.41203,1415909268,0.02668762,-0.02552795,-0.9979553,23.7959,-27.92431,7.744263,217.3371,220.4195,25,-0.05650056,-0.06704348,-0.01712519,-0.8239641,0.02744826,0.02528328,0.0006856334,-0.002020808,-0.0006309713,-0.001053593,0.0002256595,-0.0008640113,172.17.160.76,10.175.81.193,5,stationary,2,2014-11-13 14:09:21.708,15,2014-11-13 13:57:29.604,0
2014-11-13 14:10:03.699,57305,1910.167,40.11402,-88.22445,225.116,-1,-1,10,65.41203,1415909268,0.02915955,-0.02455139,-1.001404,23.4858,-27.68313,7.509583,217.3449,220.4273,25,-0.05863668,-0.06809703,-0.01606126,-0.8239636,0.0274586,0.02530299,0.000682527,0.0001236116,0.001505193,-0.0003925256,0.0002148452,0.001500319,172.17.160.76,10.175.81.193,5,stationary,2,2014-11-13 14:09:21.708,15,2014-11-13 13:57:29.604,0
2014-11-13 14:10:03.732,57306,1910.2,40.11402,-88.22445,225.116,-1,-1,10,65.41203,1415909268,0.02688599,-0.02580261,-0.9972382,23.65808,-27.64867,7.274902,217.3555,220.4379,25,-0.05863189,-0.06597982,-0.01711161,-0.8239681,0.02744691,0.02530771,-0.0003783903,-0.0009548109,-0.0006196134,0.001907971,-0.0005891564,0.0004629227,172.17.160.76,10.175.81.193,5,stationary,2,2014-11-13 14:09:21.708,15,2014-11-13 13:57:29.604,0
2014-11-13 14:10:03.766,57307,1910.233,40.11402,-88.22445,225.116,-1,-1,10,65.41203,1415909268,0.03044128,-0.02384949,-0.9985046,23.55472,-28.09659,7.040344,217.3537,220.4361,25,-0.05650615,-0.0659649,-0.01499653,-0.8239712,0.02746757,0.02531933,0.0006825628,0.001185525,0.00151055,0.0008497401,0.0002616924,0.0004162854,172.17.160.76,10.175.81.193,5,stationary,2,2014-11-13 14:09:21.708,15,2014-11-13 13:57:29.604,0
2014-11-13 14:10:03.799,57308,1910.267,40.11402,-88.22445,225.116,-1,-1,10,65.41203,1415909268,0.02993774,-0.02566528,-1.000946,23.79591,-28.33778,7.207947,217.35,220.4324,25,-0.05863588,-0.06703443,-0.01605567,-0.8239549,0.02753554,0.02529628,0.0006836797,-0.0009476242,0.000437732,0.00168207,0.0001928732,0.001361045,172.17.160.76,10.175.81.193,5,stationary,2,2014-11-13 14:09:21.708,15,2014-11-13 13:57:29.604,0
2014-11-13 14:10:03.832,57309,1910.3,40.11402,-88.22445,225.116,-1,-1,10,65.41203,1415909268,0.02862549,-0.02589417,-0.9968872,23.48582,-28.1655,7.57666,217.3418,220.4242,25,-0.05863109,-0.06491721,-0.01710602,-0.8239651,0.02759209,0.02528882,-0.001443482,-0.0009511686,-0.0006136408,0.0004811503,-0.0004554539,-0.003507878,172.17.160.76,10.175.81.193,5,stationary,2,2014-11-13 14:09:21.708,15,2014-11-13 13:57:29.604,0
2014-11-13 14:10:03.866,57310,1910.333,40.11402,-88.22445,225.116,-1,-1,10,65.41203,1415909268,0.03012085,-0.02561951,-0.9991455,23.34799,-27.75204,7.710693,217.3413,220.4236,25,-0.05756662,-0.06704295,-0.0171212,-0.8239671,0.02763015,0.02529269,-0.0003759991,0.001173355,-0.0006065184,0.001007686,-0.0006041741,0.002411384,172.17.160.76,10.175.81.193,5,stationary,2,2014-11-13 14:09:21.708,15,2014-11-13 13:57:29.604,0
2014-11-13 14:10:03.898,57311,1910.367,40.11402,-88.22445,225.116,-1,-1,10,65.41203,1415909268,0.02662659,-0.02432251,-1.000031,23.45137,-27.51086,7.543152,217.3488,220.4312,25,-0.05756822,-0.06490976,-0.01604847,-0.8239861,0.02760481,0.02532839,-0.0003771468,0.0001101038,-0.0006122355,-0.001972947,-0.001194095,-0.0008694596,172.17.160.76,10.175.81.193,5,stationary,2,2014-11-13 14:09:21.708,15,2014-11-13 13:57:29.604,0
2014-11-13 14:10:03.932,57312,1910.4,40.11402,-88.22445,225.116,-1,-1,10,65.41203,1415909268,0.02861023,-0.02471924,-0.9975586,23.58919,-27.57977,7.274902,217.3602,220.4425,25,-0.05756582,-0.06598035,-0.0171156,-0.823976,0.02753665,0.02533218,0.0006869337,0.002241929,0.0004563853,-0.0005162803,0.0001066926,0.00320642,172.17.160.76,10.175.81.193,5,stationary,2,2014-11-13 14:09:21.708,15,2014-11-13 13:57:29.604,0
2014-11-13 14:10:03.966,57313,1910.433,40.11402,-88.22445,225.116,-1,-1,10,65.41203,1415909268,0.02679443,-0.02609253,-1.012451,23.62365,-27.47639,7.308411,217.366,220.4483,25,-0.05756902,-0.06597236,-0.01605407,-0.8239717,0.0275921,0.0253278,0.001749105,-0.002009371,0.0004298438,0.000114948,-0.0001113068,-0.001403152,172.17.160.76,10.175.81.193,5,stationary,2,2014-11-13 14:09:21.708,15,2014-11-13 13:57:29.604,0
2014-11-13 14:10:03.999,57314,1910.467,40.11402,-88.22445,225.116,-1,-1,10,65.41203,1415909268,0.02455139,-0.0272522,-0.9950104,23.69255,-27.54531,7.308411,217.3791,220.4615,25,-0.05436524,-0.05853575,-0.0160269,-0.8239785,0.02755306,0.02534384,0.0006866631,-0.004139038,-0.0006366815,1.664508e-05,-0.0001563058,-0.004088029,172.17.160.76,10.175.81.193,5,stationary,2,2014-11-13 14:09:21.708,15,2014-11-13 13:57:29.604,0
2014-11-13 14:10:04.032,57315,1910.5,40.11402,-88.22445,225.116,-1,-1,10,65.41203,1415909268,0.0272522,-0.02420044,-1.007141,23.62365,-27.75204,6.90625,217.3816,220.464,25,-0.05970594,-0.06808851,-0.01499573,-0.8239713,0.02740506,0.02546135,0.0006891217,-0.0009525862,-0.0006199656,-0.005099653,-0.001091691,0.002474332,172.17.160.76,10.175.81.193,5,stationary,2,2014-11-13 14:09:21.708,15,2014-11-13 13:57:29.604,0
2014-11-13 14:10:04.065,57316,1910.533,40.11402,-88.22445,225.116,-1,-1,10,65.41203,1415909268,0.03274536,-0.02337646,-0.993042,23.89928,-28.0966,6.90625,217.3873,220.4697,25,-0.05969635,-0.06385408,-0.01709643,-0.8239979,0.0274993,0.02537895,0.0006900141,0.001172667,-0.0006089173,0.002282921,0.002365974,0.004549035,172.17.160.76,10.175.81.193,5,stationary,2,2014-11-13 14:09:21.708,15,2014-11-13 13:57:29.604,0
2014-11-13 14:10:04.099,57317,1910.567,40.11402,-88.22445,225.116,-1,-1,10,65.41203,1415909268,0.02536011,-0.02720642,-1.000397,23.76146,-28.64788,6.571106,217.3764,220.4588,25,-0.05649896,-0.06491828,-0.01711401,-0.82401,0.027736,0.02532488,0.001756341,0.002235456,-0.0006074188,0.005021816,0.001945704,0.006252856,172.17.160.76,10.175.81.193,5,stationary,2,2014-11-13 14:09:21.708,15,2014-11-13 13:57:29.604,0
2014-11-13 14:10:04.132,57318,1910.6,40.11402,-88.22445,225.116,-1,-1,10,65.41203,1415909268,0.02458191,-0.02792358,-1.002151,23.83037,-28.37224,7.040283,217.3708,220.4531,25,-0.05756982,-0.06703496,-0.01605966,-0.8240046,0.02761309,0.02542874,0.0006846535,-0.000945228,0.000441204,-0.005170234,-0.004237085,0.003034016,172.17.160.76,10.175.81.193,5,stationary,2,2014-11-13 14:09:21.708,15,2014-11-13 13:57:29.604,0
2014-11-13 14:10:04.166,57319,1910.633,40.11402,-88.22445,225.116,-1,-1,10,65.41203,1415909268,0.03210449,-0.02297974,-0.9954834,23.79592,-28.26887,7.408997,217.37,220.4524,25,-0.05970195,-0.06703389,-0.01605167,-0.8239925,0.02750417,0.02551107,0.00068691,-0.00094266,0.000443156,-0.002909842,-0.002415276,-0.002854972,172.17.160.76,10.175.81.193,5,stationary,2,2014-11-13 14:09:21.708,15,2014-11-13 13:57:29.604,0
2014-11-13 14:10:04.199,57320,1910.667,40.11402,-88.22445,225.116,-1,-1,10,65.41203,1415909268,0.03067017,-0.02572632,-1.003342,23.86483,-27.71758,7.610046,217.3761,220.4585,25,-0.05756822,-0.06916815,-0.01713238,-0.8239918,0.02774736,0.02534804,0.0006889726,-0.0009498109,-0.0006185836,0.004400128,0.001907828,0.001521729,172.17.160.76,10.175.81.193,5,stationary,2,2014-11-13 14:09:21.708,15,2014-11-13 13:57:29.604,0
2014-11-13 14:10:04.232,57321,1910.7,40.11402,-88.22445,225.116,-1,-1,10,65.41203,1415909268,0.02363586,-0.02850342,-0.996994,23.89928,-27.88985,7.576538,217.3808,220.4631,25,-0.05863029,-0.06385461,-0.01710042,-0.8240023,0.02786434,0.02532918,-0.0003759022,0.001176101,-0.0006035204,-0.0004164973,-0.0001251854,-0.001853237,172.17.160.76,10.175.81.193,5,stationary,2,2014-11-13 14:09:21.708,15,2014-11-13 13:57:29.604,0
2014-11-13 14:10:04.266,57322,1910.733,40.11402,-88.22445,225.116,-1,-1,10,65.41203,1415909268,0.02629089,-0.02552795,-0.9978638,23.89928,-27.75204,7.911743,217.3913,220.4737,25,-0.05863189,-0.06597982,-0.01711161,-0.823988,0.02759085,0.02552723,-0.0003793986,0.0001196219,0.0004523556,-0.005651478,-0.004199667,-0.001896467,172.17.160.76,10.175.81.193,5,stationary,2,2014-11-13 14:09:21.708,15,2014-11-13 13:57:29.604,0
2014-11-13 14:10:04.299,57323,1910.767,40.11402,-88.22445,225.116,-1,-1,10,65.41203,1415909268,0.02949524,-0.02389526,-0.9954376,23.93374,-27.64867,8.012268,217.4094,220.4918,25,-0.05863269,-0.06704242,-0.0171172,-0.8239934,0.02754154,0.02555383,-0.0003794631,0.0001191029,0.0004523012,-0.001238171,2.309251e-05,0.001430629,172.17.160.76,10.175.81.193,5,stationary,2,2014-11-13 14:09:21.708,15,2014-11-13 13:57:29.604,0
2014-11-13 14:10:04.332,57324,1910.8,40.11402,-88.22445,225.116,-1,-1,10,65.41203,1415909268,0.0269165,-0.02523804,-0.9987183,23.69255,-27.5453,7.777649,217.4258,220.5082,25,-0.05863588,-0.06703443,-0.01605567,-0.8239985,0.027814,0.02542434,-0.000375473,0.0001153346,-0.0006076164,0.002945035,0.001327975,-3.845376e-05,172.17.160.76,10.175.81.193,5,stationary,2,2014-11-13 14:09:21.708,15,2014-11-13 13:57:29.604,0
2014-11-13 14:10:04.366,57325,1910.833,40.11402,-88.22445,225.116,-1,-1,10,65.41203,1415909268,0.0239563,-0.02792358,-0.9962769,23.79592,-27.8554,7.542969,217.4289,220.5113,25,-0.05650216,-0.06491029,-0.01605247,-0.8239908,0.02779856,0.02543987,-0.0003782176,0.001185512,0.000459413,-0.001586649,-0.0004417821,0.003089632,172.17.160.76,10.175.81.193,5,stationary,2,2014-11-13 14:09:21.708,15,2014-11-13 13:57:29.604,0
2014-11-13 14:10:04.399,57326,1910.867,40.11402,-88.22445,225.116,-1,-1,10,65.41203,1415909268,0.02693176,-0.02523804,-1.001175,23.48583,-27.95877,7.107361,217.4252,220.5075,25,-0.05863588,-0.06703443,-0.01605567,-0.8239901,0.0277105,0.02551026,0.001753923,0.001183665,0.0004513789,-0.00374164,-0.002416095,0.003013989,172.17.160.76,10.175.81.193,5,stationary,2,2014-11-13 14:09:21.708,15,2014-11-13 13:57:29.604,0
2014-11-13 14:10:04.432,57327,1910.9,40.11402,-88.22445,225.116,-1,-1,10,65.41203,1415909268,0.03082275,-0.02375793,-0.9971924,23.27909,-28.30333,6.772217,217.4168,220.4991,25,-0.05757222,-0.06596437,-0.01499253,-0.8239523,0.02758954,0.02557045,-0.0003791289,0.000120939,0.0004536713,-0.0006452593,0.0003296286,-0.001882276,172.17.160.76,10.175.81.193,5,stationary,2,2014-11-13 14:09:21.708,15,2014-11-13 13:57:29.604,0
2014-11-13 14:10:04.466,57328,1910.933,40.11402,-88.22445,225.116,-1,-1,10,65.41203,1415909268,0.02682495,-0.02555847,-0.9965973,23.17573,-28.19997,6.872803,217.4019,220.4843,25,-0.05756742,-0.06810555,-0.01712679,-0.8239484,0.02772734,0.02550504,-0.0003814216,-0.002003862,0.0004423562,0.003107987,0.001744339,0.002098128,172.17.160.76,10.175.81.193,5,stationary,2,2014-11-13 14:09:21.708,15,2014-11-13 13:57:29.604,0
2014-11-13 14:10:04.499,57329,1910.967,40.11402,-88.22445,225.116,-1,-1,10,65.41203,1415909268,0.02619934,-0.02813721,-1.000671,23.62365,-28.51006,7.174377,217.3898,220.4721,25,-0.05543609,-0.06491082,-0.01605646,-0.8239667,0.02772465,0.02544882,-0.0003732707,0.0001082986,-0.001668013,-0.003038662,0.0003911456,0.003869654,172.17.160.76,10.175.81.193,5,stationary,2,2014-11-13 14:09:21.708,15,2014-11-13 13:57:29.604,0
2014-11-13 14:10:04.532,57330,1911,40.11402,-88.22445,225.116,-1,-1,10,65.41203,1415909268,0.02749634,-0.02630615,-0.9957581,23.86483,-28.19997,7.342041,217.3904,220.4728,25,-0.05756662,-0.06704295,-0.0171212,-0.8239772,0.02765648,0.02553204,-0.000375609,0.00117804,-0.0006009605,-0.001520899,-0.001265167,-0.00205099,172.17.160.76,10.175.81.193,5,stationary,2,2014-11-13 14:09:21.708,15,2014-11-13 13:57:29.604,0
2014-11-13 14:10:04.566,57331,1911.033,40.11402,-88.22445,225.116,-1,-1,10,65.41203,1415909268,0.02964783,-0.02391052,-1.00116,24.31276,-27.75205,7.308533,217.4037,220.486,25,-0.05970195,-0.06703389,-0.01605167,-0.8239793,0.02761011,0.02550269,0.0006819275,-0.0009323668,0.001506802,-0.0003149126,0.001009572,-0.001133433,172.17.160.76,10.175.81.193,5,stationary,2,2014-11-13 14:09:21.708,15,2014-11-13 13:57:29.604,0
2014-11-13 14:10:04.599,57332,1911.067,40.11402,-88.22445,225.116,-1,-1,10,65.41203,1415909268,0.02655029,-0.02713013,-0.9994049,24.2783,-27.57979,7.476074,217.4285,220.5109,25,-0.05863509,-0.06597183,-0.01605007,-0.8239824,0.02768363,0.02545143,-0.0003781107,-0.0009476501,-0.0006123575,0.0019767,0.00153816,-0.001866581,172.17.160.76,10.175.81.193,5,stationary,2,2014-11-13 14:09:21.708,15,2014-11-13 13:57:29.604,0
2014-11-13 14:10:04.632,57333,1911.1,40.11402,-88.22445,225.116,-1,-1,10,65.41203,1415909268,0.02586365,-0.02600098,-0.9987335,24.48503,-27.85542,7.610168,217.4402,220.5226,25,-0.05970514,-0.06702591,-0.01499014,-0.8239849,0.02769055,0.02543648,-0.0003776511,-0.0009446525,-0.0006106995,-0.0005631872,-0.0004909427,-0.001484923,172.17.160.76,10.175.81.193,5,stationary,2,2014-11-13 14:09:21.708,15,2014-11-13 13:57:29.604,0
2014-11-13 14:10:04.666,57334,1911.133,40.11402,-88.22445,225.116,-1,-1,10,65.41203,1415909268,0.02772522,-0.02563477,-0.9999084,24.38166,-27.82097,7.107422,217.4669,220.5492,25,-0.05970115,-0.06597129,-0.01604608,-0.8239741,0.02763876,0.0254266,0.0006850466,-0.0009376418,0.0004467839,-0.001762664,-0.0005771139,0.000561438,172.17.160.76,10.175.81.193,5,stationary,2,2014-11-13 14:09:21.708,15,2014-11-13 13:57:29.604,0
2014-11-13 14:10:04.699,57335,1911.167,40.11402,-88.22445,225.116,-1,-1,10,65.41203,1415909268,0.0243988,-0.02676392,-0.9957886,24.24384,-27.75207,7.375549,217.4869,220.5693,25,-0.05756902,-0.06597236,-0.01605407,-0.8239805,0.0275791,0.02541295,-0.0003806468,0.0001246999,0.0004562466,-0.0006959743,-0.001231626,-0.002213668,172.17.160.76,10.175.81.193,5,stationary,2,2014-11-13 14:09:21.708,15,2014-11-13 13:57:29.604,0
2014-11-13 14:10:04.732,57336,1911.2,40.11402,-88.22445,225.116,-1,-1,10,65.41203,1415909268,0.03005981,-0.02398682,-1.006241,24.03711,-27.75207,7.37561,217.4934,220.5758,25,-0.05863189,-0.06597982,-0.01711161,-0.8239703,0.02744633,0.02548996,0.0006836888,-0.002002139,0.0004409416,0.002641102,0.0004627862,-0.001357484,172.17.160.76,10.175.81.193,5,stationary,2,2014-11-13 14:09:21.708,15,2014-11-13 13:57:29.604,0
2014-11-13 14:10:04.765,57337,1911.233,40.11402,-88.22445,225.116,-1,-1,10,65.41203,1415909268,0.02798462,-0.02493286,-0.9955597,24.14048,-27.51088,7.744324,217.5078,220.5902,25,-0.05756902,-0.06597236,-0.01605407,-0.8239691,0.02753994,0.02543167,-0.0003780392,0.0001158954,-0.0006055009,0.004607458,0.00106064,-0.003403251,172.17.160.76,10.175.81.193,5,stationary,2,2014-11-13 14:09:21.708,15,2014-11-13 13:57:29.604,0
2014-11-13 14:10:04.799,57338,1911.267,40.11402,-88.22445,225.116,-1,-1,10,65.41203,1415909268,-0.03240967,-0.02655029,-0.9990997,23.86483,-27.44197,7.677307,217.5217,220.6041,25,-0.05593544,-0.06046867,0.1506215,-0.8239253,0.0275947,0.0253705,-0.0004067064,0.0001909219,0.008950076,-0.008051067,-0.0007705324,0.001296501,172.17.160.76,10.175.81.193,5,stationary,2,2014-11-13 14:09:21.708,15,2014-11-13 13:57:29.604,0
2014-11-13 14:10:04.833,57339,1911.3,40.11402,-88.22445,225.116,-1,-1,10,65.41203,1415909268,0.07751465,-0.02507019,-0.9969788,23.79592,-27.5798,7.811462,217.5267,220.6091,25,-0.0564188,-0.06458326,0.3098239,-0.821736,0.02554508,0.02545354,0.002318263,0.005619983,0.1671295,-0.0579437,-0.001099504,0.0002501925,172.17.160.76,10.175.81.193,5,stationary,2,2014-11-13 14:09:21.708,15,2014-11-13 13:57:29.604,0
2014-11-13 14:10:04.866,57340,1911.333,40.11402,-88.22445,225.116,-1,-1,10,65.41203,1415909268,0.03108215,-0.0151062,-0.9937134,23.38246,-27.85544,8.146606,217.2506,220.333,25,-0.06037733,-0.06694548,-0.1455495,-0.8135093,0.02535976,0.02571505,-0.003266169,-0.003861001,-0.104639,0.02985764,0.02293512,-0.001460765,172.17.160.76,10.175.81.193,5,stationary,2,2014-11-13 14:09:21.708,15,2014-11-13 13:57:29.604,0
2014-11-13 14:10:04.899,57341,1911.367,40.11402,-88.22445,225.116,-1,-1,10,65.41203,1415909268,0.02238464,-0.03155518,-1.003311,23.24464,-27.92435,8.012512,217.0129,220.0952,25,-0.06298083,-0.08492874,0.006157495,-0.8176663,0.02544909,0.02557326,-1.553686e-05,-0.00186556,-0.1216245,0.02363425,0.003780917,0.001622877,172.17.160.76,10.175.81.193,5,stationary,2,2014-11-13 14:09:21.708,15,2014-11-13 13:57:29.604,0
2014-11-13 14:10:04.932,57342,1911.4,40.11402,-88.22445,225.116,-1,-1,10,65.41203,1415909268,6.103516e-05,-0.02189636,-0.9980011,22.65891,-27.54534,7.710876,216.738,219.8204,25,-0.06432892,-0.08528773,0.09957106,-0.8161611,0.02503337,0.02551093,-0.007172982,-0.02125336,0.1256254,-0.0138074,-0.0009810912,0.001711251,172.17.160.76,10.175.81.193,5,stationary,2,2014-11-13 14:09:21.708,15,2014-11-13 13:57:29.604,0
2014-11-13 14:10:04.966,57343,1911.433,40.11402,-88.22445,225.116,-1,-1,10,65.41203,1415909268,0.02616882,-0.01190186,-0.9985046,22.90009,-27.44197,7.543274,217.0638,220.1461,25,-0.0598162,-0.06568367,0.02216922,-0.8138784,0.02465472,0.02544088,-0.006035899,-0.008651354,0.1055211,-0.02458321,0.003541773,0.001371486,172.17.160.76,10.175.81.193,5,stationary,2,2014-11-13 14:09:21.708,15,2014-11-13 13:57:29.604,0
2014-11-13 14:10:04.999,57344,1911.467,40.11402,-88.22445,225.116,-1,-1,10,65.41203,1415909268,0.007156372,-0.05632019,-0.996994,22.76227,-27.16633,7.543274,217.1077,220.19,25,-0.05680576,-0.07266808,0.08262563,-0.8119348,0.0250016,0.02560661,0.002664713,0.007946003,0.05250169,-0.03121638,-0.01394697,0.004105231,172.17.160.76,10.175.81.193,5,stationary,2,2014-11-13 14:09:21.708,15,2014-11-13 13:57:29.604,0
2014-11-13 14:10:05.032,57345,1911.5,40.11402,-88.22445,225.116,-1,-1,10,65.41203,1415909268,-0.01586914,-0.02679443,-1.000626,23.27909,-27.33861,7.509766,217.4621,220.5444,25,-0.05537511,-0.06452786,0.3172507,-0.808668,0.02480769,0.02568253,0.001384125,-3.542117e-05,0.1214607,-0.02209616,-0.03772056,0.001468341,172.17.160.76,10.175.81.193,5,stationary,2,2014-11-13 14:09:21.708,15,2014-11-13 13:57:29.604,0
2014-11-13 14:10:05.066,57346,1911.533,40.11402,-88.22445,225.116,-1,-1,10,65.41203,1415909268,-0.03153992,0.01759338,-0.9996796,23.07236,-27.68315,7.509766,216.9536,220.036,25,-0.05631547,-0.06324156,0.6293367,-0.7948547,0.02335371,0.02604607,-0.0008574876,-0.008812175,0.5088638,-0.02174149,0.04916019,-0.0003676321,172.17.160.76,10.175.81.193,5,stationary,2,2014-11-13 14:09:21.708,15,2014-11-13 13:57:29.604,0
2014-11-13 14:10:05.099,57347,1911.567,40.11402,-88.22445,225.116,-1,-1,10,65.41203,1415909268,0.02508545,-0.03079224,-1.001236,22.93455,-28.44117,7.777893,216.0478,219.1302,25,-0.05323233,-0.04592195,0.6718756,-0.7825695,0.02191848,0.02536795,0.001931653,0.002836571,0.6458459,-0.05344959,0.04295861,-0.0002414376,172.17.160.76,10.175.81.193,5,stationary,2,2014-11-13 14:09:21.708,15,2014-11-13 13:57:29.604,0
2014-11-13 14:10:05.132,57348,1911.6,40.11402,-88.22445,225.116,-1,-1,10,65.41203,1415909268,0.09509277,-0.06895447,-1.001083,22.52108,-28.51008,8.113098,215.4898,218.5722,25,-0.05882284,-0.06017945,0.04767005,-0.7575459,0.0215277,0.02597424,0.004578326,0.004747937,0.4760107,0.03545754,-0.01103124,-0.003513892,172.17.160.76,10.175.81.193,5,stationary,2,2014-11-13 14:09:21.708,15,2014-11-13 13:57:29.604,0
2014-11-13 14:10:05.166,57349,1911.633,40.11402,-88.22445,225.116,-1,-1,10,65.41203,1415909268,0.01296997,0.01037598,-1.002945,22.24544,-28.44117,8.448242,215.0622,218.1445,25,-0.08795489,-0.1529789,0.1396394,-0.7526553,0.02156347,0.02613466,0.002695597,0.004653198,0.03974807,0.02603773,0.007546481,0.00189803,172.17.160.76,10.175.81.193,5,stationary,2,2014-11-13 14:09:21.708,15,2014-11-13 13:57:29.604,0
2014-11-13 14:10:05.199,57350,1911.667,40.11402,-88.22445,225.116,-1,-1,10,65.41203,1415909268,-0.1576385,-0.01750183,-1.047318,22.3488,-28.40671,8.079529,215.1316,218.214,25,-0.1650348,0.1156174,0.668899,-0.748051,0.01928841,0.02535458,-0.0587295,-0.1139687,0.2282971,-0.004357919,0.006461487,-0.007831585,172.17.160.76,10.175.81.193,5,stationary,2,2014-11-13 14:09:21.708,15,2014-11-13 13:57:29.604,0
2014-11-13 14:10:05.232,57351,1911.7,40.11402,-88.22445,225.116,-1,-1,10,65.41203,1415909268,-0.1515961,0.1335449,-1.009445,22.07316,-28.88908,7.677246,214.5073,217.5897,25,-0.1867225,0.147953,1.152125,-0.7387239,0.01987158,0.02375401,-0.1067878,0.1816974,0.6854098,-0.1088234,0.05541376,-0.02684668,172.17.160.76,10.175.81.193,5,stationary,2,2014-11-13 14:09:21.708,15,2014-11-13 13:57:29.604,0
2014-11-13 14:10:05.266,57352,1911.733,40.11402,-88.22445,225.116,-1,-1,10,65.41203,1415909268,0.02041626,-0.06323242,-1.007416,21.14287,-29.06136,7.174561,213.1581,216.2405,25,-0.08281712,0.340409,0.3290392,-0.6859413,0.02964676,0.0207958,-0.02896093,0.3605053,0.7295825,-0.03328286,0.05089989,0.02778682,172.17.160.76,10.175.81.193,5,stationary,2,2014-11-13 14:09:21.708,15,2014-11-13 13:57:29.604,0
2014-11-13 14:10:05.299,57353,1911.767,40.11402,-88.22445,225.116,-1,-1,10,65.41203,1415909268,0.1052704,-0.05944824,-0.9885254,20.62605,-29.50928,7.40918,212.0492,215.1316,25,-0.08355562,0.2693271,0.2023512,-0.679415,0.04133199,0.02037071,-0.02168079,0.4120504,0.09612179,-0.01732484,0.03419376,0.006156064,172.17.160.76,10.175.81.193,5,unknown,0,2014-11-13 14:10:05.225,15,2014-11-13 13:57:29.604,0
2014-11-13 14:10:05.332,57354,1911.8,40.11402,-88.22445,225.116,-1,-1,10,65.41203,1415909268,0.00138855,0.1089325,-1.062439,20.90169,-29.16473,7.610291,212.4902,215.5726,25,-0.172751,0.3488736,1.165868,-0.6715364,0.05371848,0.01922543,-0.06016819,0.2632968,0.09442096,0.1133705,-0.02202026,-0.008981763,172.17.160.76,10.175.81.193,5,unknown,0,2014-11-13 14:10:05.225,15,2014-11-13 13:57:29.604,0
2014-11-13 14:10:05.366,57355,1911.833,40.11402,-88.22445,225.116,-1,-1,10,65.41203,1415909268,0.09684753,-0.06690979,-0.9550781,21.34961,-29.61266,7.911926,212.7355,215.8179,25,-0.2155728,1.371364,2.192559,-0.64135,0.06643117,0.0180799,-0.1536983,0.8785245,1.924822,-0.06629518,0.2126742,-0.03947819,172.17.160.76,10.175.81.193,5,unknown,0,2014-11-13 14:10:05.225,15,2014-11-13 13:57:29.604,0
2014-11-13 14:10:05.399,57356,1911.867,40.11402,-88.22445,225.116,-1,-1,10,65.41203,1415909268,0.296524,-0.3967896,-0.988266,21.52189,-29.64711,7.744385,212.6934,215.7758,25,-0.2060128,1.567319,0.8401653,-0.5953559,0.0904758,0.01806534,-0.157325,1.437446,2.209072,0.006509863,-0.04884543,0.04066923,172.17.160.76,10.175.81.193,5,unknown,0,2014-11-13 14:10:05.225,15,2014-11-13 13:57:29.604,0
2014-11-13 14:10:05.432,57357,1911.9,40.11402,-88.22445,225.116,-1,-1,10,65.41203,1415909268,0.3711243,-0.05993652,-0.9395447,21.65971,-29.99167,7.610291,212.2971,215.3795,25,-0.3126831,2.34256,1.059066,-0.5569054,0.1517808,0.01647073,-0.1244992,1.5588,0.5462458,0.1706907,-0.2174625,-0.07095686,172.17.160.76,10.175.81.193,5,unknown,0,2014-11-13 14:10:05.225,15,2014-11-13 13:57:29.604,0
2014-11-13 14:10:05.466,57358,1911.933,40.11402,-88.22445,225.116,-1,-1,10,65.41203,1415909268,0.2176208,-0.06707764,-0.896698,22.24545,-30.09502,7.241638,212.5327,215.615,25,-0.4713039,1.229584,1.409396,-0.5263838,0.2174361,0.01497715,-0.343719,2.200959,1.288178,0.1554217,-0.04495994,0.03679957,172.17.160.76,10.175.81.193,5,unknown,0,2014-11-13 14:10:05.225,15,2014-11-13 13:57:29.604,0
2014-11-13 14:10:05.499,57359,1911.967,40.11402,-88.22445,225.116,-1,-1,10,65.41203,1415909268,0.6027679,-0.3262177,-0.8859406,23.31356,-30.68077,7.342163,212.5085,215.5909,25,-0.2488189,-0.1239041,-0.2428001,-0.4707539,0.263811,0.01327854,-0.3361473,0.3626542,1.137292,-0.05913951,-0.01563725,0.07333508,172.17.160.76,10.175.81.193,5,unknown,0,2014-11-13 14:10:05.225,15,2014-11-13 13:57:29.604,0
2014-11-13 14:10:05.532,57360,1912,40.11402,-88.22445,225.116,-1,-1,10,65.41203,1415909268,0.3635254,0.3628387,-0.9333496,23.48583,-30.92195,7.777893,215.081,218.1634,25,-0.06819264,-0.2555644,-0.7834027,-0.4659424,0.2653567,0.008430742,-0.1487133,-0.1926908,-0.354532,0.3405237,-0.317787,0.07902417,172.17.160.76,10.175.81.193,5,unknown,0,2014-11-13 14:10:05.225,15,2014-11-13 13:57:29.604,0
2014-11-13 14:10:05.566,57361,1912.033,40.11402,-88.22445,225.116,-1,-1,10,65.41203,1415909268,0.2322083,0.03315735,-1.0103,24.79513,-31.1976,8.180176,216.4043,219.4866,25,-0.0879754,0.913794,-0.2888891,-0.5228317,0.2696548,0.0008839442,0.09682588,0.6276516,-1.321326,-0.559871,0.06014908,-0.3487748,172.17.160.76,10.175.81.193,5,unknown,0,2014-11-13 14:10:05.225,15,2014-11-13 13:57:29.604,0
2014-11-13 14:10:05.599,57362,1912.067,40.11402,-88.22445,225.116,-1,-1,10,65.41203,1415909268,0.2696228,0.02185059,-0.9735565,25.65651,-30.33622,8.280762,218.4066,221.4889,25,-0.3393035,0.3570191,0.5434449,-0.5224099,0.2925366,-0.00337839,-0.2152892,0.6437197,0.3708678,-0.07610002,0.1209045,0.03728295,172.17.160.76,10.175.81.193,5,unknown,0,2014-11-13 14:10:05.225,15,2014-11-13 13:57:29.604,0
2014-11-13 14:10:05.633,57363,1912.1,40.11402,-88.22445,225.116,-1,-1,10,65.41203,1415909268,0.5107269,0.1683807,-1.020172,26.51788,-30.23285,8.180176,219.1509,222.2332,25,-0.4522327,1.498142,0.80994,-0.5039442,0.3087211,-0.006203045,-0.3002892,0.8277592,0.6768004,0.02784569,0.02613037,-0.04515917,172.17.160.76,10.175.81.193,5,unknown,0,2014-11-13 14:10:05.225,15,2014-11-13 13:57:29.604,0
2014-11-13 14:10:05.666,57364,1912.133,40.11402,-88.22445,225.116,-1,-1,10,65.41203,1415909268,0.2024689,-0.08268738,-0.8760834,27.13807,-29.95721,8.783447,219.7125,222.7948,25,-0.8823889,1.935644,1.452867,-0.4703727,0.3711505,-0.009838942,-0.6709429,2.642779,1.381955,0.07211363,-0.05421134,-0.03078091,172.17.160.76,10.175.81.193,5,unknown,0,2014-11-13 14:10:05.225,15,2014-11-13 13:57:29.604,0
2014-11-13 14:10:05.699,57365,1912.167,40.11402,-88.22445,225.116,-1,-1,10,65.41203,1415909268,0.3371582,0.06707764,-0.9554596,28.24064,-30.02612,9.587891,219.7132,222.7956,25,-0.1924981,0.3300381,-0.06759902,-0.4143661,0.4459564,-0.01598336,-0.3806396,1.039041,0.5083765,-0.2392645,-0.1037207,0.004301934,172.17.160.76,10.175.81.193,5,unknown,0,2014-11-13 14:10:05.225,15,2014-11-13 13:57:29.604,0
2014-11-13 14:10:05.732,57366,1912.2,40.11402,-88.22445,225.116,-1,-1,10,65.41203,1415909268,0.3241882,-0.05502319,-1.047974,29.03312,-29.78493,9.956543,220.0041,223.0865,25,-0.2365952,0.5199944,-0.2437011,-0.4114353,0.4629428,-0.01959522,-0.04530591,0.5886663,-0.1565541,-0.1093392,0.04748367,-0.06088922,172.17.160.76,10.175.81.193,5,unknown,0,2014-11-13 14:10:05.225,15,2014-11-13 13:57:29.604,0
2014-11-13 14:10:05.766,57367,1912.233,40.11402,-88.22445,225.116,-1,-1,10,65.41203,1415909268,0.2858429,0.01496887,-1.027817,29.99786,-29.85384,10.29175,220.5732,223.6555,25,-0.9148166,-1.144716,-0.2435589,-0.4154303,0.4781132,-0.02766198,-0.4344609,0.001305667,-0.2908753,-0.1357405,-0.08268165,-0.1604487,172.17.160.76,10.175.81.193,5,unknown,0,2014-11-13 14:10:05.225,15,2014-11-13 13:57:29.604,0
2014-11-13 14:10:05.799,57368,1912.267,40.11402,-88.22445,225.116,-1,-1,10,65.41203,1415909268,0.5116119,0.07383728,-1.366302,29.54994,-29.33702,9.856018,220.7412,223.8235,25,1.238826,-3.075325,-0.1004446,-0.4138556,0.3988255,-0.05600655,0.3966554,-2.81713,-0.1676523,0.0150131,0.007880756,-0.4228532,172.17.160.76,10.175.81.193,5,unknown,0,2014-11-13 14:10:05.225,15,2014-11-13 13:57:29.604,0
2014-11-13 14:10:05.832,57369,1912.3,40.11402,-88.22445,225.116,-1,-1,10,65.41203,1415909268,0.4382019,0.117157,-1.273651,27.99946,-29.5782,9.353271,219.73,222.8124,25,2.186062,-3.490285,0.3078012,-0.4249018,0.3373795,-0.02932619,1.95742,-3.170942,0.07408836,0.1807388,0.04451529,-0.4230829,172.17.160.76,10.175.81.193,5,unknown,0,2014-11-13 14:10:05.225,15,2014-11-13 13:57:29.604,0
2014-11-13 14:10:05.866,57370,1912.333,40.11402,-88.22445,225.116,-1,-1,10,65.41203,1415909268,0.06407166,-0.00302124,-1.308884,23.38246,-31.16315,8.213623,217.3281,220.4105,25,2.427289,-4.535511,0.6495599,-0.4278953,0.1858687,0.0648777,2.404508,-4.238371,0.7259733,-0.004296762,0.2443366,-0.2769056,172.17.160.76,10.175.81.193,5,unknown,0,2014-11-13 14:10:05.225,15,2014-11-13 13:57:29.604,0
2014-11-13 14:10:05.899,57371,1912.367,40.11402,-88.22445,225.116,-1,-1,10,65.41203,1415909268,-0.06175232,0.2196503,-1.558548,15.49221,-34.98769,8.113037,208.6717,211.754,25,2.966465,-6.556289,0.5700262,-0.4180761,0.04535508,0.1451336,2.791794,-5.01595,0.7788098,-0.1152974,0.1678638,-0.4868728,172.17.160.76,10.175.81.193,5,unknown,0,2014-11-13 14:10:05.225,15,2014-11-13 13:57:29.604,0
2014-11-13 14:10:05.932,57372,1912.4,40.11402,-88.22445,225.116,-1,-1,10,65.41203,1415909268,-0.116394,0.2670135,-1.442703,10.94411,-36.77935,8.984558,203.9801,207.0624,25,3.650183,-8.277949,0.006429137,-0.3934653,-0.1489952,0.235417,3.2754,-6.985799,0.4035988,0.03361697,0.5002925,-0.6333424,172.17.160.76,10.175.81.193,5,unknown,0,2014-11-13 14:10:05.225,15,2014-11-13 13:57:29.604,0
2014-11-13 14:10:05.966,57373,1912.433,40.11402,-88.22445,225.116,-1,-1,10,65.41203,1415909268,-0.2660828,0.03323364,-0.8995514,1.055466,-40.53497,13.84454,216.1378,219.2202,26,4.023175,-8.552478,-0.02188879,-0.3599721,-0.3989159,0.3395467,3.765875,-8.536316,-0.02144234,0.249849,0.6000732,-0.573832,172.17.160.76,10.175.81.193,5,unknown,0,2014-11-13 14:10:05.225,15,2014-11-13 13:57:29.604,0
2014-11-13 14:10:05.999,57374,1912.467,40.11402,-88.22445,225.116,-1,-1,10,65.41203,1415909268,-0.4109039,-0.04856873,0.006149292,-3.216988,-42.32664,17.59857,219.8471,222.9294,26,4.478595,-4.142071,0.675795,-0.2566327,-0.7722916,0.472178,4.374501,-7.374901,0.3040235,0.4710827,0.4847343,0.0242411,172.17.160.76,10.175.81.193,5,unknown,0,2014-11-13 14:10:05.225,15,2014-11-13 13:57:29.604,0
2014-11-13 14:10:06.032,57375,1912.5,40.11402,-88.22445,225.116,-1,-1,10,65.41203,1415909268,-0.518692,0.1213531,0.02108765,-9.935753,-44.84187,27.28519,220.7193,223.8017,26,4.16503,-0.5799534,0.5704723,-0.124584,-0.9732684,0.5431221,4.437593,-2.534696,0.7644832,0.2968582,0.4682426,0.4877912,172.17.160.76,10.175.81.193,5,unknown,0,2014-11-13 14:10:05.225,15,2014-11-13 13:57:29.604,0
2014-11-13 14:10:06.066,57376,1912.533,40.11402,-88.22445,225.116,-1,-1,10,65.41203,1415909268,-0.5019531,-0.4376526,-0.01307678,-13.27791,-46.25454,36.03333,218.0344,221.1168,26,3.610786,0.03325383,-0.01440717,0.01440622,-1.071979,0.5938658,4.00675,-0.2042347,0.3495298,0.1111575,0.4977862,0.4070233,172.17.160.76,10.175.81.193,5,unknown,0,2014-11-13 14:10:05.225,15,2014-11-13 13:57:29.604,0
2014-11-13 14:10:06.099,57377,1912.567,40.11402,-88.22445,225.116,-1,-1,10,65.41203,1415909268,-0.3237305,-0.3875885,-0.07492065,-15.06958,-45.9789,42.26761,211.376,214.4584,26,2.356201,0.09147639,0.3016115,0.187444,-1.163596,0.6718562,2.670487,0.3011926,-0.06315193,0.4095742,0.2784915,0.2892615,172.17.160.76,10.175.81.193,5,unknown,0,2014-11-13 14:10:05.225,15,2014-11-13 13:57:29.604,0
2014-11-13 14:10:06.132,57378,1912.6,40.11402,-88.22445,225.116,-1,-1,10,65.41203,1415909268,-0.4467316,-0.3881989,0.06347656,-15.2074,-45.49653,44.34567,210.8543,213.9367,26,2.080385,-0.4866581,1.118003,0.248007,-1.200123,0.6819165,2.23166,-0.1355107,0.7577786,0.4042108,0.2742335,0.2493423,172.17.160.76,10.175.81.193,5,unknown,0,2014-11-13 14:10:05.225,15,2014-11-13 13:57:29.604,0
