time,timestamp,recordtime,lat,long,alt,speed,course,verticalAccuracy,horizontalAccuracy,locTimeStamp,accelerationX,accelerationY,accelerationZ,HeadingX,HeadingY,HeadingZ,TrueHeading,MagneticHeading,HeadingAccuracy,RotationX,RotationY,RotationZ,motionYaw,motionRoll,motionPitch,motionRotationRateX,motionRotationRateY,motionRotationRateZ,motionUserAccelerationX,motionUserAccelerationY,motionUserAccelerationZ,en0,pdp_ip0,DeviceOrientation,Activity,Activity Confidence,Activity Start,Steps,Last Step Date,State
2014-11-13 15:08:55.781,318,10.6,40.11401,-88.22452,225.2498,-1,-1,10,81.39496,1415912932,0.3443451,-0.2524261,-0.8870392,7.432182,-22.17471,-40.34796,146.3609,149.443,15,-0.282343,0.03912184,-0.04331898,0.511834,0.3478414,0.220858,-0.1752781,0.103264,0.002437431,-0.01029337,-0.02086235,0.06737598,172.17.160.76,10.175.81.193,5,unknown,2,2014-11-13 15:08:53.698,0,2014-11-13 13:57:29.604,0
2014-11-13 15:08:55.813,319,10.63333,40.11401,-88.22452,225.2498,-1,-1,10,81.39496,1415912932,0.3494873,-0.2446899,-0.9078064,7.707825,-21.76125,-40.68311,146.4038,149.486,15,-0.2312599,-0.02668913,-0.03111904,0.5129704,0.3517594,0.2176234,-0.2050449,0.07223901,-0.02839421,0.01622261,-0.0459616,0.0145717,172.17.160.76,10.175.81.193,5,unknown,2,2014-11-13 15:08:53.698,0,2014-11-13 13:57:29.604,0
2014-11-13 15:08:55.847,320,10.66667,40.11401,-88.22452,225.2498,-1,-1,10,81.39496,1415912932,0.3378601,-0.2211151,-0.8770294,7.638916,-21.14105,-40.48199,145.5039,148.586,15,-0.1427223,-0.1035203,-0.06900703,0.5139169,0.3520413,0.2136049,-0.09317896,-0.02132623,-0.02930592,0.003872801,-0.0207123,0.01960213,172.17.160.76,10.175.81.193,5,unknown,2,2014-11-13 15:08:53.698,0,2014-11-13 13:57:29.604,0
2014-11-13 15:08:55.881,321,10.7,40.11401,-88.22452,225.2498,-1,-1,10,81.39496,1415912932,0.335495,-0.1970367,-0.8378448,7.949013,-21.17551,-40.9848,145.8078,148.89,15,-0.1638102,-0.2105527,-0.1735169,0.5119185,0.3505936,0.2104789,-0.06632539,-0.08678057,-0.1125465,-0.0003501529,0.003621269,0.06048651,172.17.160.76,10.175.81.193,5,unknown,2,2014-11-13 15:08:53.698,0,2014-11-13 13:57:29.604,0
2014-11-13 15:08:55.914,322,10.73333,40.11401,-88.22452,225.2498,-1,-1,10,81.39496,1415912932,0.3385925,-0.1975098,-0.8267059,7.673378,-20.83096,-41.25299,144.4892,147.5713,15,-0.1849765,-0.302485,-0.2482255,0.5084273,0.3476835,0.2064805,-0.1120379,-0.1765015,-0.1775987,0.003552662,0.00335629,0.08207452,172.17.160.76,10.175.81.193,5,unknown,2,2014-11-13 15:08:53.698,0,2014-11-13 13:57:29.604,0
2014-11-13 15:08:55.948,323,10.76667,40.11401,-88.22452,225.2498,-1,-1,10,81.39496,1415912932,0.3200226,-0.1910858,-0.8139038,7.466637,-21.03769,-41.45404,145.0752,148.1573,15,-0.2060189,-0.2808149,-0.3350741,0.5030698,0.342766,0.2011466,-0.1246468,-0.2440189,-0.2553959,0.006727076,-0.005895489,0.1055331,172.17.160.76,10.175.81.193,5,unknown,2,2014-11-13 15:08:53.698,0,2014-11-13 13:57:29.604,0
2014-11-13 15:08:55.981,324,10.8,40.11401,-88.22452,225.2498,-1,-1,10,81.39496,1415912932,0.3353577,-0.1631165,-0.83638,7.673378,-20.89987,-41.1189,147.1308,150.2129,15,-0.17997,-0.1925599,-0.4663307,0.4955071,0.3378365,0.1941568,-0.140265,-0.1736159,-0.361115,-0.005196402,0.001853409,0.111843,172.17.160.76,10.175.81.193,5,unknown,2,2014-11-13 15:08:53.698,0,2014-11-13 13:57:29.604,0
2014-11-13 15:08:56.014,325,10.83333,40.11401,-88.22452,225.2498,-1,-1,10,81.39496,1415912932,0.3303223,-0.1207275,-0.8348694,7.776745,-20.72759,-41.1524,148.0362,151.1183,15,-0.07737309,-0.3007726,-0.5787403,0.4749495,0.3344591,0.1816869,-0.05661416,-0.1919381,-0.531362,0.009664318,0.04395494,0.08133835,172.17.160.76,10.175.81.193,5,unknown,2,2014-11-13 15:08:53.698,0,2014-11-13 13:57:29.604,0
2014-11-13 15:08:56.047,326,10.86667,40.11401,-88.22452,225.2498,-1,-1,10,81.39496,1415912932,0.2996521,-0.08666992,-0.7173767,8.15575,-20.07294,-41.18585,149.8628,152.9449,15,0.05602945,-0.5002807,-0.6779468,0.4578626,0.3288625,0.1768493,0.1119061,-0.399828,-0.6126999,0.005465476,0.0638836,0.115609,172.17.160.76,10.175.81.193,5,unknown,2,2014-11-13 15:08:53.698,0,2014-11-13 13:57:29.604,0
2014-11-13 15:08:56.081,327,10.9,40.11401,-88.22452,225.2498,-1,-1,10,81.39496,1415912932,0.2683258,-0.06242371,-0.6651001,8.086842,-20.00403,-41.11884,149.9169,152.999,15,-0.1247683,-0.3500997,-0.7826272,0.4369842,0.320064,0.1729674,0.03874683,-0.3667232,-0.7364451,-0.02810275,0.08760309,0.2563863,172.17.160.76,10.175.81.193,5,unknown,2,2014-11-13 15:08:53.698,0,2014-11-13 13:57:29.604,0
2014-11-13 15:08:56.113,328,10.93333,40.11401,-88.22452,225.2498,-1,-1,10,81.39496,1415912932,0.2766418,-0.02210999,-0.7870789,7.501099,-19.62503,-40.68311,150.3467,153.4288,15,-0.5168903,-0.1747183,-0.7993419,0.4162064,0.316568,0.1614032,-0.3106428,-0.1521991,-0.7732821,-0.03275524,0.1179176,0.241852,172.17.160.76,10.175.81.193,5,unknown,2,2014-11-13 15:08:53.698,0,2014-11-13 13:57:29.604,0
2014-11-13 15:08:56.148,329,10.96667,40.11401,-88.22452,225.2498,-1,-1,10,81.39496,1415912932,0.2436829,-0.02287292,-0.8170013,7.84565,-18.93593,-40.54901,152.4811,155.5633,15,-0.2727817,-0.2780564,-0.8199069,0.3976337,0.3157207,0.1423169,-0.3798902,-0.1490889,-0.7878672,-0.04457561,0.1198948,0.123595,172.17.160.76,10.175.81.193,5,unknown,2,2014-11-13 15:08:53.698,0,2014-11-13 13:57:29.604,0
2014-11-13 15:08:56.181,330,11,40.11401,-88.22452,225.2498,-1,-1,10,81.39496,1415912932,0.2059021,-0.0317688,-0.5415344,8.465843,-18.66029,-40.88422,155.6758,158.7579,15,0.541137,-0.7423087,-0.7574645,0.3747777,0.3100756,0.1347238,0.3224127,-0.4373653,-0.7867078,-0.06448113,0.1113827,0.1669172,172.17.160.76,10.175.81.193,5,unknown,2,2014-11-13 15:08:53.698,0,2014-11-13 13:57:29.604,0
2014-11-13 15:08:56.213,331,11.03333,40.11401,-88.22452,225.2498,-1,-1,10,81.39496,1415912932,0.1531067,-0.07621765,-0.4986267,8.569214,-18.83257,-40.85065,157.2274,160.3096,15,-0.0521415,-0.5628564,-0.5282023,0.3405773,0.2887031,0.1464236,0.4187832,-0.6977037,-0.6408938,-0.0949561,0.09908699,0.4587014,172.17.160.76,10.175.81.193,5,unknown,2,2014-11-13 15:08:53.698,0,2014-11-13 13:57:29.604,0
2014-11-13 15:08:56.247,332,11.06667,40.11401,-88.22452,225.2498,-1,-1,10,81.39496,1415912932,0.2047882,-0.09306335,-0.6694794,8.121288,-18.93593,-40.48199,159.5844,162.6665,15,-0.5035553,-0.4581926,-0.3444474,0.3245466,0.275191,0.1440081,-0.1753237,-0.4230326,-0.4663242,-0.1134462,0.07376292,0.4088477,172.17.160.76,10.175.81.193,5,unknown,2,2014-11-13 15:08:53.698,0,2014-11-13 13:57:29.604,0
2014-11-13 15:08:56.280,333,11.1,40.11401,-88.22452,225.2498,-1,-1,10,81.39496,1415912932,0.1757507,-0.06384277,-0.8496552,8.017921,-18.62583,-40.18036,160.5406,163.6228,15,-0.6366172,-0.5464423,-0.07798188,0.3178548,0.2601222,0.1242186,-0.5420201,-0.4255828,-0.122106,-0.04722435,0.0290813,0.1816298,172.17.160.76,10.175.81.193,5,unknown,2,2014-11-13 15:08:53.698,0,2014-11-13 13:57:29.604,0
2014-11-13 15:08:56.313,334,11.13333,40.11401,-88.22452,225.2498,-1,-1,10,81.39496,1415912932,0.1009369,-0.05058289,-0.9113617,7.742279,-17.52327,-39.71106,162.2812,165.3633,15,-0.7072211,-0.7384903,-0.04582288,0.3209934,0.2436565,0.1067751,-0.6181689,-0.6383852,-0.02422371,-0.09255514,0.05455516,0.0944521,172.17.160.76,10.175.81.193,5,unknown,2,2014-11-13 15:08:53.698,0,2014-11-13 13:57:29.604,0
2014-11-13 15:08:56.347,335,11.16667,40.11401,-88.22452,225.2498,-1,-1,10,81.39496,1415912932,0.1318207,-0.1334839,-0.9237518,6.949806,-16.11061,-39.94568,164.6561,167.7383,15,-0.5510789,-0.7376813,-0.210933,0.3236924,0.2176375,0.08132912,-0.5590965,-0.6373844,-0.1698628,-0.1115263,0.03509692,0.04161855,172.17.160.76,10.175.81.193,5,unknown,2,2014-11-13 15:08:53.698,0,2014-11-13 13:57:29.604,0
2014-11-13 15:08:56.381,336,11.2,40.11401,-88.22452,225.2498,-1,-1,10,81.39496,1415912932,0.2045593,-0.3382874,-0.9374084,6.398521,-15.07696,-40.28082,162.2873,165.3695,15,-0.6029841,-0.5516445,0.08002559,0.3220638,0.2044612,0.07116792,-0.4663331,-0.6502464,-0.1787697,-0.070705,-0.06237603,0.05294005,172.17.160.76,10.175.81.193,5,unknown,2,2014-11-13 15:08:53.698,0,2014-11-13 13:57:29.604,0
2014-11-13 15:08:56.414,337,11.23333,40.11401,-88.22452,225.2498,-1,-1,10,81.39496,1415912932,0.135788,-0.2953491,-1.031433,5.537148,-13.45756,-40.24731,162.2766,165.3587,15,-1.142853,-0.3453348,0.6340427,0.3386978,0.1819892,0.04197261,-0.905342,-0.2811304,0.5540559,-0.01186631,-0.2787184,-0.001770814,172.17.160.76,10.175.81.193,5,unknown,2,2014-11-13 15:08:53.698,0,2014-11-13 13:57:29.604,0
2014-11-13 15:08:56.448,338,11.26667,40.11401,-88.22452,225.2498,-1,-1,10,81.39496,1415912932,0.103302,-0.1821594,-1.171677,4.469044,-12.18271,-40.21381,160.6785,163.7606,15,-1.309473,-0.5541927,0.6855794,0.3557241,0.1755104,0.0225724,-1.205425,-0.3329126,0.7141291,-0.04558373,-0.2387058,-0.09646962,172.17.160.76,10.175.81.193,5,unknown,2,2014-11-13 15:08:53.698,0,2014-11-13 13:57:29.604,0
2014-11-13 15:08:56.481,339,11.3,40.11401,-88.22452,225.2498,-1,-1,10,81.39496,1415912932,0.1043396,-0.1115875,-1.179596,3.883301,-11.66587,-39.91217,161.6204,164.7025,15,-0.5739581,-0.3441326,0.4058231,0.3898869,0.1565955,-0.01943883,-0.9855406,-0.4956948,0.5521372,-0.0554477,-0.1449106,-0.2121907,172.17.160.76,10.175.81.193,5,unknown,2,2014-11-13 15:08:53.698,0,2014-11-13 13:57:29.604,0
2014-11-13 15:08:56.513,340,11.33333,40.11401,-88.22452,225.2498,-1,-1,10,81.39496,1415912932,0.1637115,-0.1089325,-1.188766,2.953018,-10.8734,-39.81158,159.8198,162.9019,15,0.1382825,-0.2063662,0.4017586,0.4058163,0.1477109,-0.03424377,-0.2439789,-0.15382,0.4216598,-0.02063844,-0.1607019,-0.2028603,172.17.160.76,10.175.81.193,5,unknown,2,2014-11-13 15:08:53.698,0,2014-11-13 13:57:29.604,0
2014-11-13 15:08:56.548,341,11.36667,40.11401,-88.22452,225.2498,-1,-1,10,81.39496,1415912932,0.1183167,-0.05003357,-1.024155,2.780739,-10.90785,-39.64392,161.2824,164.3645,15,0.2597794,-0.4437466,0.3522869,0.4176735,0.1437443,-0.02832006,0.3455546,-0.2169282,0.4031976,0.008617354,-0.1188924,-0.1669755,172.17.160.76,10.175.81.193,5,unknown,2,2014-11-13 15:08:53.698,0,2014-11-13 13:57:29.604,0
2014-11-13 15:08:56.581,342,11.4,40.11401,-88.22452,225.2498,-1,-1,10,81.39496,1415912932,0.1112671,-0.01055908,-1.064224,2.608459,-11.21795,-39.61041,161.1348,164.2169,15,-0.1780323,-0.03344344,0.3454722,0.4349186,0.12801,-0.01666116,-0.1020713,-0.1872,0.3721242,-0.01394974,-0.04163903,-0.03592291,172.17.160.76,10.175.81.193,5,unknown,2,2014-11-13 15:08:53.698,0,2014-11-13 13:57:29.604,0
2014-11-13 15:08:56.614,343,11.43333,40.11401,-88.22452,225.2498,-1,-1,10,81.39496,1415912932,0.1537628,0.1166534,-1.284744,2.263901,-11.90706,-39.74451,161.6591,164.7412,15,0.4688266,0.2537433,0.1428807,0.4445665,0.1329274,-0.01538334,0.2227706,0.3238767,0.2494056,-0.02679241,0.05154231,-0.2043432,172.17.160.76,10.175.81.193,5,unknown,2,2014-11-13 15:08:53.698,0,2014-11-13 13:57:29.604,0
2014-11-13 15:08:56.648,344,11.46667,40.11401,-88.22452,225.2498,-1,-1,10,81.39496,1415912932,0.1427917,0.02580261,-1.202499,2.091629,-12.56171,-39.711,160.3646,163.4468,15,1.334675,0.1644358,0.04894224,0.4448747,0.141287,0.008255773,1.175243,0.2178756,0.06058286,0.03310702,0.1081702,-0.2962988,172.17.160.76,10.175.81.193,5,unknown,2,2014-11-13 15:08:53.698,0,2014-11-13 13:57:29.604,0
2014-11-13 15:08:56.681,345,11.5,40.11401,-88.22452,225.2498,-1,-1,10,81.39496,1415912932,0.1501617,-0.08662415,-1.120453,2.436172,-12.97517,-39.64398,161.3367,164.4189,15,1.010539,0.2339305,0.08555085,0.4409889,0.1495595,0.04922994,1.291458,0.3103992,0.07867997,-0.005465676,0.02500962,-0.1465928,172.17.160.76,10.175.81.193,5,unknown,2,2014-11-13 15:08:53.698,0,2014-11-13 13:57:29.604,0
2014-11-13 15:08:56.714,346,11.53333,40.11401,-88.22452,225.2498,-1,-1,10,81.39496,1415912932,0.1693573,-0.08914185,-1.226639,2.401718,-13.83655,-39.00714,157.6101,160.6922,15,0.08879911,0.2541407,0.3130815,0.442901,0.1601168,0.0791177,0.2951936,0.2590684,0.2551616,0.004807267,-0.0204216,-0.1820172,172.17.160.76,10.175.81.193,5,unknown,2,2014-11-13 15:08:53.698,0,2014-11-13 13:57:29.604,0
2014-11-13 15:08:56.748,347,11.56667,40.11401,-88.22452,225.2498,-1,-1,10,81.39496,1415912932,0.2070618,0.05195618,-1.477402,2.505081,-14.69793,-38.63837,157.7333,160.8154,15,0.5754588,0.1434426,0.4592837,0.4493845,0.166178,0.08345408,0.1476619,0.3591859,0.418648,0.01292635,0.02895966,-0.3444634,172.17.160.76,10.175.81.193,5,unknown,2,2014-11-13 15:08:53.698,0,2014-11-13 13:57:29.604,0
2014-11-13 15:08:56.781,348,11.6,40.11401,-88.22452,225.2498,-1,-1,10,81.39496,1415912932,0.1281128,-0.002807617,-1.256561,2.539536,-15.07693,-38.33673,157.3379,160.4201,15,1.348568,-0.2210397,-0.06034936,0.4615701,0.1715556,0.1152512,1.251008,-0.06713345,0.3156765,0.01939728,0.1829436,-0.4569158,172.17.160.76,10.175.81.193,5,unknown,2,2014-11-13 15:08:53.698,0,2014-11-13 13:57:29.604,0
2014-11-13 15:08:56.814,349,11.63333,40.11401,-88.22452,225.2498,-1,-1,10,81.39496,1415912932,0.2250977,-0.1321564,-1.065384,2.642899,-16.21396,-38.43726,156.4597,159.5418,15,1.103096,-0.1260096,-0.2967017,0.4587144,0.1689528,0.1429942,1.415126,-0.1538452,-0.04205274,-0.03832116,0.1396998,-0.2808608,172.17.160.76,10.175.81.193,5,unknown,2,2014-11-13 15:08:53.698,0,2014-11-13 13:57:29.604,0
2014-11-13 15:08:56.848,350,11.66667,40.11401,-88.22452,225.2498,-1,-1,10,81.39496,1415912932,0.2977905,-0.1463776,-1.089539,2.711807,-17.31652,-38.10205,155.6741,158.7563,15,0.6698897,0.3212342,-0.05389093,0.4417582,0.1716713,0.1851953,0.8157599,0.2233821,-0.218274,0.08344983,0.03313747,-0.069832,172.17.160.76,10.175.81.193,5,unknown,2,2014-11-13 15:08:53.698,0,2014-11-13 13:57:29.604,0
2014-11-13 15:08:56.881,351,11.7,40.11401,-88.22452,225.2498,-1,-1,10,81.39496,1415912932,0.2270966,-0.1081543,-1.054214,2.642899,-17.72998,-38.16901,154.9515,158.0336,15,0.1032388,-0.2721655,-0.0134961,0.4356553,0.1849948,0.2176605,0.4116874,-0.06111375,0.07470901,0.06608036,0.09642384,-0.1092094,172.17.160.76,10.175.81.193,5,unknown,2,2014-11-13 15:08:53.698,0,2014-11-13 13:57:29.604,0
2014-11-13 15:08:56.914,352,11.73333,40.11401,-88.22452,225.2498,-1,-1,10,81.39496,1415912932,0.1989899,-0.1762238,-1.043579,2.918541,-18.488,-37.83386,153.4975,156.5796,15,-0.3079078,-0.1887414,-0.1081121,0.4342977,0.1784642,0.2184563,-0.1699985,-0.2385094,-0.09600718,0.03429651,0.08323894,-0.07017091,172.17.160.76,10.175.81.193,5,unknown,2,2014-11-13 15:08:53.698,0,2014-11-13 13:57:29.604,0
2014-11-13 15:08:56.948,353,11.76667,40.11401,-88.22452,225.2498,-1,-1,10,81.39496,1415912932,0.2242126,-0.177475,-1.161499,3.021904,-18.59137,-37.46515,155.3318,158.4139,15,-0.4035315,0.371545,-0.07189763,0.4331793,0.1801539,0.207351,-0.3125515,0.2792427,-0.06727578,0.02253309,0.03176556,-0.09611066,172.17.160.76,10.175.81.193,5,unknown,2,2014-11-13 15:08:53.698,0,2014-11-13 13:57:29.604,0
2014-11-13 15:08:56.981,354,11.8,40.11401,-88.22452,225.2498,-1,-1,10,81.39496,1415912932,0.2498169,-0.1528625,-1.328506,3.194176,-18.62582,-37.56573,156.0349,159.117,15,-0.2958128,0.3692462,-0.08823532,0.4334971,0.1949265,0.1974317,-0.2942778,0.5481991,-0.04894431,0.06810976,0.02223186,-0.3207267,172.17.160.76,10.175.81.193,5,unknown,2,2014-11-13 15:08:53.698,0,2014-11-13 13:57:29.604,0
2014-11-13 15:08:57.014,355,11.83333,40.11401,-88.22452,225.2498,-1,-1,10,81.39496,1415912932,0.242157,-0.1643677,-1.29393,3.779915,-18.04008,-36.7948,156.6829,159.7651,15,-0.05839966,-0.05112683,-0.44375,0.430843,0.2053191,0.1901726,-0.1852562,0.1545984,-0.2435536,0.04698842,0.04393254,-0.3732179,172.17.160.76,10.175.81.193,5,unknown,2,2014-11-13 15:08:53.698,0,2014-11-13 13:57:29.604,0
2014-11-13 15:08:57.047,356,11.86667,40.11401,-88.22452,225.2498,-1,-1,10,81.39496,1415912932,0.266037,-0.2058563,-1.176361,4.262287,-18.04008,-36.7948,157.3826,160.4648,15,0.3773555,0.2394171,-0.6370414,0.4188253,0.2088736,0.1873776,0.1608862,0.05463681,-0.5149927,0.02881536,0.01401136,-0.2933292,172.17.160.76,10.175.81.193,5,unknown,2,2014-11-13 15:08:53.698,0,2014-11-13 13:57:29.604,0
2014-11-13 15:08:57.081,357,11.9,40.11401,-88.22452,225.2498,-1,-1,10,81.39496,1415912932,0.3686676,-0.2899475,-1.257599,5.261486,-17.66107,-36.4931,160.3772,163.4593,15,0.203008,0.41874,-0.3987338,0.3918578,0.2275975,0.1988439,0.4843431,0.5675755,-0.531548,0.1184538,-0.05308949,-0.2184163,172.17.160.76,10.175.81.193,5,unknown,2,2014-11-13 15:08:53.698,0,2014-11-13 13:57:29.604,0
2014-11-13 15:08:57.114,358,11.93333,40.11401,-88.22452,225.2498,-1,-1,10,81.39496,1415912932,0.3832092,-0.2741699,-1.339615,6.122864,-18.31571,-36.59369,161.6782,164.7603,15,-0.22388,0.1060529,-0.3234167,0.3776908,0.2452965,0.2043225,0.07956804,0.3503112,-0.3411713,0.1340795,-0.08292384,-0.3377567,172.17.160.76,10.175.81.193,5,unknown,2,2014-11-13 15:08:53.698,0,2014-11-13 13:57:29.604,0
2014-11-13 15:08:57.148,359,11.96667,40.11401,-88.22452,225.2498,-1,-1,10,81.39496,1415912932,0.3226013,-0.1576385,-1.226227,6.880882,-18.867,-35.72223,162.5271,165.6092,15,-0.6210724,-0.5863253,-0.2937309,0.37139,0.2469277,0.1929832,-0.5511077,-0.2429051,-0.2803677,0.1376138,-0.05484026,-0.3970111,172.17.160.76,10.175.81.193,5,unknown,2,2014-11-13 15:08:53.698,0,2014-11-13 13:57:29.604,0
2014-11-13 15:08:57.181,360,12,40.11401,-88.22452,225.2498,-1,-1,10,81.39496,1415912932,0.2181244,-0.06228638,-1.005264,7.12207,-19.03928,-35.82275,163.8134,166.8956,15,-0.05723586,-0.4660298,-0.2283354,0.364103,0.2236189,0.1693306,-0.1240252,-0.4922794,-0.2100381,0.03075565,0.08168481,-0.1138723,172.17.160.76,10.175.81.193,5,unknown,2,2014-11-13 15:08:53.698,0,2014-11-13 13:57:29.604,0
2014-11-13 15:08:57.214,361,12.03333,40.11401,-88.22452,225.2498,-1,-1,10,81.39496,1415912932,0.1687469,-0.04553223,-0.8286285,6.846424,-18.5569,-35.55463,166.243,169.3252,15,0.05886971,0.0116199,-0.428998,0.356353,0.2160199,0.1698318,0.1601584,-0.1138877,-0.3173809,-0.05169887,0.1330974,0.06411579,172.17.160.76,10.175.81.193,5,unknown,2,2014-11-13 15:08:53.698,0,2014-11-13 13:57:29.604,0
2014-11-13 15:08:57.248,362,12.06667,40.11401,-88.22452,225.2498,-1,-1,10,81.39496,1415912932,0.3192291,-0.1286316,-0.8990936,6.949791,-17.76443,-35.78925,168.2268,171.3089,15,-0.2819254,0.2493976,-0.4816668,0.3476698,0.2198887,0.1695992,-0.02142442,0.2485102,-0.4612772,-0.04624461,0.1232551,0.1332911,172.17.160.76,10.175.81.193,5,unknown,2,2014-11-13 15:08:53.698,0,2014-11-13 13:57:29.604,0
2014-11-13 15:08:57.281,363,12.1,40.11401,-88.22452,225.2498,-1,-1,10,81.39496,1415912932,0.3731232,-0.09713745,-0.9548187,7.0187,-17.83334,-35.72217,168.3342,171.4163,15,-0.6646795,0.2768324,-0.1075089,0.3364561,0.2343368,0.1514333,-0.5487714,0.3165555,-0.2063116,0.1425449,0.003760415,0.0207871,172.17.160.76,10.175.81.193,5,unknown,2,2014-11-13 15:08:53.698,0,2014-11-13 13:57:29.604,0
2014-11-13 15:08:57.313,364,12.13333,40.11401,-88.22452,225.2498,-1,-1,10,81.39496,1415912932,0.3402863,-0.0226593,-0.9758911,7.673351,-17.04086,-36.09088,166.8349,169.917,15,-0.6139103,0.4960542,0.08133774,0.3400182,0.2452402,0.1330023,-0.6518081,0.4450292,0.05693671,0.1149763,0.07473389,0.001306452,172.17.160.76,10.175.81.193,5,unknown,2,2014-11-13 15:08:53.698,0,2014-11-13 13:57:29.604,0
2014-11-13 15:08:57.348,365,12.16667,40.11401,-88.22452,225.2498,-1,-1,10,81.39496,1415912932,0.2854004,-0.03889465,-0.9877014,8.086815,-16.6274,-36.56012,166.2522,169.3344,15,-0.5493614,0.2438497,0.1763628,0.350164,0.2651562,0.1126103,-0.5188856,0.4766723,0.1754914,0.07590353,0.08005429,-0.0612788,172.17.160.76,10.175.81.193,5,unknown,2,2014-11-13 15:08:53.698,0,2014-11-13 13:57:29.604,0
2014-11-13 15:08:57.381,366,12.2,40.11401,-88.22452,225.2498,-1,-1,10,81.39496,1415912932,0.280365,-0.1199646,-0.9199524,7.914539,-15.83493,-36.32556,163.4886,166.5708,15,-0.6271049,0.4385124,0.1999701,0.3597279,0.2744396,0.09996503,-0.480641,0.3247487,0.180917,0.0008836983,0.03905338,0.005760584,172.17.160.76,10.175.81.193,5,unknown,2,2014-11-13 15:08:53.698,0,2014-11-13 13:57:29.604,0
2014-11-13 15:08:57.414,367,12.23333,40.11401,-88.22452,225.2498,-1,-1,10,81.39496,1415912932,0.2685242,-0.132309,-1.00589,8.190178,-15.55928,-37.13,162.3129,165.3951,15,-0.6412969,0.5149387,0.3299265,0.3705734,0.2877506,0.08602745,-0.5958585,0.5858383,0.2750722,0.01766848,-0.0507516,0.01309315,172.17.160.76,10.175.81.193,5,unknown,2,2014-11-13 15:08:53.698,0,2014-11-13 13:57:29.604,0
2014-11-13 15:08:57.448,368,12.26667,40.11401,-88.22452,225.2498,-1,-1,10,81.39496,1415912932,0.2866364,-0.1123199,-1.036758,7.673351,-14.97354,-37.56573,158.4374,161.5196,15,-0.5857458,0.5753035,0.3066838,0.3859415,0.3032508,0.07383493,-0.4864507,0.535673,0.3932842,-0.02928644,-0.05854109,-0.05411936,172.17.160.76,10.175.81.193,5,unknown,2,2014-11-13 15:08:53.698,0,2014-11-13 13:57:29.604,0
2014-11-13 15:08:57.481,369,12.3,40.11401,-88.22452,225.2498,-1,-1,10,81.39496,1415912932,0.3670502,-0.1317291,-1.129135,8.155724,-14.07771,-38.57135,156.3347,159.4168,15,-0.635121,0.4729028,0.3923095,0.41047,0.3339289,0.05344541,-0.5908219,0.643896,0.3602473,0.01414128,-0.07646284,-0.1516951,172.17.160.76,10.175.81.193,5,unknown,2,2014-11-13 15:08:53.698,0,2014-11-13 13:57:29.604,0
2014-11-13 15:08:57.514,370,12.33333,40.11401,-88.22452,225.2498,-1,-1,10,81.39496,1415912932,0.2722015,-0.1199951,-1.079285,8.362457,-12.90622,-39.17462,152.0019,155.084,15,-0.487233,0.1105377,0.3972779,0.4277981,0.3460311,0.04300447,-0.4495879,0.2587556,0.4447317,-0.002915758,-0.0801167,-0.2045832,172.17.160.76,10.175.81.193,5,unknown,2,2014-11-13 15:08:53.698,0,2014-11-13 13:57:29.604,0
2014-11-13 15:08:57.548,371,12.36667,40.11401,-88.22452,225.2498,-1,-1,10,81.39496,1415912932,0.2837067,-0.1602783,-0.9880066,8.913738,-12.76841,-39.64386,151.0361,154.1183,15,-0.4079569,0.1020774,0.2663742,0.4424798,0.350128,0.03536276,-0.3767781,0.1280429,0.305778,-0.07066312,-0.09539717,-0.07531181,172.17.160.76,10.175.81.193,5,unknown,2,2014-11-13 15:08:53.698,0,2014-11-13 13:57:29.604,0
2014-11-13 15:08:57.581,372,12.4,40.11401,-88.22452,225.2498,-1,-1,10,81.39496,1415912932,0.3367157,-0.1781616,-0.9679413,9.086018,-12.59613,-40.14655,150.5482,153.6303,15,-0.2384528,0.3617547,0.3318573,0.4539977,0.3540933,0.03712853,-0.2294925,0.345856,0.314876,-0.02998805,-0.1496171,-0.02868859,172.17.160.76,10.175.81.193,5,unknown,2,2014-11-13 15:08:53.698,0,2014-11-13 13:57:29.604,0
2014-11-13 15:08:57.613,373,12.43333,40.11401,-88.22452,225.2498,-1,-1,10,81.39496,1415912932,0.3449707,-0.1476593,-1.032242,9.223839,-12.52723,-40.07947,149.3158,152.398,15,-0.4798233,0.1937045,0.4359014,0.4663009,0.3670582,0.03764365,-0.2232253,0.496301,0.3984427,-0.01778137,-0.1413814,-0.04833799,172.17.160.76,10.175.81.193,5,unknown,2,2014-11-13 15:08:53.698,0,2014-11-13 13:57:29.604,0
2014-11-13 15:08:57.648,374,12.46667,40.11401,-88.22452,225.2498,-1,-1,10,81.39496,1415912932,0.2398224,-0.05123901,-0.9711914,8.9482,-12.04486,-40.74982,145.7244,148.8066,15,-0.5856416,-0.3208134,0.3974978,0.4829493,0.3750328,0.03169762,-0.4988516,0.03372711,0.4745271,-0.04211387,-0.09815998,-0.1127269,172.17.160.76,10.175.81.193,5,unknown,2,2014-11-13 15:08:53.698,0,2014-11-13 13:57:29.604,0
2014-11-13 15:08:57.681,375,12.5,40.11401,-88.22452,225.2498,-1,-1,10,81.39496,1415912932,0.2515869,-0.03988647,-0.793457,8.6381,-12.07932,-40.64923,145.1146,148.1968,15,0.2563269,-0.1178774,0.1661336,0.5035883,0.3653129,0.02157268,-0.1636741,-0.234738,0.2616857,-0.1149099,-0.006001628,0.008394931,172.17.160.76,10.175.81.193,5,unknown,2,2014-11-13 15:08:53.698,0,2014-11-13 13:57:29.604,0
2014-11-13 15:08:57.714,376,12.53333,40.11401,-88.22452,225.2498,-1,-1,10,81.39496,1415912932,0.2859802,-0.1208496,-0.7178345,8.500275,-12.21714,-41.58777,144.9112,147.9933,15,0.3598445,0.2959262,0.2347984,0.5065754,0.3634094,0.03045043,0.4327432,0.141676,0.1934996,-0.09388471,-0.02939924,0.2064738,172.17.160.76,10.175.81.193,5,unknown,2,2014-11-13 15:08:53.698,0,2014-11-13 13:57:29.604,0
2014-11-13 15:08:57.748,377,12.56667,40.11401,-88.22452,225.2498,-1,-1,10,81.39496,1415912932,0.280838,-0.06117249,-0.8393402,8.431366,-12.42387,-41.78888,143.7882,146.8703,15,-0.1296209,0.3540145,0.2985031,0.514308,0.382573,0.0454081,0.04880643,0.5425398,0.3477785,-0.07591157,-0.04986812,0.1605003,172.17.160.76,10.175.81.193,5,unknown,2,2014-11-13 15:08:53.698,0,2014-11-13 13:57:29.604,0
2014-11-13 15:08:57.781,378,12.6,40.11401,-88.22452,225.2498,-1,-1,10,81.39496,1415912932,0.2602997,-0.04460144,-0.8433075,8.982655,-12.69952,-41.92291,143.7228,146.805,15,0.0540169,-0.1364795,0.08187462,0.524527,0.3919272,0.04677867,0.005297833,0.01295422,0.1466554,-0.1200167,0.009194469,0.05225304,172.17.160.76,10.175.81.193,5,unknown,2,2014-11-13 15:08:53.698,0,2014-11-13 13:57:29.604,0
2014-11-13 15:08:57.814,379,12.63333,40.11401,-88.22452,225.2498,-1,-1,10,81.39496,1415912932,0.2614899,-0.0521698,-0.7537231,9.017109,-12.66506,-42.42566,140.9073,143.9895,15,0.4625421,-0.05739592,0.02662575,0.5243106,0.38972,0.05378432,0.3860978,-0.06655592,0.05352321,-0.1142433,0.006089936,0.1085381,172.17.160.76,10.175.81.193,5,unknown,2,2014-11-13 15:08:53.698,0,2014-11-13 13:57:29.604,0
2014-11-13 15:08:57.848,380,12.66667,40.11401,-88.22452,225.2498,-1,-1,10,81.39496,1415912932,0.27005,-0.06111145,-0.6857452,9.086021,-13.14743,-42.49268,141.5451,144.6272,15,0.7805925,0.1917172,-0.03163489,0.5180052,0.3923846,0.07150675,0.7766129,0.1847177,0.004555805,-0.1187051,0.01892507,0.2172928,172.17.160.76,10.175.81.193,5,unknown,2,2014-11-13 15:08:53.698,0,2014-11-13 13:57:29.604,0
2014-11-13 15:08:57.881,381,12.7,40.11401,-88.22452,225.2498,-1,-1,10,81.39496,1415912932,0.3465271,-0.1063232,-0.7002106,9.396118,-13.80208,-42.86133,141.8759,144.9581,15,0.6652219,0.2274957,0.05602705,0.5112687,0.3983525,0.08707935,0.864172,0.3141992,-0.009951039,-0.09750547,0.0111942,0.2426261,172.17.160.76,10.175.81.193,5,unknown,2,2014-11-13 15:08:53.698,0,2014-11-13 13:57:29.604,0
2014-11-13 15:08:57.913,382,12.73333,40.11401,-88.22452,225.2498,-1,-1,10,81.39496,1415912932,0.3414001,-0.0609436,-0.7099457,9.844036,-15.35256,-42.49261,140.6983,143.7804,15,0.3341815,-0.05837862,0.1704013,0.503479,0.4091085,0.1139516,0.5074208,0.1095582,0.1665131,-0.04676201,0.02056549,0.2069357,172.17.160.76,10.175.81.193,5,unknown,2,2014-11-13 15:08:53.698,0,2014-11-13 13:57:29.604,0
2014-11-13 15:08:57.948,383,12.76667,40.11401,-88.22452,225.2498,-1,-1,10,81.39496,1415912932,0.3310242,-0.0496521,-0.6908417,10.22304,-16.55849,-42.05688,142.8147,145.8969,15,0.3799742,-0.02421453,0.1948238,0.5036207,0.4098378,0.1276932,0.405979,0.0003681731,0.1939164,-0.05415193,0.07540552,0.1988568,172.17.160.76,10.175.81.193,5,unknown,2,2014-11-13 15:08:53.698,0,2014-11-13 13:57:29.604,0
2014-11-13 15:08:57.981,384,12.8,40.11401,-88.22452,225.2498,-1,-1,10,81.39496,1415912932,0.3346558,-0.03790283,-0.7413177,9.87849,-17.04086,-41.98981,141.4649,144.547,15,0.3142083,0.08251805,0.1128365,0.5043935,0.412183,0.1469633,0.4145766,0.1396521,0.2062938,-0.06973866,0.1014672,0.2083735,172.17.160.76,10.175.81.193,5,unknown,2,2014-11-13 15:08:53.698,0,2014-11-13 13:57:29.604,0
2014-11-13 15:08:58.014,385,12.83333,40.11401,-88.22452,225.2498,-1,-1,10,81.39496,1415912932,0.3846436,-0.0717926,-0.7765198,9.947399,-17.66106,-41.7887,141.7308,144.813,15,0.3038265,0.06159892,0.01510891,0.5035923,0.4168342,0.1592127,0.3733648,0.1355659,0.08435606,-0.05706529,0.1183797,0.1437621,172.17.160.76,10.175.81.193,5,unknown,2,2014-11-13 15:08:53.698,0,2014-11-13 13:57:29.604,0
2014-11-13 15:08:58.048,386,12.86667,40.11401,-88.22452,225.2498,-1,-1,10,81.39496,1415912932,0.4263763,-0.1245422,-0.7663727,9.809582,-18.41908,-41.52057,140.9949,144.077,15,0.3573342,0.1036449,-0.04219006,0.4970564,0.4237579,0.1731552,0.4174739,0.157962,-0.04306915,-0.003565975,0.08536192,0.115967,172.17.160.76,10.175.81.193,5,unknown,2,2014-11-13 15:08:53.698,0,2014-11-13 13:57:29.604,0
2014-11-13 15:08:58.081,387,12.9,40.11401,-88.22452,225.2498,-1,-1,10,81.39496,1415912932,0.4101105,-0.1298676,-0.8080444,9.87849,-18.62581,-41.11835,141.0215,144.1037,15,0.1214633,0.1949306,0.07169096,0.4924128,0.4305249,0.1837383,0.3053012,0.2405808,0.05650367,0.01411557,0.04369869,0.1338983,172.17.160.76,10.175.81.193,5,unknown,2,2014-11-13 15:08:53.698,0,2014-11-13 13:57:29.604,0
2014-11-13 15:08:58.114,388,12.93333,40.11401,-88.22452,225.2498,-1,-1,10,81.39496,1415912932,0.3854675,-0.1116028,-0.8741455,10.18859,-19.21155,-40.81671,140.7064,143.7885,15,-0.282804,-0.06299175,0.08352286,0.4955431,0.4379106,0.1872538,-0.1363508,0.08292854,0.1178316,-0.01665677,0.06573909,0.03626218,172.17.160.76,10.175.81.193,5,unknown,2,2014-11-13 15:08:53.698,0,2014-11-13 13:57:29.604,0
2014-11-13 15:08:58.148,389,12.96667,40.11401,-88.22452,225.2498,-1,-1,10,81.39496,1415912932,0.3685455,-0.1013794,-0.8872681,10.36086,-19.10818,-40.7832,140.7162,143.7983,15,-0.2995918,-0.1860852,-0.03700995,0.5006705,0.4357175,0.1817776,-0.2588167,-0.1079033,0.02599768,-0.04416588,0.08010066,0.001295673,172.17.160.76,10.175.81.193,5,unknown,2,2014-11-13 15:08:53.698,0,2014-11-13 13:57:29.604,0
2014-11-13 15:08:58.181,390,13,40.11401,-88.22452,225.2498,-1,-1,10,81.39496,1415912932,0.40271,-0.1500702,-0.8805389,10.53314,-19.07373,-40.81671,141.0155,144.0976,15,-0.1433833,-0.03320429,-0.1853973,0.5017102,0.4326457,0.1756598,-0.1410723,-0.04741003,-0.1174248,-0.04133172,0.05787548,0.02349715,172.17.160.76,10.175.81.193,5,unknown,2,2014-11-13 15:08:53.698,0,2014-11-13 13:57:29.604,0
2014-11-13 15:08:58.213,391,13.03333,40.11401,-88.22452,225.2498,-1,-1,10,81.39496,1415912932,0.44841,-0.1999207,-0.8969727,10.53314,-19.21155,-40.68268,143.6991,146.7812,15,0.115945,0.115023,-0.2397234,0.4947261,0.4371138,0.1697369,0.1248541,0.1865028,-0.2212171,0.01938741,-0.01555576,-0.002687456,172.17.160.76,10.175.81.193,5,unknown,2,2014-11-13 15:08:53.698,0,2014-11-13 13:57:29.604,0
2014-11-13 15:08:58.248,392,13.06667,40.11401,-88.22452,225.2498,-1,-1,10,81.39496,1415912932,0.4675598,-0.2342377,-0.8705902,10.53314,-19.41828,-40.54865,144.4089,147.4911,15,0.1486806,0.0785265,-0.1455663,0.4888161,0.4433274,0.1731341,0.2207424,0.1685261,-0.2046861,0.03307755,-0.04229866,-0.004493274,172.17.160.76,10.175.81.193,5,unknown,2,2014-11-13 15:08:53.698,0,2014-11-13 13:57:29.604,0
2014-11-13 15:08:58.281,393,13.1,40.11401,-88.22452,225.2498,-1,-1,10,81.39496,1415912932,0.4340363,-0.2099152,-0.8774414,11.01551,-19.55611,-40.07935,145.6894,148.7716,15,-0.1229217,-0.06939133,0.09032084,0.4818763,0.4501455,0.1780566,0.08891313,0.1064729,0.01308444,0.03812155,-0.06241525,0.01923568,172.17.160.76,10.175.81.193,5,unknown,2,2014-11-13 15:08:53.698,0,2014-11-13 13:57:29.604,0
2014-11-13 15:08:58.313,394,13.13333,40.11401,-88.22452,225.2498,-1,-1,10,81.39496,1415912932,0.3752899,-0.129715,-0.8937225,11.04996,-19.31492,-40.24689,142.8389,145.921,15,-0.1943535,-0.1917705,0.06128386,0.484859,0.4500934,0.1783733,-0.1023273,-0.04463314,0.112784,-0.0147406,-0.00865199,0.006756261,172.17.160.76,10.175.81.193,5,unknown,2,2014-11-13 15:08:53.698,0,2014-11-13 13:57:29.604,0
2014-11-13 15:08:58.348,395,13.16667,40.11401,-88.22452,225.2498,-1,-1,10,81.39496,1415912932,0.3873749,-0.1043701,-0.8869324,10.80878,-19.28046,-40.41455,142.1775,145.2596,15,-0.09913351,-0.1479556,-0.04074423,0.4887584,0.446078,0.1761112,-0.1139273,-0.1396945,0.04651488,-0.04946759,0.04548726,-0.005530417,172.17.160.76,10.175.81.193,5,unknown,2,2014-11-13 15:08:53.698,0,2014-11-13 13:57:29.604,0
2014-11-13 15:08:58.381,396,13.2,40.11401,-88.22452,225.2498,-1,-1,10,81.39496,1415912932,0.4219818,-0.1114197,-0.8920898,10.39531,-19.28046,-40.54865,141.4748,144.557,15,0.04515576,-0.008427307,-0.1286528,0.487089,0.4441369,0.1754797,0.0955661,0.04939934,-0.08702073,-0.01803556,0.0742539,0.001068398,172.17.160.76,10.175.81.193,5,unknown,2,2014-11-13 15:08:53.698,0,2014-11-13 13:57:29.604,0
2014-11-13 15:08:58.414,397,13.23333,40.11401,-88.22452,225.2498,-1,-1,10,81.39496,1415912932,0.4379578,-0.1483002,-0.8742828,10.3264,-19.28046,-40.01227,142.9666,146.0487,15,0.004612595,-0.09029927,-0.1384854,0.4824658,0.4461143,0.1768175,0.09244893,0.004483594,-0.125459,0.01357251,0.03989603,-1.192917e-05,172.17.160.76,10.175.81.193,5,unknown,2,2014-11-13 15:08:53.698,0,2014-11-13 13:57:29.604,0
2014-11-13 15:08:58.448,398,13.26667,40.11401,-88.22452,225.2498,-1,-1,10,81.39496,1415912932,0.4097595,-0.1856079,-0.833725,10.80878,-19.41827,-39.94531,144.5397,147.6218,15,-0.092535,-0.109074,-0.09788422,0.4788265,0.4458259,0.1767637,0.01022344,-0.04303719,-0.09143408,0.005340627,0.003984915,0.04082949,172.17.160.76,10.175.81.193,5,unknown,2,2014-11-13 15:08:53.698,0,2014-11-13 13:57:29.604,0
