time,timestamp,recordtime,lat,long,alt,speed,course,verticalAccuracy,horizontalAccuracy,locTimeStamp,accelerationX,accelerationY,accelerationZ,HeadingX,HeadingY,HeadingZ,TrueHeading,MagneticHeading,HeadingAccuracy,RotationX,RotationY,RotationZ,motionYaw,motionRoll,motionPitch,motionRotationRateX,motionRotationRateY,motionRotationRateZ,motionUserAccelerationX,motionUserAccelerationY,motionUserAccelerationZ,en0,pdp_ip0,DeviceOrientation,Activity,Activity Confidence,Activity Start,Steps,Last Step Date,State
2014-11-13 21:17:41.765,16488,549.6,40.10424,-88.22173,230.8876,-1,-1,10,165,1415935020,0.5292358,0.5587006,0.6209564,21.70795,8.471535,33.27475,193.9797,197.0629,10,-0.03095179,-0.1329695,-0.02181395,-2.608731,2.444061,-0.6182738,0.05241469,-0.07006912,0.002673605,0.00461024,-0.0178313,0.007409285,172.17.160.76,0.0.0.0,2,unknown,1,2014-11-13 21:17:39.863,198,2014-11-13 21:16:55.362,2
2014-11-13 21:17:41.799,16489,549.6334,40.10424,-88.22173,230.8876,-1,-1,10,165,1415935020,0.5280609,0.5531616,0.6135406,22.05231,8.333786,32.93954,193.933,197.0162,10,-0.03522004,-0.1723475,-0.03049719,-2.610498,2.438483,-0.6165549,0.03217333,-0.09354553,-0.01116369,0.002703645,-0.02607324,-0.00455009,172.17.160.76,0.0.0.0,2,unknown,1,2014-11-13 21:17:39.863,198,2014-11-13 21:16:55.362,2
2014-11-13 21:17:41.832,16490,549.6667,40.10424,-88.22173,230.8876,-1,-1,10,165,1415935020,0.5214233,0.5597382,0.604126,22.2245,8.299339,32.70486,193.7731,196.8563,10,-0.04896941,-0.175808,-0.06761579,-2.611031,2.434255,-0.6158526,0.02370095,-0.1181844,-0.03779312,-0.008655623,-0.02228053,-0.01280003,172.17.160.76,0.0.0.0,2,unknown,1,2014-11-13 21:17:39.863,198,2014-11-13 21:16:55.362,2
2014-11-13 21:17:41.865,16491,549.7,40.10424,-88.22173,230.8876,-1,-1,10,165,1415935020,0.5098877,0.5851288,0.5923767,22.46555,8.747032,32.60431,193.6783,196.7615,10,-0.02226749,-0.1642366,-0.08145411,-2.610072,2.431546,-0.6175937,0.03338188,-0.1013718,-0.06215523,-0.01713962,-0.006672076,-0.01596826,172.17.160.76,0.0.0.0,2,unknown,1,2014-11-13 21:17:39.863,198,2014-11-13 21:16:55.362,2
2014-11-13 21:17:41.898,16492,549.7333,40.10424,-88.22173,230.8876,-1,-1,10,165,1415935020,0.5090485,0.5913239,0.5979919,22.2245,8.919228,32.50375,193.5984,196.6816,10,-0.004154798,-0.1525091,-0.07509129,-2.609467,2.429003,-0.6218978,0.06004794,-0.0982127,-0.06436642,-0.02493393,0.005723888,-0.02294649,172.17.160.76,0.0.0.0,2,unknown,1,2014-11-13 21:17:39.863,198,2014-11-13 21:16:55.362,2
2014-11-13 21:17:41.932,16493,549.7667,40.10424,-88.22173,230.8876,-1,-1,10,165,1415935020,0.5304108,0.5904541,0.6114807,21.81126,9.19474,32.90604,193.7407,196.8239,10,0.02140516,-0.05451491,-0.04176502,-2.609249,2.427413,-0.6260548,0.07602121,-0.04174098,-0.04290432,-0.01632446,0.004547502,-0.006410724,172.17.160.76,0.0.0.0,2,unknown,1,2014-11-13 21:17:39.863,198,2014-11-13 21:16:55.362,2
2014-11-13 21:17:41.965,16494,549.8,40.10424,-88.22173,230.8876,-1,-1,10,165,1415935020,0.5508575,0.5907745,0.5932617,21.5702,9.091431,32.8725,193.8712,196.9544,10,0.03098455,-0.03212518,-0.03106817,-2.610613,2.426649,-0.6288217,0.09838092,0.02325798,-0.01717088,0.005360375,-0.0004236635,-0.0006585619,172.17.160.76,0.0.0.0,2,unknown,1,2014-11-13 21:17:39.863,198,2014-11-13 21:16:55.362,2
2014-11-13 21:17:41.997,16495,549.8334,40.10424,-88.22173,230.8876,-1,-1,10,165,1415935020,0.5539551,0.5902557,0.59758,21.60464,9.539124,32.90604,194.1038,197.187,10,0.01393392,-0.06619979,-0.04179858,-2.614575,2.423713,-0.6321406,0.08453199,0.01472453,-0.02140607,0.02107711,0.000969598,-0.01308302,172.17.160.76,0.0.0.0,2,unknown,1,2014-11-13 21:17:39.863,198,2014-11-13 21:16:55.362,2
2014-11-13 21:17:42.031,16496,549.8667,40.10424,-88.22173,230.8876,-1,-1,10,165,1415935020,0.5549011,0.5887451,0.5979919,22.05231,9.435799,33.00662,194.255,197.3382,10,0.01923788,-0.07145954,-0.03441576,-2.616235,2.42191,-0.6335472,0.0824012,-0.002312081,-0.02573131,0.02272802,-0.001751559,-0.008493618,172.17.160.76,0.0.0.0,2,unknown,1,2014-11-13 21:17:39.863,198,2014-11-13 21:16:55.362,2
2014-11-13 21:17:42.065,16497,549.9,40.10424,-88.22173,230.8876,-1,-1,10,165,1415935020,0.5572968,0.5984192,0.5969391,22.08675,9.676872,33.10724,194.3174,197.4006,10,0.01275122,-0.1319128,-0.01984907,-2.619779,2.417766,-0.6357399,0.08660398,-0.03729948,-0.014249,0.02202749,-0.00502788,-0.004900512,172.17.160.76,0.0.0.0,2,unknown,1,2014-11-13 21:17:39.863,198,2014-11-13 21:16:55.362,2
2014-11-13 21:17:42.098,16498,549.9333,40.10424,-88.22173,230.8876,-1,-1,10,165,1415935020,0.54776,0.5887299,0.5970306,22.15562,9.40136,32.50378,200.7087,203.7919,10,0.008426242,-0.1573092,-0.006167348,-2.622757,2.412916,-0.6373574,0.08118863,-0.07967065,0.003596931,0.02214596,0.003345435,-0.002644812,172.17.160.76,0.0.0.0,2,unknown,1,2014-11-13 21:17:39.863,198,2014-11-13 21:16:55.362,2
2014-11-13 21:17:42.132,16499,549.9667,40.10424,-88.22173,230.8876,-1,-1,10,165,1415935020,0.5287781,0.5826721,0.5821228,22.39668,9.917938,32.67142,205.8309,208.9141,10,-0.02778716,-0.1563084,-0.01664129,-2.626917,2.404738,-0.6388734,0.05559669,-0.09881344,0.0004123219,-0.0008856353,-0.01337514,-0.00710116,172.17.160.76,0.0.0.0,2,unknown,1,2014-11-13 21:17:39.863,198,2014-11-13 21:16:55.362,2
2014-11-13 21:17:42.165,16500,550,40.10424,-88.22173,230.8876,-1,-1,10,165,1415935020,0.518692,0.5918579,0.5802155,22.46555,9.917938,32.67142,208.1059,211.1891,10,-0.05338306,-0.1530758,-0.0122825,-2.627556,2.40255,-0.6394515,0.03215485,-0.08712137,-0.0004998572,-0.0170285,-0.007460979,-0.01387382,172.17.160.76,0.0.0.0,2,unknown,1,2014-11-13 21:17:39.863,198,2014-11-13 21:16:55.362,2
2014-11-13 21:17:42.198,16501,550.0334,40.10424,-88.22173,230.8876,-1,-1,10,165,1415935020,0.5112,0.5974274,0.5854797,22.49999,10.02126,33.30835,212.1481,215.2313,10,-0.061894,-0.09562719,-0.003456251,-2.627613,2.399909,-0.6406441,0.006568536,-0.05942255,0.00716787,-0.02685497,-0.001306964,-0.007112673,172.17.160.76,0.0.0.0,2,unknown,1,2014-11-13 21:17:39.863,198,2014-11-13 21:16:55.362,2
2014-11-13 21:17:42.231,16502,550.0667,40.10424,-88.22173,230.8876,-1,-1,10,165,1415935020,0.5172577,0.5904236,0.5745087,22.49998,10.15899,33.04013,215.5133,218.5965,10,-0.0555064,-0.03918469,0.01380077,-2.627605,2.400321,-0.6413149,0.01723661,0.01401478,0.0234325,-0.02849253,-0.002699055,-0.008641638,172.17.160.76,0.0.0.0,2,unknown,1,2014-11-13 21:17:39.863,198,2014-11-13 21:16:55.362,2
2014-11-13 21:17:42.265,16503,550.1,40.10424,-88.22173,230.8876,-1,-1,10,165,1415935020,0.531662,0.595871,0.5774384,22.36224,10.02124,33.04013,217.0189,220.1021,10,-0.06932448,-0.02756904,0.003298858,-2.628817,2.400845,-0.6415632,-0.0009011136,0.03109802,0.03314081,-0.01444112,-0.008909968,-0.01858107,172.17.160.76,0.0.0.0,2,unknown,1,2014-11-13 21:17:39.863,198,2014-11-13 21:16:55.362,2
2014-11-13 21:17:42.298,16504,550.1334,40.10424,-88.22173,230.8876,-1,-1,10,165,1415935020,0.5401611,0.6020355,0.5763092,22.60329,10.40005,33.20773,219.8218,222.905,10,-0.05860313,-0.03198456,-0.01799418,-2.629317,2.401143,-0.6414606,-0.0008546101,0.03630656,0.01936804,-0.008858988,-0.002495394,-0.01399615,172.17.160.76,0.0.0.0,2,unknown,1,2014-11-13 21:17:39.863,198,2014-11-13 21:16:55.362,2
2014-11-13 21:17:42.332,16505,550.1667,40.10424,-88.22173,230.8876,-1,-1,10,165,1415935020,0.5503693,0.5970306,0.5796509,22.39668,10.26231,33.34183,221.1154,224.1986,10,-0.03300242,-0.07142545,-0.03315848,-2.630095,2.401341,-0.6425973,0.02163263,0.02008194,-0.01689287,0.001895362,0.004315226,-0.01474553,172.17.160.76,0.0.0.0,2,unknown,1,2014-11-13 21:17:39.863,198,2014-11-13 21:16:55.362,2
2014-11-13 21:17:42.365,16506,550.2,40.10424,-88.22173,230.8876,-1,-1,10,165,1415935020,0.5474396,0.5924377,0.5794067,22.63773,9.952385,33.04013,223.396,226.4792,10,-0.02025041,-0.1000741,-0.02698821,-2.631412,2.399448,-0.6441317,0.04716513,-0.0308995,-0.01194782,0.009227341,-0.006662778,-0.009854848,172.17.160.76,0.0.0.0,2,unknown,1,2014-11-13 21:17:39.863,198,2014-11-13 21:16:55.362,2
2014-11-13 21:17:42.398,16507,550.2333,40.10424,-88.22173,230.8876,-1,-1,10,165,1415935020,0.5483551,0.5891418,0.5835114,22.36225,9.607994,32.70486,225.3975,228.4807,10,-0.01706341,-0.102177,-0.02382677,-2.632735,2.397036,-0.6451555,0.04929221,-0.04153705,-0.01307124,0.004989078,-0.007771086,-0.006845538,172.17.160.76,0.0.0.0,2,unknown,1,2014-11-13 21:17:39.863,198,2014-11-13 21:16:55.362,2
2014-11-13 21:17:42.431,16508,550.2667,40.10424,-88.22173,230.8876,-1,-1,10,165,1415935020,0.5569,0.5755463,0.5794983,22.32781,9.435814,32.33609,227.2933,230.3764,10,0.01265055,-0.09546474,0.02280252,-2.635354,2.393686,-0.6460596,0.0747686,-0.03063839,0.02510728,0.008856564,-0.01937272,-0.001608592,172.17.160.76,0.0.0.0,2,unknown,1,2014-11-13 21:17:39.863,198,2014-11-13 21:16:55.362,2
2014-11-13 21:17:42.465,16509,550.3,40.10424,-88.22173,230.8876,-1,-1,10,165,1415935020,0.6004333,0.5368805,0.5782623,22.77548,9.883507,32.30255,228.184,231.2672,10,0.06681366,-0.1056226,0.08835809,-2.638189,2.390697,-0.6454517,0.09706151,-0.03681255,0.05365708,0.01731172,-0.02860706,-0.005087081,172.17.160.76,0.0.0.0,2,unknown,1,2014-11-13 21:17:39.863,198,2014-11-13 21:16:55.362,2
2014-11-13 21:17:42.498,16510,550.3334,40.10424,-88.22173,230.8876,-1,-1,10,165,1415935020,0.6235504,0.4958801,0.564743,23.05097,10.159,32.30255,229.8449,232.9281,10,0.1571462,-0.1028316,0.1825064,-2.645432,2.383885,-0.6434062,0.1618499,-0.03733061,0.1309128,0.05058758,-0.06304353,-0.00290959,172.17.160.76,0.0.0.0,2,unknown,1,2014-11-13 21:17:39.863,198,2014-11-13 21:16:55.362,2
2014-11-13 21:17:42.532,16511,550.3667,40.10424,-88.22173,230.8876,-1,-1,10,165,1415935020,0.6617279,0.4601746,0.5574646,23.11984,10.29675,32.7048,275.2477,278.3309,10,0.2197883,-0.2086837,0.240096,-2.661578,2.371181,-0.6420076,0.2680709,-0.07796019,0.2460131,0.08139183,-0.1311989,-0.02278521,172.17.160.76,0.0.0.0,2,unknown,1,2014-11-13 21:17:39.863,198,2014-11-13 21:16:55.362,2
2014-11-13 21:17:42.565,16512,550.4,40.10424,-88.22173,230.8876,-1,-1,10,165,1415935020,0.6898804,0.4471893,0.5934448,22.80991,10.12456,32.73834,277.9641,281.0473,10,0.282519,-0.2306543,0.289635,-2.682009,2.352241,-0.6401014,0.3084249,-0.1649117,0.2730152,0.1015054,-0.1387959,0.003222299,172.17.160.76,0.0.0.0,2,unknown,1,2014-11-13 21:17:39.863,198,2014-11-13 21:16:55.362,2
2014-11-13 21:17:42.598,16513,550.4333,40.10424,-88.22173,230.8876,-1,-1,10,165,1415935020,0.7451782,0.3990936,0.6221313,22.63773,10.43451,32.57068,279.1645,282.2477,10,0.3068412,-0.2418837,0.3521122,-2.693054,2.342314,-0.6406001,0.3509665,-0.1668108,0.3057517,0.1151521,-0.1504873,0.03445468,172.17.160.76,0.0.0.0,2,unknown,1,2014-11-13 21:17:39.863,198,2014-11-13 21:16:55.362,2
2014-11-13 21:17:42.632,16514,550.4667,40.10424,-88.22173,230.8876,-1,-1,10,165,1415935020,0.8639526,0.3459167,0.6832275,23.3609,10.26232,32.20187,277.8986,280.9818,10,0.2104105,-0.2991763,0.4986562,-2.719791,2.318636,-0.6367561,0.3515857,-0.1955286,0.4436028,0.1834676,-0.2108471,0.08717211,172.17.160.76,0.0.0.0,2,unknown,1,2014-11-13 21:17:39.863,198,2014-11-13 21:16:55.362,2
2014-11-13 21:17:42.665,16515,550.5,40.10424,-88.22173,230.8876,-1,-1,10,165,1415935020,0.9178772,0.3373718,0.7247162,23.3609,10.26232,32.20187,277.8986,280.9818,10,0.1602001,-0.3329548,0.5252033,-2.733651,2.30606,-0.6337273,0.2788487,-0.2353362,0.5147848,0.2333648,-0.234105,0.1204158,172.17.160.76,0.0.0.0,2,unknown,1,2014-11-13 21:17:39.863,198,2014-11-13 21:16:55.362,2
2014-11-13 21:17:42.698,16516,550.5334,40.10424,-88.22173,230.8876,-1,-1,10,165,1415935020,1.007874,0.3109894,0.8659668,24.63505,9.814636,31.3638,273.9434,277.0266,10,-0.1131612,-0.6872718,0.5848656,-2.767193,2.263039,-0.6124042,-0.02119931,-0.5586814,0.5938165,0.3556027,-0.2474896,0.3028928,172.17.160.76,0.0.0.0,2,unknown,1,2014-11-13 21:17:39.863,198,2014-11-13 21:16:55.362,2
2014-11-13 21:17:42.732,16517,550.5667,40.10424,-88.22173,230.8876,-1,-1,10,165,1415935020,0.9975586,0.349411,1.048935,25.46152,9.883514,30.29105,271.2275,274.3107,10,-0.204065,-1.347621,0.5127323,-2.775415,2.245291,-0.6024395,-0.07677469,-0.7275757,0.5973811,0.3643456,-0.2556648,0.3514039,172.17.160.76,0.0.0.0,2,unknown,1,2014-11-13 21:17:39.863,198,2014-11-13 21:16:55.362,2
2014-11-13 21:17:42.765,16518,550.6,40.10424,-88.22173,230.8876,-1,-1,10,165,1415935020,0.8395386,0.3388519,1.202179,26.0125,9.332512,29.68759,268.7601,271.8433,10,-0.4777719,-1.838414,-0.0545972,-2.78376,2.187865,-0.5851091,-0.1626079,-1.724229,0.1721072,0.3089375,-0.1390975,0.6224684,172.17.160.76,0.0.0.0,2,unknown,1,2014-11-13 21:17:39.863,198,2014-11-13 21:16:55.362,2
2014-11-13 21:17:42.798,16519,550.6334,40.10424,-88.22173,230.8876,-1,-1,10,165,1415935020,0.5923615,0.2138367,1.43338,27.35553,8.747055,27.91089,265.0502,268.1334,10,-1.93138,-1.791037,-0.203881,-2.75947,2.148402,-0.5756533,-1.299941,-1.742524,-0.2196488,0.08379038,-0.2447308,0.8139209,172.17.160.76,0.0.0.0,2,unknown,1,2014-11-13 21:17:39.863,198,2014-11-13 21:16:55.362,2
2014-11-13 21:17:42.832,16520,550.6667,40.10424,-88.22173,230.8876,-1,-1,10,165,1415935020,0.3762207,0.3719788,1.683655,28.76742,7.954987,26.93869,260.4685,263.5517,10,-4.556473,-0.9544972,0.519424,-2.687163,2.135869,-0.5385233,-3.275362,-1.620689,0.1737077,-0.203915,-0.3081264,1.110012,172.17.160.76,0.0.0.0,2,unknown,1,2014-11-13 21:17:39.863,198,2014-11-13 21:16:55.362,2
2014-11-13 21:17:42.865,16521,550.7,40.10424,-88.22173,230.8876,-1,-1,10,165,1415935020,0.1100159,0.6668854,1.255005,29.76608,4.889999,25.63126,251.949,255.0322,10,-4.86974,2.565363,1.011492,-2.533875,2.184156,-0.4222911,-4.846856,0.7725382,0.826961,-0.4611093,0.05235266,1.05077,172.17.160.76,0.0.0.0,2,unknown,1,2014-11-13 21:17:39.863,198,2014-11-13 21:16:55.362,2
2014-11-13 21:17:42.897,16522,550.7333,40.10424,-88.22173,230.8876,-1,-1,10,165,1415935020,0.03369141,1.084778,0.7456207,29.49059,2.272697,25.6983,242.1101,245.1933,10,-4.173297,3.819948,0.8743137,-2.463001,2.24947,-0.3491638,-4.801262,2.629256,1.027634,-0.6214206,0.3247732,0.6651236,172.17.160.76,0.0.0.0,2,unknown,1,2014-11-13 21:17:39.863,198,2014-11-13 21:16:55.362,2
2014-11-13 21:17:42.932,16523,550.7667,40.10424,-88.22173,230.8876,-1,-1,10,165,1415935020,0.2015839,0.4029388,1.108597,24.53174,-7.094475,26.97223,225.8605,228.9437,10,-4.780488,2.917904,0.1394146,-2.361988,2.423881,-0.208769,-4.120407,3.58262,0.6798161,-0.5407673,0.7977338,0.08765974,172.17.160.76,0.0.0.0,2,unknown,1,2014-11-13 21:17:39.863,198,2014-11-13 21:16:55.362,2
2014-11-13 21:17:42.965,16524,550.8,40.10424,-88.22173,230.8876,-1,-1,10,165,1415935020,0.9550781,1.396317,-0.3534088,22.19006,-9.505142,28.11203,191.1484,194.2316,10,-1.039288,6.586347,1.285817,-2.254733,2.567021,-0.07015619,-3.471123,3.765265,-0.7068875,0.04134217,0.4832919,-0.02078595,172.17.160.76,0.0.0.0,2,unknown,1,2014-11-13 21:17:39.863,198,2014-11-13 21:16:55.362,2
2014-11-13 21:17:42.998,16525,550.8334,40.10424,-88.22173,230.8876,-1,-1,10,165,1415935020,1.494644,0.4738464,-0.1811371,15.81931,-13.94766,29.48654,178.3641,181.4473,10,-1.903144,5.665709,2.582396,-2.25707,2.749144,-0.01769863,-1.702709,6.785664,2.590867,0.8676538,1.114703,-1.064837,172.17.160.76,0.0.0.0,2,unknown,1,2014-11-13 21:17:39.863,198,2014-11-13 21:16:55.362,2
2014-11-13 21:17:43.031,16526,550.8667,40.10424,-88.22173,230.8876,-1,-1,10,165,1415935020,1.342331,0.06079102,-0.02433777,10.20617,-16.53052,30.39172,175.4774,178.5606,10,-0.1338321,-2.535443,-1.161374,-2.298241,2.880296,0.0446103,-0.2102879,-0.3993677,-0.2814072,1.24084,0.4376009,-1.136405,172.17.160.76,0.0.0.0,2,unknown,1,2014-11-13 21:17:39.863,198,2014-11-13 21:16:55.362,2
2014-11-13 21:17:43.064,16527,550.9,40.10424,-88.22173,230.8876,-1,-1,10,165,1415935020,0.5610809,0.01119995,0.466568,9.173073,-17.15041,29.72122,175.1913,178.2745,10,-0.694276,-5.939977,-1.773756,-2.255914,2.772353,0.03921226,-0.5677738,-5.209761,-1.740524,0.6508453,-0.01165533,-0.6067355,172.17.160.76,0.0.0.0,2,unknown,1,2014-11-13 21:17:39.863,198,2014-11-13 21:16:55.362,2
2014-11-13 21:17:43.098,16528,550.9333,40.10424,-88.22173,230.8876,-1,-1,10,165,1415935020,0.2366486,-0.01446533,0.8366852,13.37432,-17.08153,26.90524,174.8662,177.9494,10,0.3630882,-6.720959,-1.566347,-2.204258,2.586454,0.0268007,0.01632253,-6.538937,-1.69239,-0.1166239,0.06889649,-0.2810103,172.17.160.76,0.0.0.0,2,unknown,1,2014-11-13 21:17:39.863,198,2014-11-13 21:16:55.362,2
2014-11-13 21:17:43.133,16529,550.9667,40.10424,-88.22173,230.8876,-1,-1,10,165,1415935020,0.1112366,-0.02275085,0.8899689,17.36895,-16.5994,25.29608,173.3699,176.4531,10,1.967257,-4.589256,-0.5909344,-2.185238,2.392513,-0.01543688,1.269667,-6.019704,-1.096735,-0.4803374,-0.04305467,0.1791328,172.17.160.76,0.0.0.0,2,unknown,1,2014-11-13 21:17:39.863,198,2014-11-13 21:16:55.362,2
2014-11-13 21:17:43.165,16530,551,40.10424,-88.22173,230.8876,-1,-1,10,165,1415935020,0.1049805,0.02912903,0.8027954,24.77279,-15.66956,21.17267,166.4606,169.5438,10,2.279593,-2.026873,0.06677051,-2.214551,2.24965,-0.06823809,2.279713,-3.714964,-0.3209292,-0.6933517,-0.08518344,0.2268773,172.17.160.76,0.0.0.0,2,unknown,1,2014-11-13 21:17:39.863,198,2014-11-13 21:16:55.362,2
2014-11-13 21:17:43.198,16531,551.0334,40.10424,-88.22173,230.8876,-1,-1,10,165,1415935020,0.288681,0.09521484,0.8206787,28.21644,-13.94765,18.5578,182.7633,185.8465,10,1.189968,1.712278,0.705139,-2.289072,2.174253,-0.1172066,1.866813,-0.0607595,0.3675319,-0.6650048,-0.05825311,0.2348637,172.17.160.76,0.0.0.0,2,unknown,1,2014-11-13 21:17:39.863,198,2014-11-13 21:16:55.362,2
2014-11-13 21:17:43.232,16532,551.0667,40.10424,-88.22173,230.8876,-1,-1,10,165,1415935020,0.6240234,0.02989197,0.9492798,27.69989,-12.46681,19.39594,188.8693,191.9525,10,0.8536518,3.931269,1.43883,-2.334419,2.214834,-0.1239294,1.059014,2.629192,0.9632295,-0.4257011,-0.02885539,0.249482,172.17.160.76,0.0.0.0,2,unknown,1,2014-11-13 21:17:39.863,198,2014-11-13 21:16:55.362,2
2014-11-13 21:17:43.265,16533,551.1,40.10424,-88.22173,230.8876,-1,-1,10,165,1415935020,0.8811493,-0.06089783,1.108322,25.87476,-12.43238,20.97156,193.0763,196.1595,10,0.8580729,4.72773,1.942965,-2.422775,2.413316,-0.0973797,0.9213246,4.82222,1.930627,0.1329943,-0.1299407,0.3246571,172.17.160.76,0.0.0.0,2,unknown,1,2014-11-13 21:17:39.863,198,2014-11-13 21:16:55.362,2
2014-11-13 21:17:43.298,16534,551.1334,40.10424,-88.22173,230.8876,-1,-1,10,165,1415935020,1.033798,0.1121826,1.048111,23.56752,-12.67345,22.94946,194.1419,197.2251,10,0.9381667,4.146072,1.748536,-2.443754,2.459434,-0.09174179,0.9265453,4.791618,1.959106,0.2533303,-0.152511,0.335373,172.17.160.76,0.0.0.0,2,unknown,1,2014-11-13 21:17:39.863,198,2014-11-13 21:16:55.362,2
2014-11-13 21:17:43.331,16535,551.1667,40.10424,-88.22173,230.8876,-1,-1,10,165,1415935020,1.114182,0.7280121,1.033081,14.37298,-12.088,28.8161,188.7236,191.8068,10,2.027297,1.281123,0.7899591,-2.540526,2.635484,-0.09863353,1.709932,2.241399,1.009701,0.5518962,0.3230504,0.1380666,172.17.160.76,0.0.0.0,2,unknown,1,2014-11-13 21:17:39.863,198,2014-11-13 21:16:55.362,2
2014-11-13 21:17:43.365,16536,551.2,40.10424,-88.22173,230.8876,-1,-1,10,165,1415935020,1.150848,0.6826782,1.01532,12.54785,-10.95153,30.12354,191.9831,195.0663,10,2.87012,-0.6376854,0.4423319,-2.593282,2.65257,-0.1514426,2.803277,-0.09272441,0.5559846,0.7227013,0.6180412,0.1785965,172.17.160.76,0.0.0.0,2,unknown,1,2014-11-13 21:17:39.863,198,2014-11-13 21:16:55.362,2
2014-11-13 21:17:43.398,16537,551.2333,40.10424,-88.22173,230.8876,-1,-1,10,165,1415935020,0.828125,0.2737122,0.8213654,10.92933,-8.57531,31.56506,195.2998,198.3829,10,2.321794,-1.682459,-0.05258279,-2.644967,2.617729,-0.2216817,2.707603,-1.289965,0.1615357,0.4977598,0.2059108,0.03867343,172.17.160.76,0.0.0.0,2,unknown,1,2014-11-13 21:17:39.863,198,2014-11-13 21:16:55.362,2
2014-11-13 21:17:43.432,16538,551.2667,40.10424,-88.22173,230.8876,-1,-1,10,165,1415935020,0.7014618,0.3871307,0.8126526,12.85777,-5.613632,31.36392,197.3743,200.4575,10,0.6860942,-2.358367,-0.4533803,-2.677031,2.532322,-0.28916,1.066948,-2.275542,-0.4425556,0.1876796,0.03760668,0.03339282,172.17.160.76,0.0.0.0,2,unknown,1,2014-11-13 21:17:39.863,198,2014-11-13 21:16:55.362,2
2014-11-13 21:17:43.465,16539,551.3,40.10424,-88.22173,230.8876,-1,-1,10,165,1415935020,0.5193176,0.6246796,0.7046509,14.26967,-4.477173,31.06226,199.728,202.8112,10,0.8553293,-2.273141,0.01030244,-2.681011,2.463028,-0.3125618,0.6537965,-2.235549,-0.2369935,0.02787272,0.2171762,0.01493488,172.17.160.76,0.0.0.0,2,unknown,1,2014-11-13 21:17:39.863,198,2014-11-13 21:16:55.362,2
2014-11-13 21:17:43.497,16540,551.3334,40.10424,-88.22173,230.8876,-1,-1,10,165,1415935020,0.3802032,0.6537628,0.6880188,17.64444,-2.893013,29.92242,200.4056,203.4888,10,1.01813,-2.131928,0.1473676,-2.691078,2.415477,-0.3258795,0.9237989,-2.209256,0.02644286,-0.1097078,0.3045374,-0.003753002,172.17.160.76,0.0.0.0,2,unknown,1,2014-11-13 21:17:39.863,198,2014-11-13 21:16:55.362,2
2014-11-13 21:17:43.532,16541,551.3667,40.10424,-88.22173,230.8876,-1,-1,10,165,1415935020,0.345932,0.5034332,0.5949707,19.26296,-1.894302,29.21844,201.1065,204.1897,10,0.8064422,-1.023657,0.2781898,-2.72686,2.32497,-0.352696,1.037781,-1.636336,0.2009892,-0.3297867,0.2880701,0.03259953,172.17.160.76,0.0.0.0,2,unknown,1,2014-11-13 21:17:39.863,198,2014-11-13 21:16:55.362,2
2014-11-13 21:17:43.566,16542,551.4,40.10424,-88.22173,230.8876,-1,-1,10,165,1415935020,0.4380035,0.4044647,0.4981689,21.1914,-1.343307,27.81042,245.0783,248.1615,10,0.5309408,0.02092978,0.6965772,-2.763761,2.277328,-0.3649029,0.6891942,-0.2394485,0.552509,-0.3497587,0.1095568,-0.04383357,172.17.160.76,0.0.0.0,2,unknown,1,2014-11-13 21:17:39.863,198,2014-11-13 21:16:55.362,2
2014-11-13 21:17:43.598,16543,551.4333,40.10424,-88.22173,230.8876,-1,-1,10,165,1415935020,0.5448151,0.3948059,0.5258026,21.94901,-0.9300461,27.6763,246.1974,249.2806,10,0.2801219,0.8564353,1.007623,-2.783581,2.273493,-0.360978,0.516049,0.3898573,0.860055,-0.3036738,0.06482515,-0.09260254,172.17.160.76,0.0.0.0,2,unknown,1,2014-11-13 21:17:39.863,198,2014-11-13 21:16:55.362,2
2014-11-13 21:17:43.633,16544,551.4667,40.10424,-88.22173,230.8876,-1,-1,10,165,1415935020,0.7942963,0.4433136,0.6138916,20.84704,-0.7922974,28.27975,248.2311,251.3143,10,0.02969185,1.595684,0.8118335,-2.829423,2.311004,-0.3334684,0.1223383,1.518824,0.9056876,-0.1008999,0.0736176,-0.08417248,172.17.160.76,0.0.0.0,2,unknown,1,2014-11-13 21:17:39.863,198,2014-11-13 21:16:55.362,2
2014-11-13 21:17:43.665,16545,551.5,40.10424,-88.22173,230.8876,-1,-1,10,165,1415935020,0.9228821,0.4489288,0.6032562,19.98612,-0.9644852,28.78262,248.9823,252.0655,10,0.1412256,1.591842,0.5906073,-2.848866,2.35584,-0.3191723,0.1519965,1.749769,0.6743279,0.1788007,0.1409922,-0.05673096,172.17.160.76,0.0.0.0,2,unknown,1,2014-11-13 21:17:39.863,198,2014-11-13 21:16:55.362,2
2014-11-13 21:17:43.699,16546,551.5334,40.10424,-88.22173,230.8876,-1,-1,10,165,1415935020,0.9286194,0.3678894,0.5741272,18.74641,-0.6889877,29.11783,250.3967,253.4799,10,0.2924556,0.8373431,0.4480753,-2.861112,2.384128,-0.3141339,0.269427,1.47357,0.5493018,0.2694233,0.1399359,-0.08776836,172.17.160.76,0.0.0.0,2,unknown,1,2014-11-13 21:17:39.863,198,2014-11-13 21:16:55.362,2
